$GPRMC,140420.40,A,4437.78916,N,01057.00225,E,0.336,,140422,,,A*73

$GPRMC,140420.50,A,4437.78913,N,01057.00226,E,0.094,,140422,,,A*7F

$GPRMC,140420.60,A,4437.78910,N,01057.00227,E,0.081,,140422,,,A*7A

$GPRMC,140420.70,A,4437.78907,N,01057.00227,E,0.109,,140422,,,A*7C

$GPRMC,140420.80,A,4437.78904,N,01057.00227,E,0.049,,140422,,,A*75

$GPRMC,140420.90,A,4437.78901,N,01057.00229,E,0.197,,140422,,,A*7D

$GPRMC,140421.00,A,4437.78899,N,01057.00229,E,0.168,,140422,,,A*75

$GPRMC,140421.10,A,4437.78896,N,01057.00232,E,0.257,,140422,,,A*7E

$GPRMC,140421.20,A,4437.78895,N,01057.00232,E,0.421,,140422,,,A*79

$GPRMC,140421.30,A,4437.78895,N,01057.00232,E,0.397,,140422,,,A*72

$GPGGA,140421.30,4437.78895,N,01057.00232,E,1,09,1.13,35.0,M,46.0,M,,*6C

$GPRMC,140421.40,A,4437.78893,N,01057.00231,E,0.260,,140422,,,A*79

$GPRMC,140421.50,A,4437.78894,N,01057.00230,E,0.337,,140422,,,A*7D

$GPRMC,140421.60,A,4437.78894,N,01057.00229,E,0.406,,140422,,,A*73

$GPRMC,140421.70,A,4437.78896,N,01057.00228,E,0.608,165.47,140422,,,A*62

$GPRMC,140421.80,A,4437.78896,N,01057.00227,E,0.441,,140422,,,A*72

$GPRMC,140421.90,A,4437.78898,N,01057.00225,E,0.611,89.32,140422,,,A*56

$GPRMC,140422.00,A,4437.78900,N,01057.00224,E,0.729,53.57,140422,,,A*53

$GPRMC,140422.10,A,4437.78903,N,01057.00226,E,1.175,33.58,140422,,,A*54

$GPRMC,140422.20,A,4437.78905,N,01057.00229,E,1.239,44.43,140422,,,A*5F

$GPRMC,140422.30,A,4437.78908,N,01057.00236,E,1.932,47.58,140422,,,A*54

$GPGGA,140422.30,4437.78908,N,01057.00236,E,1,09,1.13,34.4,M,46.0,M,,*6B

$GPRMC,140422.40,A,4437.78913,N,01057.00245,E,3.063,39.63,140422,,,A*53

$GPRMC,140422.50,A,4437.78918,N,01057.00258,E,3.982,39.96,140422,,,A*59

$GPRMC,140422.60,A,4437.78922,N,01057.00265,E,3.859,36.97,140422,,,A*54

$GPRMC,140422.70,A,4437.78929,N,01057.00273,E,4.099,34.03,140422,,,A*55

$GPRMC,140422.80,A,4437.78936,N,01057.00286,E,4.251,37.64,140422,,,A*5A

$GPRMC,140422.90,A,4437.78944,N,01057.00297,E,4.607,39.59,140422,,,A*59

$GPRMC,140423.00,A,4437.78951,N,01057.00308,E,4.601,40.55,140422,,,A*56

$GPRMC,140423.10,A,4437.78956,N,01057.00317,E,4.230,41.27,140422,,,A*5C

$GPRMC,140423.20,A,4437.78961,N,01057.00327,E,4.166,41.98,140422,,,A*5C

$GPRMC,140423.30,A,4437.78969,N,01057.00335,E,4.076,39.98,140422,,,A*59

$GPGGA,140423.30,4437.78969,N,01057.00335,E,1,08,1.13,35.1,M,46.0,M,,*6A

$GPRMC,140423.40,A,4437.78975,N,01057.00347,E,4.298,40.84,140422,,,A*57

$GPRMC,140423.50,A,4437.78979,N,01057.00360,E,4.467,43.25,140422,,,A*51

$GPRMC,140423.60,A,4437.78991,N,01057.00370,E,4.755,40.66,140422,,,A*53

$GPRMC,140423.70,A,4437.78999,N,01057.00382,E,4.843,39.89,140422,,,A*50

$GPRMC,140423.80,A,4437.79009,N,01057.00393,E,4.893,38.29,140422,,,A*58

$GPRMC,140423.90,A,4437.79019,N,01057.00408,E,5.403,37.74,140422,,,A*5E

$GPRMC,140424.00,A,4437.79031,N,01057.00423,E,5.454,39.72,140422,,,A*59

$GPRMC,140424.10,A,4437.79040,N,01057.00435,E,5.398,38.59,140422,,,A*56

$GPRMC,140424.20,A,4437.79053,N,01057.00454,E,5.958,40.40,140422,,,A*51

$GPRMC,140424.30,A,4437.79063,N,01057.00465,E,5.747,38.84,140422,,,A*56

$GPGGA,140424.30,4437.79063,N,01057.00465,E,1,09,1.13,35.3,M,46.0,M,,*6E

$GPRMC,140424.40,A,4437.79076,N,01057.00485,E,6.238,41.40,140422,,,A*53

$GPRMC,140424.50,A,4437.79090,N,01057.00497,E,6.376,38.22,140422,,,A*58

$GPRMC,140424.60,A,4437.79101,N,01057.00515,E,6.380,39.08,140422,,,A*59

$GPRMC,140424.70,A,4437.79116,N,01057.00535,E,6.799,40.11,140422,,,A*56

$GPRMC,140424.80,A,4437.79128,N,01057.00552,E,6.587,40.93,140422,,,A*52

$GPRMC,140424.90,A,4437.79141,N,01057.00570,E,6.678,41.67,140422,,,A*55

$GPRMC,140425.00,A,4437.79155,N,01057.00589,E,6.879,41.95,140422,,,A*5C

$GPRMC,140425.10,A,4437.79165,N,01057.00605,E,7.056,40.00,140422,,,A*50

$GPRMC,140425.20,A,4437.79173,N,01057.00619,E,6.408,40.32,140422,,,A*56

$GPRMC,140425.30,A,4437.79184,N,01057.00632,E,6.385,39.75,140422,,,A*59

$GPGGA,140425.30,4437.79184,N,01057.00632,E,1,09,1.13,35.6,M,46.0,M,,*62

$GPRMC,140425.40,A,4437.79186,N,01057.00641,E,5.754,40.07,140422,,,A*58

$GPRMC,140425.50,A,4437.79188,N,01057.00653,E,5.456,41.51,140422,,,A*57

$GPRMC,140425.60,A,4437.79194,N,01057.00665,E,5.522,41.20,140422,,,A*58

$GPRMC,140425.70,A,4437.79197,N,01057.00682,E,5.560,45.34,140422,,,A*54

$GPRMC,140425.80,A,4437.79207,N,01057.00699,E,5.930,45.63,140422,,,A*50

$GPRMC,140425.90,A,4437.79217,N,01057.00717,E,6.002,46.67,140422,,,A*5B

$GPRMC,140426.00,A,4437.79227,N,01057.00731,E,5.895,45.57,140422,,,A*53

$GPRMC,140426.10,A,4437.79240,N,01057.00749,E,6.224,44.81,140422,,,A*55

$GPRMC,140426.20,A,4437.79254,N,01057.00767,E,6.512,44.54,140422,,,A*55

$GPRMC,140426.30,A,4437.79263,N,01057.00784,E,6.318,45.28,140422,,,A*5B

$GPGGA,140426.30,4437.79263,N,01057.00784,E,1,09,1.13,37.1,M,46.0,M,,*62

$GPRMC,140426.40,A,4437.79273,N,01057.00799,E,6.209,44.86,140422,,,A*55

$GPRMC,140426.50,A,4437.79283,N,01057.00810,E,6.122,41.79,140422,,,A*5A

$GPRMC,140426.60,A,4437.79291,N,01057.00823,E,6.097,39.92,140422,,,A*5F

$GPRMC,140426.70,A,4437.79296,N,01057.00838,E,5.855,41.04,140422,,,A*56

$GPRMC,140426.80,A,4437.79303,N,01057.00854,E,6.037,41.92,140422,,,A*5E

$GPRMC,140426.90,A,4437.79309,N,01057.00872,E,6.080,43.81,140422,,,A*5D

$GPRMC,140427.00,A,4437.79317,N,01057.00888,E,6.165,44.62,140422,,,A*5F

$GPRMC,140427.10,A,4437.79327,N,01057.00904,E,6.240,43.57,140422,,,A*5D

$GPRMC,140427.20,A,4437.79332,N,01057.00916,E,5.835,41.91,140422,,,A*5A

$GPRMC,140427.30,A,4437.79335,N,01057.00936,E,6.086,45.80,140422,,,A*59

$GPGGA,140427.30,4437.79335,N,01057.00936,E,1,09,0.87,39.3,M,46.0,M,,*66

$GPRMC,140427.40,A,4437.79340,N,01057.00948,E,5.726,44.59,140422,,,A*5E

$GPRMC,140427.50,A,4437.79351,N,01057.00969,E,6.020,47.16,140422,,,A*56

$GPRMC,140427.60,A,4437.79365,N,01057.00984,E,6.139,45.69,140422,,,A*52

$GPRMC,140427.70,A,4437.79380,N,01057.00998,E,6.083,42.02,140422,,,A*5F

$GPRMC,140427.80,A,4437.79397,N,01057.01019,E,6.378,42.45,140422,,,A*53

$GPRMC,140427.90,A,4437.79417,N,01057.01033,E,6.347,39.06,140422,,,A*52

$GPRMC,140428.00,A,4437.79439,N,01057.01048,E,6.582,35.58,140422,,,A*5C

$GPRMC,140428.10,A,4437.79455,N,01057.01060,E,6.224,32.99,140422,,,A*5C

$GPRMC,140428.20,A,4437.79487,N,01057.01076,E,6.708,31.14,140422,,,A*5A

$GPRMC,140428.30,A,4437.79514,N,01057.01088,E,7.185,27.49,140422,,,A*5C

$GPGGA,140428.30,4437.79514,N,01057.01088,E,1,09,1.13,39.3,M,46.0,M,,*6D

$GPRMC,140428.40,A,4437.79544,N,01057.01095,E,7.415,20.96,140422,,,A*5B

$GPRMC,140428.50,A,4437.79570,N,01057.01105,E,7.599,18.05,140422,,,A*51

$GPRMC,140428.60,A,4437.79598,N,01057.01116,E,8.001,16.76,140422,,,A*57

$GPRMC,140428.70,A,4437.79631,N,01057.01126,E,8.171,13.69,140422,,,A*58

$GPRMC,140428.80,A,4437.79657,N,01057.01132,E,8.284,9.96,140422,,,A*60

$GPRMC,140428.90,A,4437.79686,N,01057.01136,E,8.473,5.94,140422,,,A*69

$GPRMC,140429.00,A,4437.79711,N,01057.01139,E,7.859,2.82,140422,,,A*6A

$GPRMC,140429.10,A,4437.79741,N,01057.01140,E,8.143,359.18,140422,,,A*63

$GPRMC,140429.20,A,4437.79767,N,01057.01135,E,8.184,352.93,140422,,,A*65

$GPRMC,140429.30,A,4437.79799,N,01057.01130,E,8.461,349.62,140422,,,A*6A

$GPGGA,140429.30,4437.79799,N,01057.01130,E,1,08,0.92,38.2,M,46.0,M,,*60

$GPRMC,140429.40,A,4437.79826,N,01057.01124,E,8.356,345.76,140422,,,A*69

$GPRMC,140429.50,A,4437.79856,N,01057.01112,E,8.917,341.14,140422,,,A*65

$GPRMC,140429.60,A,4437.79884,N,01057.01097,E,9.084,335.86,140422,,,A*6F

$GPRMC,140429.70,A,4437.79905,N,01057.01082,E,8.836,332.79,140422,,,A*65

$GPRMC,140429.80,A,4437.79933,N,01057.01064,E,9.198,328.78,140422,,,A*61

$GPRMC,140429.90,A,4437.79961,N,01057.01044,E,9.670,326.18,140422,,,A*6C

$GPRMC,140430.00,A,4437.79978,N,01057.01024,E,9.300,321.90,140422,,,A*66

$GPRMC,140430.10,A,4437.79999,N,01057.01000,E,9.521,318.96,140422,,,A*67

$GPRMC,140430.20,A,4437.80019,N,01057.00978,E,9.356,317.43,140422,,,A*65

$GPRMC,140430.30,A,4437.80035,N,01057.00957,E,9.127,316.02,140422,,,A*67

$GPGGA,140430.30,4437.80035,N,01057.00957,E,1,08,0.92,37.7,M,46.0,M,,*6D

$GPRMC,140430.40,A,4437.80056,N,01057.00933,E,9.099,313.63,140422,,,A*61

$GPRMC,140430.50,A,4437.80075,N,01057.00909,E,9.018,311.80,140422,,,A*6E

$GPRMC,140430.60,A,4437.80096,N,01057.00886,E,9.119,311.00,140422,,,A*6E

$GPRMC,140430.70,A,4437.80118,N,01057.00859,E,9.286,309.99,140422,,,A*66

$GPRMC,140430.80,A,4437.80142,N,01057.00833,E,9.439,311.05,140422,,,A*64

$GPRMC,140430.90,A,4437.80163,N,01057.00806,E,9.750,311.30,140422,,,A*6A

$GPRMC,140431.00,A,4437.80186,N,01057.00775,E,10.167,310.24,140422,,,A*5C

$GPRMC,140431.10,A,4437.80208,N,01057.00751,E,9.647,309.50,140422,,,A*68

$GPRMC,140431.20,A,4437.80228,N,01057.00725,E,9.886,310.83,140422,,,A*6F

$GPRMC,140431.30,A,4437.80248,N,01057.00697,E,9.853,310.06,140422,,,A*65

$GPGGA,140431.30,4437.80248,N,01057.00697,E,1,08,0.92,36.7,M,46.0,M,,*66

$GPRMC,140431.40,A,4437.80267,N,01057.00670,E,9.737,310.06,140422,,,A*6B

$GPRMC,140431.50,A,4437.80287,N,01057.00641,E,10.124,310.33,140422,,,A*5C

$GPRMC,140431.60,A,4437.80305,N,01057.00613,E,10.000,309.78,140422,,,A*53

$GPRMC,140431.70,A,4437.80323,N,01057.00588,E,9.794,311.27,140422,,,A*66

$GPRMC,140431.80,A,4437.80340,N,01057.00555,E,10.104,309.80,140422,,,A*5F

$GPRMC,140431.90,A,4437.80356,N,01057.00526,E,9.926,308.05,140422,,,A*61

$GPRMC,140432.00,A,4437.80377,N,01057.00497,E,10.206,308.61,140422,,,A*50

$GPRMC,140432.10,A,4437.80395,N,01057.00470,E,10.019,308.87,140422,,,A*50

$GPRMC,140432.20,A,4437.80416,N,01057.00440,E,10.225,310.16,140422,,,A*50

$GPRMC,140432.30,A,4437.80434,N,01057.00412,E,10.201,309.44,140422,,,A*5F

$GPGGA,140432.30,4437.80434,N,01057.00412,E,1,08,0.92,36.5,M,46.0,M,,*65

$GPRMC,140432.40,A,4437.80455,N,01057.00381,E,10.255,310.31,140422,,,A*59

$GPRMC,140432.50,A,4437.80473,N,01057.00353,E,10.058,309.18,140422,,,A*5F

$GPRMC,140432.60,A,4437.80495,N,01057.00319,E,10.366,308.18,140422,,,A*55

$GPRMC,140432.70,A,4437.80515,N,01057.00295,E,9.994,310.24,140422,,,A*61

$GPRMC,140432.80,A,4437.80534,N,01057.00269,E,9.894,310.10,140422,,,A*68

$GPRMC,140432.90,A,4437.80553,N,01057.00239,E,9.836,308.88,140422,,,A*6D

$GPRMC,140433.00,A,4437.80573,N,01057.00212,E,9.914,309.50,140422,,,A*6B

$GPRMC,140433.10,A,4437.80594,N,01057.00185,E,9.868,310.16,140422,,,A*6E

$GPRMC,140433.20,A,4437.80615,N,01057.00153,E,10.284,310.58,140422,,,A*56

$GPRMC,140433.30,A,4437.80634,N,01057.00129,E,9.826,311.37,140422,,,A*6B

$GPGGA,140433.30,4437.80634,N,01057.00129,E,1,08,0.92,35.9,M,46.0,M,,*64

$GPRMC,140433.40,A,4437.80655,N,01057.00101,E,10.069,312.57,140422,,,A*5F

$GPRMC,140433.50,A,4437.80674,N,01057.00078,E,9.469,312.78,140422,,,A*63

$GPRMC,140433.60,A,4437.80694,N,01057.00050,E,9.754,312.70,140422,,,A*61

$GPRMC,140433.70,A,4437.80713,N,01057.00021,E,9.696,311.69,140422,,,A*6C

$GPRMC,140433.80,A,4437.80729,N,01056.99987,E,9.877,309.35,140422,,,A*6F

$GPRMC,140433.90,A,4437.80741,N,01056.99963,E,9.464,306.70,140422,,,A*6A

$GPRMC,140434.00,A,4437.80760,N,01056.99925,E,10.148,305.66,140422,,,A*52

$GPRMC,140434.10,A,4437.80776,N,01056.99892,E,10.158,304.86,140422,,,A*57

$GPRMC,140434.20,A,4437.80793,N,01056.99859,E,10.317,304.95,140422,,,A*53

$GPRMC,140434.30,A,4437.80812,N,01056.99828,E,10.399,306.11,140422,,,A*5A

$GPGGA,140434.30,4437.80812,N,01056.99828,E,1,06,1.46,35.8,M,46.0,M,,*67

$GPRMC,140434.40,A,4437.80829,N,01056.99790,E,10.881,304.13,140422,,,A*5B

$GPRMC,140434.50,A,4437.80849,N,01056.99758,E,10.820,305.58,140422,,,A*5D

$GPRMC,140434.60,A,4437.80867,N,01056.99723,E,10.937,305.45,140422,,,A*55

$GPRMC,140434.70,A,4437.80882,N,01056.99686,E,11.016,303.84,140422,,,A*51

$GPRMC,140434.80,A,4437.80899,N,01056.99647,E,11.257,302.59,140422,,,A*5F

$GPRMC,140434.90,A,4437.80915,N,01056.99611,E,11.306,302.51,140422,,,A*55

$GPRMC,140435.00,A,4437.80933,N,01056.99579,E,11.152,302.97,140422,,,A*5D

$GPRMC,140435.10,A,4437.80952,N,01056.99544,E,11.369,303.64,140422,,,A*52

$GPRMC,140435.20,A,4437.80973,N,01056.99518,E,10.829,306.77,140422,,,A*52

$GPRMC,140435.30,A,4437.80988,N,01056.99481,E,10.935,304.92,140422,,,A*53

$GPGGA,140435.30,4437.80988,N,01056.99481,E,1,07,1.33,35.8,M,46.0,M,,*68

$GPRMC,140435.40,A,4437.81009,N,01056.99455,E,10.938,307.63,140422,,,A*5C

$GPRMC,140435.50,A,4437.81026,N,01056.99425,E,10.578,307.47,140422,,,A*59

$GPRMC,140435.60,A,4437.81045,N,01056.99387,E,10.900,306.55,140422,,,A*51

$GPRMC,140435.70,A,4437.81062,N,01056.99350,E,11.092,305.57,140422,,,A*5D

$GPRMC,140435.80,A,4437.81080,N,01056.99317,E,11.191,305.81,140422,,,A*54

$GPRMC,140435.90,A,4437.81098,N,01056.99284,E,11.038,305.58,140422,,,A*51

$GPRMC,140436.00,A,4437.81116,N,01056.99245,E,11.571,305.35,140422,,,A*52

$GPRMC,140436.10,A,4437.81135,N,01056.99210,E,11.527,306.32,140422,,,A*55

$GPRMC,140436.20,A,4437.81154,N,01056.99180,E,11.281,308.13,140422,,,A*5D

$GPRMC,140436.30,A,4437.81172,N,01056.99144,E,11.467,307.08,140422,,,A*5B

$GPGGA,140436.30,4437.81172,N,01056.99144,E,1,07,1.33,35.9,M,46.0,M,,*6A

$GPRMC,140436.40,A,4437.81193,N,01056.99110,E,11.816,308.29,140422,,,A*54

$GPRMC,140436.50,A,4437.81212,N,01056.99077,E,11.426,307.96,140422,,,A*5B

$GPRMC,140436.60,A,4437.81236,N,01056.99045,E,11.798,309.60,140422,,,A*5E

$GPRMC,140436.70,A,4437.81261,N,01056.99005,E,11.976,309.04,140422,,,A*55

$GPRMC,140436.80,A,4437.81277,N,01056.98975,E,11.786,308.16,140422,,,A*51

$GPRMC,140436.90,A,4437.81298,N,01056.98936,E,12.099,307.44,140422,,,A*54

$GPRMC,140437.00,A,4437.81319,N,01056.98907,E,11.850,308.91,140422,,,A*5F

$GPRMC,140437.10,A,4437.81339,N,01056.98874,E,11.635,309.17,140422,,,A*5B

$GPRMC,140437.20,A,4437.81362,N,01056.98841,E,12.028,311.10,140422,,,A*57

$GPRMC,140437.30,A,4437.81382,N,01056.98810,E,11.623,310.80,140422,,,A*5A

$GPGGA,140437.30,4437.81382,N,01056.98810,E,1,07,1.33,35.9,M,46.0,M,,*6F

$GPRMC,140437.40,A,4437.81399,N,01056.98779,E,11.651,309.85,140422,,,A*5F

$GPRMC,140437.50,A,4437.81413,N,01056.98759,E,11.006,310.53,140422,,,A*5E

$GPRMC,140437.60,A,4437.81429,N,01056.98705,E,12.189,305.99,140422,,,A*5A

$GPRMC,140437.70,A,4437.81446,N,01056.98672,E,11.659,305.70,140422,,,A*5D

$GPRMC,140437.80,A,4437.81470,N,01056.98659,E,10.840,311.16,140422,,,A*5C

$GPRMC,140437.90,A,4437.81493,N,01056.98630,E,11.178,315.05,140422,,,A*5A

$GPRMC,140438.00,A,4437.81514,N,01056.98606,E,10.861,316.97,140422,,,A*5F

$GPRMC,140438.10,A,4437.81537,N,01056.98580,E,10.962,318.04,140422,,,A*54

$GPRMC,140438.20,A,4437.81558,N,01056.98552,E,10.712,317.91,140422,,,A*5B

$GPRMC,140438.30,A,4437.81579,N,01056.98521,E,10.667,316.40,140422,,,A*53

$GPGGA,140438.30,4437.81579,N,01056.98521,E,1,07,1.33,36.7,M,46.0,M,,*60

$GPRMC,140438.40,A,4437.81599,N,01056.98490,E,10.823,314.95,140422,,,A*55

$GPRMC,140438.50,A,4437.81617,N,01056.98463,E,10.491,314.27,140422,,,A*51

$GPRMC,140438.60,A,4437.81640,N,01056.98430,E,11.151,315.20,140422,,,A*58

$GPRMC,140438.70,A,4437.81661,N,01056.98395,E,11.057,313.53,140422,,,A*57

$GPRMC,140438.80,A,4437.81682,N,01056.98368,E,10.919,313.55,140422,,,A*53

$GPRMC,140438.90,A,4437.81706,N,01056.98329,E,11.592,312.99,140422,,,A*55

$GPRMC,140439.00,A,4437.81729,N,01056.98291,E,11.542,310.77,140422,,,A*5D

$GPRMC,140439.10,A,4437.81754,N,01056.98265,E,11.333,312.40,140422,,,A*5B

$GPRMC,140439.20,A,4437.81774,N,01056.98222,E,11.623,308.59,140422,,,A*5E

$GPRMC,140439.30,A,4437.81799,N,01056.98192,E,11.585,309.29,140422,,,A*5D

$GPGGA,140439.30,4437.81799,N,01056.98192,E,1,06,1.43,36.6,M,46.0,M,,*66

$GPRMC,140439.40,A,4437.81822,N,01056.98162,E,11.386,310.56,140422,,,A*5F

$GPRMC,140439.50,A,4437.81843,N,01056.98111,E,12.215,307.82,140422,,,A*5A

$GPRMC,140439.60,A,4437.81864,N,01056.98084,E,11.754,309.06,140422,,,A*50

$GPRMC,140439.70,A,4437.81882,N,01056.98044,E,12.078,308.05,140422,,,A*5D

$GPRMC,140439.80,A,4437.81901,N,01056.98008,E,12.062,307.69,140422,,,A*5E

$GPRMC,140439.90,A,4437.81922,N,01056.97983,E,11.468,309.23,140422,,,A*56

$GPRMC,140440.00,A,4437.81937,N,01056.97935,E,12.206,305.12,140422,,,A*5B

$GPRMC,140440.10,A,4437.81958,N,01056.97907,E,11.558,306.68,140422,,,A*53

$GPRMC,140440.20,A,4437.81977,N,01056.97880,E,11.223,308.71,140422,,,A*5E

$GPRMC,140440.30,A,4437.81996,N,01056.97849,E,11.123,308.46,140422,,,A*52

$GPGGA,140440.30,4437.81996,N,01056.97849,E,1,06,1.43,36.9,M,46.0,M,,*66

$GPRMC,140440.40,A,4437.82014,N,01056.97821,E,10.928,308.84,140422,,,A*57

$GPRMC,140440.50,A,4437.82032,N,01056.97793,E,10.512,309.02,140422,,,A*5E

$GPRMC,140440.60,A,4437.82052,N,01056.97771,E,10.238,311.20,140422,,,A*51

$GPRMC,140440.70,A,4437.82063,N,01056.97723,E,10.627,304.35,140422,,,A*5F

$GPRMC,140440.80,A,4437.82080,N,01056.97695,E,10.446,303.92,140422,,,A*5E

$GPRMC,140440.90,A,4437.82092,N,01056.97657,E,10.367,300.70,140422,,,A*59

$GPRMC,140441.00,A,4437.82106,N,01056.97617,E,10.395,298.78,140422,,,A*5C

$GPRMC,140441.10,A,4437.82121,N,01056.97581,E,10.176,298.15,140422,,,A*50

$GPRMC,140441.20,A,4437.82136,N,01056.97548,E,10.324,298.57,140422,,,A*53

$GPRMC,140441.30,A,4437.82147,N,01056.97516,E,9.853,296.72,140422,,,A*65

$GPGGA,140441.30,4437.82147,N,01056.97516,E,1,07,1.33,37.2,M,46.0,M,,*6B

$GPRMC,140441.40,A,4437.82163,N,01056.97492,E,9.544,298.77,140422,,,A*69

$GPRMC,140441.50,A,4437.82176,N,01056.97455,E,9.520,297.42,140422,,,A*6C

$GPRMC,140441.60,A,4437.82187,N,01056.97423,E,9.351,295.55,140422,,,A*64

$GPRMC,140441.70,A,4437.82198,N,01056.97395,E,9.135,293.37,140422,,,A*63

$GPRMC,140441.80,A,4437.82208,N,01056.97360,E,8.827,290.69,140422,,,A*6F

$GPRMC,140441.90,A,4437.82218,N,01056.97327,E,9.151,290.43,140422,,,A*6D

$GPRMC,140442.00,A,4437.82225,N,01056.97296,E,8.847,288.01,140422,,,A*62

$GPRMC,140442.10,A,4437.82231,N,01056.97266,E,8.615,286.15,140422,,,A*6B

$GPRMC,140442.20,A,4437.82238,N,01056.97229,E,8.883,284.99,140422,,,A*6D

$GPRMC,140442.30,A,4437.82240,N,01056.97200,E,8.262,282.03,140422,,,A*68

$GPGGA,140442.30,4437.82240,N,01056.97200,E,1,07,1.33,37.0,M,46.0,M,,*6E

$GPRMC,140442.40,A,4437.82243,N,01056.97169,E,8.538,279.36,140422,,,A*6A

$GPRMC,140442.50,A,4437.82247,N,01056.97137,E,8.093,278.49,140422,,,A*69

$GPRMC,140442.60,A,4437.82245,N,01056.97115,E,7.843,275.20,140422,,,A*60

$GPRMC,140442.70,A,4437.82247,N,01056.97089,E,7.395,274.11,140422,,,A*64

$GPRMC,140442.80,A,4437.82246,N,01056.97062,E,7.164,271.62,140422,,,A*62

$GPRMC,140442.90,A,4437.82245,N,01056.97038,E,6.988,270.63,140422,,,A*64

$GPRMC,140443.00,A,4437.82244,N,01056.97014,E,6.949,269.51,140422,,,A*67

$GPRMC,140443.10,A,4437.82242,N,01056.96984,E,6.711,266.07,140422,,,A*6E

$GPRMC,140443.20,A,4437.82240,N,01056.96961,E,6.385,264.81,140422,,,A*61

$GPRMC,140443.30,A,4437.82239,N,01056.96936,E,6.480,264.32,140422,,,A*66

$GPGGA,140443.30,4437.82239,N,01056.96936,E,1,08,0.95,37.1,M,46.0,M,,*6D

$GPRMC,140443.40,A,4437.82236,N,01056.96914,E,6.136,262.79,140422,,,A*6F

$GPRMC,140443.50,A,4437.82232,N,01056.96895,E,5.948,260.82,140422,,,A*66

$GPRMC,140443.60,A,4437.82226,N,01056.96876,E,5.825,257.49,140422,,,A*64

$GPRMC,140443.70,A,4437.82218,N,01056.96860,E,5.396,252.83,140422,,,A*6F

$GPRMC,140443.80,A,4437.82212,N,01056.96841,E,5.358,248.86,140422,,,A*65

$GPRMC,140443.90,A,4437.82206,N,01056.96823,E,5.173,245.87,140422,,,A*62

$GPRMC,140444.00,A,4437.82201,N,01056.96801,E,5.213,243.95,140422,,,A*6B

$GPRMC,140444.10,A,4437.82197,N,01056.96783,E,4.718,242.33,140422,,,A*61

$GPRMC,140444.20,A,4437.82183,N,01056.96776,E,4.608,233.66,140422,,,A*6B

$GPRMC,140444.30,A,4437.82181,N,01056.96755,E,4.477,232.61,140422,,,A*65

$GPGGA,140444.30,4437.82181,N,01056.96755,E,1,09,0.87,36.7,M,46.0,M,,*64

$GPRMC,140444.40,A,4437.82175,N,01056.96744,E,4.180,230.36,140422,,,A*64

$GPRMC,140444.50,A,4437.82169,N,01056.96732,E,3.843,226.07,140422,,,A*6D

$GPRMC,140444.60,A,4437.82163,N,01056.96720,E,3.605,220.22,140422,,,A*6A

$GPRMC,140444.70,A,4437.82160,N,01056.96710,E,3.155,213.24,140422,,,A*6F

$GPRMC,140444.80,A,4437.82158,N,01056.96693,E,3.370,214.28,140422,,,A*6F

$GPRMC,140444.90,A,4437.82154,N,01056.96678,E,3.328,209.87,140422,,,A*63

$GPRMC,140445.00,A,4437.82149,N,01056.96658,E,3.652,210.17,140422,,,A*6C

$GPRMC,140445.10,A,4437.82141,N,01056.96643,E,3.899,209.68,140422,,,A*66

$GPRMC,140445.20,A,4437.82133,N,01056.96622,E,4.279,209.04,140422,,,A*6E

$GPRMC,140445.30,A,4437.82127,N,01056.96605,E,4.021,207.03,140422,,,A*69

$GPGGA,140445.30,4437.82127,N,01056.96605,E,1,09,0.87,35.6,M,46.0,M,,*6F

$GPRMC,140445.40,A,4437.82124,N,01056.96592,E,3.722,203.78,140422,,,A*6B

$GPRMC,140445.50,A,4437.82118,N,01056.96577,E,3.853,204.56,140422,,,A*6C

$GPRMC,140445.60,A,4437.82111,N,01056.96563,E,3.803,202.81,140422,,,A*6A

$GPRMC,140445.70,A,4437.82099,N,01056.96559,E,4.198,196.83,140422,,,A*63

$GPRMC,140445.80,A,4437.82095,N,01056.96550,E,3.719,198.14,140422,,,A*61

$GPRMC,140445.90,A,4437.82087,N,01056.96543,E,3.939,200.08,140422,,,A*62

$GPRMC,140446.00,A,4437.82078,N,01056.96538,E,4.065,199.33,140422,,,A*68

$GPRMC,140446.10,A,4437.82071,N,01056.96530,E,4.029,202.33,140422,,,A*61

$GPRMC,140446.20,A,4437.82061,N,01056.96522,E,4.262,200.00,140422,,,A*6F

$GPRMC,140446.30,A,4437.82052,N,01056.96506,E,4.824,204.67,140422,,,A*65

$GPGGA,140446.30,4437.82052,N,01056.96506,E,1,09,0.95,35.6,M,46.0,M,,*6C

$GPRMC,140446.40,A,4437.82044,N,01056.96488,E,4.765,208.09,140422,,,A*6C

$GPRMC,140446.50,A,4437.82037,N,01056.96476,E,4.748,210.81,140422,,,A*6E

$GPRMC,140446.60,A,4437.82029,N,01056.96467,E,4.780,211.45,140422,,,A*6F

$GPRMC,140446.70,A,4437.82023,N,01056.96457,E,4.471,213.68,140422,,,A*67

$GPRMC,140446.80,A,4437.82020,N,01056.96449,E,4.034,216.55,140422,,,A*6A

$GPRMC,140446.90,A,4437.82015,N,01056.96441,E,3.934,217.74,140422,,,A*69

$GPRMC,140447.00,A,4437.82016,N,01056.96426,E,3.961,226.83,140422,,,A*69

$GPRMC,140447.10,A,4437.82021,N,01056.96419,E,3.177,233.52,140422,,,A*67

$GPRMC,140447.20,A,4437.82012,N,01056.96405,E,4.101,233.28,140422,,,A*62

$GPRMC,140447.30,A,4437.81999,N,01056.96389,E,5.004,225.87,140422,,,A*6E

$GPGGA,140447.30,4437.81999,N,01056.96389,E,1,09,0.95,36.6,M,46.0,M,,*62

$GPRMC,140447.40,A,4437.81986,N,01056.96371,E,5.427,221.73,140422,,,A*6A

$GPRMC,140447.50,A,4437.81976,N,01056.96356,E,5.295,220.95,140422,,,A*67

$GPRMC,140447.60,A,4437.81966,N,01056.96343,E,5.323,219.85,140422,,,A*66

$GPRMC,140447.70,A,4437.81953,N,01056.96329,E,5.707,217.13,140422,,,A*6E

$GPRMC,140447.80,A,4437.81944,N,01056.96316,E,5.425,217.43,140422,,,A*6D

$GPRMC,140447.90,A,4437.81936,N,01056.96306,E,5.188,217.28,140422,,,A*67

$GPRMC,140448.00,A,4437.81927,N,01056.96292,E,5.169,218.46,140422,,,A*65

$GPRMC,140448.10,A,4437.81917,N,01056.96280,E,5.184,216.96,140422,,,A*64

$GPRMC,140448.20,A,4437.81908,N,01056.96265,E,5.298,217.94,140422,,,A*6F

$GPRMC,140448.30,A,4437.81897,N,01056.96251,E,5.303,217.37,140422,,,A*64

$GPGGA,140448.30,4437.81897,N,01056.96251,E,1,09,0.87,37.0,M,46.0,M,,*62

$GPRMC,140448.40,A,4437.81887,N,01056.96235,E,5.502,217.92,140422,,,A*68

$GPRMC,140448.50,A,4437.81875,N,01056.96221,E,5.538,216.98,140422,,,A*63

$GPRMC,140448.60,A,4437.81862,N,01056.96198,E,6.110,220.62,140422,,,A*6A

$GPRMC,140448.70,A,4437.81848,N,01056.96181,E,6.223,219.92,140422,,,A*6D

$GPRMC,140448.80,A,4437.81839,N,01056.96164,E,6.154,220.59,140422,,,A*61

$GPRMC,140448.90,A,4437.81825,N,01056.96149,E,6.155,218.96,140422,,,A*6B

$GPRMC,140449.00,A,4437.81815,N,01056.96134,E,6.167,218.81,140422,,,A*6D

$GPRMC,140449.10,A,4437.81804,N,01056.96120,E,5.921,217.92,140422,,,A*6D

$GPRMC,140449.20,A,4437.81790,N,01056.96102,E,6.266,217.22,140422,,,A*6C

$GPRMC,140449.30,A,4437.81778,N,01056.96082,E,6.372,218.22,140422,,,A*69

$GPGGA,140449.30,4437.81778,N,01056.96082,E,1,08,0.96,37.4,M,46.0,M,,*64

$GPRMC,140449.40,A,4437.81765,N,01056.96063,E,6.386,218.54,140422,,,A*67

$GPRMC,140449.50,A,4437.81747,N,01056.96037,E,7.283,220.60,140422,,,A*6E

$GPRMC,140449.60,A,4437.81731,N,01056.96017,E,7.230,219.98,140422,,,A*6B

$GPRMC,140449.70,A,4437.81714,N,01056.95992,E,7.487,220.56,140422,,,A*68

$GPRMC,140449.80,A,4437.81704,N,01056.95971,E,7.194,222.50,140422,,,A*68

$GPRMC,140449.90,A,4437.81684,N,01056.95949,E,7.693,221.25,140422,,,A*6A

$GPRMC,140450.00,A,4437.81670,N,01056.95929,E,7.478,221.10,140422,,,A*67

$GPRMC,140450.10,A,4437.81654,N,01056.95907,E,7.495,220.50,140422,,,A*6A

$GPRMC,140450.20,A,4437.81638,N,01056.95883,E,7.723,220.65,140422,,,A*66

$GPRMC,140450.30,A,4437.81620,N,01056.95859,E,7.927,220.95,140422,,,A*6C

$GPGGA,140450.30,4437.81620,N,01056.95859,E,1,08,0.96,37.2,M,46.0,M,,*6B

$GPRMC,140450.40,A,4437.81604,N,01056.95837,E,7.913,221.00,140422,,,A*6F

$GPRMC,140450.50,A,4437.81587,N,01056.95815,E,8.013,220.85,140422,,,A*6C

$GPRMC,140450.60,A,4437.81569,N,01056.95793,E,8.202,220.65,140422,,,A*62

$GPRMC,140450.70,A,4437.81553,N,01056.95771,E,7.995,220.43,140422,,,A*68

$GPRMC,140450.80,A,4437.81535,N,01056.95749,E,8.275,219.67,140422,,,A*6A

$GPRMC,140450.90,A,4437.81517,N,01056.95727,E,8.333,219.81,140422,,,A*68

$GPRMC,140451.00,A,4437.81502,N,01056.95702,E,8.336,220.41,140422,,,A*60

$GPRMC,140451.10,A,4437.81485,N,01056.95678,E,8.256,220.42,140422,,,A*67

$GPRMC,140451.20,A,4437.81466,N,01056.95656,E,8.402,219.18,140422,,,A*67

$GPRMC,140451.30,A,4437.81448,N,01056.95633,E,8.462,218.78,140422,,,A*68

$GPGGA,140451.30,4437.81448,N,01056.95633,E,1,09,0.96,37.0,M,46.0,M,,*67

$GPRMC,140451.40,A,4437.81432,N,01056.95608,E,8.518,219.86,140422,,,A*66

$GPRMC,140451.50,A,4437.81410,N,01056.95586,E,8.720,218.77,140422,,,A*64

$GPRMC,140451.60,A,4437.81393,N,01056.95564,E,8.740,218.66,140422,,,A*61

$GPRMC,140451.70,A,4437.81371,N,01056.95542,E,9.008,218.09,140422,,,A*6B

$GPRMC,140451.80,A,4437.81351,N,01056.95521,E,8.947,216.97,140422,,,A*69

$GPRMC,140451.90,A,4437.81333,N,01056.95499,E,8.979,217.82,140422,,,A*66

$GPRMC,140452.00,A,4437.81313,N,01056.95477,E,9.076,217.39,140422,,,A*69

$GPRMC,140452.10,A,4437.81292,N,01056.95453,E,9.287,217.89,140422,,,A*61

$GPRMC,140452.20,A,4437.81270,N,01056.95431,E,9.199,217.71,140422,,,A*61

$GPRMC,140452.30,A,4437.81248,N,01056.95405,E,9.546,218.91,140422,,,A*6B

$GPGGA,140452.30,4437.81248,N,01056.95405,E,1,08,1.04,37.0,M,46.0,M,,*6E

$GPRMC,140452.40,A,4437.81225,N,01056.95384,E,9.419,217.20,140422,,,A*67

$GPRMC,140452.50,A,4437.81204,N,01056.95358,E,9.617,217.39,140422,,,A*60

$GPRMC,140452.60,A,4437.81182,N,01056.95330,E,9.613,218.02,140422,,,A*63

$GPRMC,140452.70,A,4437.81159,N,01056.95305,E,9.568,217.28,140422,,,A*6A

$GPRMC,140452.80,A,4437.81140,N,01056.95280,E,9.471,217.08,140422,,,A*6A

$GPRMC,140452.90,A,4437.81120,N,01056.95255,E,9.468,218.01,140422,,,A*6B

$GPRMC,140453.00,A,4437.81101,N,01056.95230,E,9.542,218.70,140422,,,A*6C

$GPRMC,140453.10,A,4437.81083,N,01056.95203,E,9.382,219.49,140422,,,A*67

$GPRMC,140453.20,A,4437.81066,N,01056.95179,E,9.301,219.71,140422,,,A*61

$GPRMC,140453.30,A,4437.81048,N,01056.95152,E,9.384,220.28,140422,,,A*6E

$GPGGA,140453.30,4437.81048,N,01056.95152,E,1,07,1.04,37.1,M,46.0,M,,*64

$GPRMC,140453.40,A,4437.81030,N,01056.95125,E,8.959,221.79,140422,,,A*68

$GPRMC,140453.50,A,4437.81006,N,01056.95100,E,9.342,220.55,140422,,,A*65

$GPRMC,140453.60,A,4437.80988,N,01056.95073,E,9.358,220.71,140422,,,A*60

$GPRMC,140453.70,A,4437.80963,N,01056.95045,E,10.078,220.15,140422,,,A*5A

$GPRMC,140453.80,A,4437.80943,N,01056.95021,E,9.622,219.42,140422,,,A*6C

$GPRMC,140453.90,A,4437.80919,N,01056.94996,E,9.911,218.37,140422,,,A*6A

$GPRMC,140454.00,A,4437.80894,N,01056.94970,E,10.104,217.70,140422,,,A*50

$GPRMC,140454.10,A,4437.80869,N,01056.94946,E,9.917,217.33,140422,,,A*63

$GPRMC,140454.20,A,4437.80843,N,01056.94920,E,10.462,217.26,140422,,,A*5B

$GPRMC,140454.30,A,4437.80815,N,01056.94896,E,10.437,216.49,140422,,,A*5D

$GPGGA,140454.30,4437.80815,N,01056.94896,E,1,08,0.96,37.1,M,46.0,M,,*67

$GPRMC,140454.40,A,4437.80790,N,01056.94872,E,10.328,216.33,140422,,,A*56

$GPRMC,140454.50,A,4437.80763,N,01056.94848,E,10.552,215.99,140422,,,A*5A

$GPRMC,140454.60,A,4437.80737,N,01056.94825,E,10.599,215.81,140422,,,A*5D

$GPRMC,140454.70,A,4437.80712,N,01056.94801,E,10.394,215.64,140422,,,A*5D

$GPRMC,140454.80,A,4437.80684,N,01056.94776,E,10.552,215.60,140422,,,A*5B

$GPRMC,140454.90,A,4437.80658,N,01056.94753,E,10.517,215.42,140422,,,A*5D

$GPRMC,140455.00,A,4437.80633,N,01056.94728,E,10.667,216.15,140422,,,A*51

$GPRMC,140455.10,A,4437.80607,N,01056.94704,E,10.498,215.56,140422,,,A*5F

$GPRMC,140455.20,A,4437.80581,N,01056.94678,E,10.813,215.21,140422,,,A*54

$GPRMC,140455.30,A,4437.80555,N,01056.94653,E,10.612,215.76,140422,,,A*58

$GPGGA,140455.30,4437.80555,N,01056.94653,E,1,08,0.96,36.9,M,46.0,M,,*61

$GPRMC,140455.40,A,4437.80528,N,01056.94628,E,10.909,215.11,140422,,,A*5D

$GPRMC,140455.50,A,4437.80503,N,01056.94602,E,10.552,215.68,140422,,,A*51

$GPRMC,140455.60,A,4437.80477,N,01056.94576,E,10.727,216.21,140422,,,A*5E

$GPRMC,140455.70,A,4437.80449,N,01056.94550,E,10.750,216.28,140422,,,A*5F

$GPRMC,140455.80,A,4437.80421,N,01056.94524,E,10.740,216.07,140422,,,A*51

$GPRMC,140455.90,A,4437.80395,N,01056.94498,E,10.806,216.50,140422,,,A*51

$GPRMC,140456.00,A,4437.80370,N,01056.94472,E,10.860,216.77,140422,,,A*51

$GPRMC,140456.10,A,4437.80346,N,01056.94445,E,10.655,217.68,140422,,,A*56

$GPRMC,140456.20,A,4437.80319,N,01056.94419,E,10.932,217.31,140422,,,A*54

$GPRMC,140456.30,A,4437.80295,N,01056.94392,E,11.008,218.16,140422,,,A*5F

$GPGGA,140456.30,4437.80295,N,01056.94392,E,1,06,1.72,36.8,M,46.0,M,,*65

$GPRMC,140456.40,A,4437.80269,N,01056.94367,E,10.842,217.77,140422,,,A*5E

$GPRMC,140456.50,A,4437.80247,N,01056.94340,E,10.852,218.54,140422,,,A*59

$GPRMC,140456.60,A,4437.80221,N,01056.94315,E,10.978,217.54,140422,,,A*5C

$GPRMC,140456.70,A,4437.80197,N,01056.94291,E,10.810,217.32,140422,,,A*51

$GPRMC,140456.80,A,4437.80175,N,01056.94266,E,10.737,217.36,140422,,,A*54

$GPRMC,140456.90,A,4437.80155,N,01056.94242,E,10.522,218.16,140422,,,A*5A

$GPRMC,140457.00,A,4437.80138,N,01056.94219,E,10.136,218.89,140422,,,A*50

$GPRMC,140457.10,A,4437.80115,N,01056.94197,E,10.472,216.47,140422,,,A*52

$GPRMC,140457.20,A,4437.80098,N,01056.94175,E,10.166,216.34,140422,,,A*5D

$GPRMC,140457.30,A,4437.80075,N,01056.94150,E,10.551,215.11,140422,,,A*5C

$GPGGA,140457.30,4437.80075,N,01056.94150,E,1,07,1.72,37.4,M,46.0,M,,*68

$GPRMC,140457.50,A,4437.80031,N,01056.94104,E,10.471,215.77,140422,,,A*58

$GPRMC,140457.60,A,4437.80010,N,01056.94080,E,10.066,216.28,140422,,,A*5E

$GPRMC,140457.70,A,4437.79990,N,01056.94054,E,10.235,217.63,140422,,,A*5B

$GPRMC,140457.80,A,4437.79970,N,01056.94030,E,10.070,218.24,140422,,,A*57

$GPRMC,140457.90,A,4437.79945,N,01056.94000,E,10.525,219.12,140422,,,A*52

$GPRMC,140458.00,A,4437.79924,N,01056.93971,E,10.517,220.12,140422,,,A*50

$GPRMC,140458.10,A,4437.79894,N,01056.93944,E,10.896,217.73,140422,,,A*5A

$GPRMC,140458.20,A,4437.79866,N,01056.93918,E,11.052,216.78,140422,,,A*56

$GPRMC,140458.30,A,4437.79840,N,01056.93893,E,11.279,216.40,140422,,,A*51

$GPRMC,140458.40,A,4437.79813,N,01056.93870,E,11.053,215.39,140422,,,A*5A

$GPGGA,140458.40,4437.79813,N,01056.93870,E,1,07,1.72,37.6,M,46.0,M,,*60

$GPRMC,140458.50,A,4437.79786,N,01056.93845,E,11.144,215.29,140422,,,A*58

$GPRMC,140458.60,A,4437.79762,N,01056.93821,E,10.990,216.04,140422,,,A*5F

$GPRMC,140458.70,A,4437.79729,N,01056.93792,E,11.547,214.79,140422,,,A*59

$GPRMC,140458.80,A,4437.79706,N,01056.93766,E,11.008,216.38,140422,,,A*59

$GPRMC,140458.90,A,4437.79679,N,01056.93743,E,11.152,215.83,140422,,,A*5B

$GPRMC,140459.00,A,4437.79649,N,01056.93713,E,11.703,215.63,140422,,,A*59

$GPRMC,140459.10,A,4437.79625,N,01056.93693,E,11.093,215.91,140422,,,A*58

$GPRMC,140459.20,A,4437.79599,N,01056.93670,E,11.122,215.05,140422,,,A*54

$GPRMC,140459.30,A,4437.79573,N,01056.93646,E,11.436,214.64,140422,,,A*52

$GPRMC,140459.40,A,4437.79548,N,01056.93623,E,11.127,214.48,140422,,,A*55

$GPGGA,140459.40,4437.79548,N,01056.93623,E,1,07,1.29,37.6,M,46.0,M,,*64

$GPRMC,140459.50,A,4437.79524,N,01056.93598,E,11.158,216.10,140422,,,A*5A

$GPRMC,140459.60,A,4437.79498,N,01056.93578,E,11.085,214.79,140422,,,A*5D

$GPRMC,140459.70,A,4437.79471,N,01056.93557,E,11.232,213.60,140422,,,A*57

$GPRMC,140459.80,A,4437.79448,N,01056.93536,E,11.009,214.25,140422,,,A*59

$GPRMC,140459.90,A,4437.79426,N,01056.93516,E,10.573,214.84,140422,,,A*50

$GPRMC,140500.00,A,4437.79405,N,01056.93492,E,10.636,216.80,140422,,,A*5C

$GPRMC,140500.10,A,4437.79384,N,01056.93476,E,10.047,216.80,140422,,,A*59

$GPRMC,140500.20,A,4437.79363,N,01056.93451,E,10.233,218.58,140422,,,A*5C

$GPRMC,140500.30,A,4437.79341,N,01056.93429,E,10.349,219.00,140422,,,A*52

$GPRMC,140500.40,A,4437.79321,N,01056.93408,E,10.080,219.12,140422,,,A*55

$GPGGA,140500.40,4437.79321,N,01056.93408,E,1,07,1.32,38.8,M,46.0,M,,*60

$GPRMC,140500.50,A,4437.79300,N,01056.93384,E,10.201,219.41,140422,,,A*59

$GPRMC,140500.60,A,4437.79271,N,01056.93360,E,10.615,217.63,140422,,,A*58

$GPRMC,140500.70,A,4437.79243,N,01056.93334,E,10.996,216.39,140422,,,A*53

$GPRMC,140500.80,A,4437.79216,N,01056.93309,E,11.027,215.16,140422,,,A*5E

$GPRMC,140500.90,A,4437.79186,N,01056.93285,E,11.117,212.84,140422,,,A*5E

$GPRMC,140501.00,A,4437.79162,N,01056.93254,E,11.278,214.61,140422,,,A*57

$GPRMC,140501.10,A,4437.79134,N,01056.93228,E,11.213,214.19,140422,,,A*5C

$GPRMC,140501.20,A,4437.79107,N,01056.93202,E,11.310,213.95,140422,,,A*56

$GPRMC,140501.30,A,4437.79081,N,01056.93168,E,11.714,216.56,140422,,,A*5D

$GPRMC,140501.40,A,4437.79054,N,01056.93143,E,11.279,215.82,140422,,,A*5F

$GPGGA,140501.40,4437.79054,N,01056.93143,E,1,06,2.27,39.1,M,46.0,M,,*64

$GPRMC,140501.50,A,4437.79024,N,01056.93116,E,11.679,214.85,140422,,,A*5B

$GPRMC,140501.60,A,4437.78998,N,01056.93085,E,11.958,216.65,140422,,,A*5C

$GPRMC,140501.70,A,4437.78972,N,01056.93057,E,11.545,216.42,140422,,,A*53

$GPRMC,140501.80,A,4437.78945,N,01056.93027,E,11.834,216.61,140422,,,A*55

$GPRMC,140501.90,A,4437.78915,N,01056.93000,E,11.870,215.51,140422,,,A*54

$GPRMC,140502.00,A,4437.78891,N,01056.92969,E,11.839,217.11,140422,,,A*5F

$GPRMC,140502.10,A,4437.78869,N,01056.92945,E,11.536,217.49,140422,,,A*58

$GPRMC,140502.20,A,4437.78846,N,01056.92918,E,11.584,218.48,140422,,,A*59

$GPRMC,140502.30,A,4437.78823,N,01056.92894,E,11.206,217.96,140422,,,A*5F

$GPRMC,140502.40,A,4437.78806,N,01056.92866,E,11.143,220.27,140422,,,A*5E

$GPGGA,140502.40,4437.78806,N,01056.92866,E,1,06,1.78,39.6,M,46.0,M,,*68

$GPRMC,140502.50,A,4437.78787,N,01056.92842,E,10.763,221.18,140422,,,A*57

$GPRMC,140502.60,A,4437.78770,N,01056.92819,E,10.537,222.17,140422,,,A*5D

$GPRMC,140502.70,A,4437.78753,N,01056.92797,E,10.234,222.59,140422,,,A*5A

$GPRMC,140502.80,A,4437.78739,N,01056.92770,E,10.184,224.24,140422,,,A*54

$GPRMC,140502.90,A,4437.78718,N,01056.92751,E,9.973,222.07,140422,,,A*6A

$GPRMC,140503.00,A,4437.78696,N,01056.92719,E,10.708,222.69,140422,,,A*5B

$GPRMC,140503.10,A,4437.78673,N,01056.92687,E,10.807,223.14,140422,,,A*5C

$GPRMC,140503.20,A,4437.78651,N,01056.92655,E,10.862,223.78,140422,,,A*59

$GPRMC,140503.30,A,4437.78628,N,01056.92625,E,10.576,223.64,140422,,,A*54

$GPRMC,140503.40,A,4437.78631,N,01056.92587,E,9.498,229.63,140422,,,A*64

$GPGGA,140503.40,4437.78631,N,01056.92587,E,1,05,2.27,40.9,M,46.0,M,,*6A

$GPRMC,140503.50,A,4437.78624,N,01056.92552,E,8.634,235.38,140422,,,A*6F

$GPRMC,140503.60,A,4437.78607,N,01056.92515,E,9.405,238.47,140422,,,A*6A

$GPRMC,140503.70,A,4437.78588,N,01056.92481,E,9.321,238.01,140422,,,A*60

$GPRMC,140503.80,A,4437.78570,N,01056.92443,E,10.024,237.90,140422,,,A*5F

$GPRMC,140503.90,A,4437.78558,N,01056.92403,E,10.468,239.23,140422,,,A*5A

$GPRMC,140504.00,A,4437.78547,N,01056.92359,E,10.892,241.26,140422,,,A*51

$GPRMC,140504.10,A,4437.78537,N,01056.92315,E,11.136,243.42,140422,,,A*59

$GPRMC,140504.20,A,4437.78527,N,01056.92272,E,11.235,245.18,140422,,,A*52

$GPRMC,140504.30,A,4437.78516,N,01056.92224,E,11.640,246.73,140422,,,A*5A

$GPRMC,140504.40,A,4437.78507,N,01056.92178,E,11.730,248.16,140422,,,A*5C

$GPGGA,140504.40,4437.78507,N,01056.92178,E,1,06,1.72,41.1,M,46.0,M,,*66

$GPRMC,140504.50,A,4437.78497,N,01056.92133,E,11.927,249.20,140422,,,A*56

$GPRMC,140504.60,A,4437.78479,N,01056.92095,E,11.866,248.48,140422,,,A*53

$GPRMC,140504.70,A,4437.78459,N,01056.92055,E,11.976,246.89,140422,,,A*5F

$GPRMC,140504.80,A,4437.78441,N,01056.92018,E,11.766,245.30,140422,,,A*5E

$GPRMC,140504.90,A,4437.78419,N,01056.91982,E,11.843,243.33,140422,,,A*56

$GPRMC,140505.00,A,4437.78397,N,01056.91944,E,12.074,241.53,140422,,,A*5E

$GPRMC,140505.10,A,4437.78383,N,01056.91911,E,11.753,240.95,140422,,,A*50

$GPRMC,140505.20,A,4437.78368,N,01056.91876,E,11.686,240.86,140422,,,A*5D

$GPRMC,140505.30,A,4437.78346,N,01056.91841,E,11.739,239.83,140422,,,A*5A

$GPRMC,140505.40,A,4437.78325,N,01056.91804,E,11.711,238.94,140422,,,A*54

$GPGGA,140505.40,4437.78325,N,01056.91804,E,1,06,1.72,42.7,M,46.0,M,,*65

$GPRMC,140505.50,A,4437.78307,N,01056.91763,E,11.815,238.45,140422,,,A*5C

$GPRMC,140505.60,A,4437.78287,N,01056.91722,E,11.951,238.04,140422,,,A*57

$GPRMC,140505.70,A,4437.78274,N,01056.91677,E,11.969,238.70,140422,,,A*53

$GPRMC,140505.80,A,4437.78255,N,01056.91635,E,12.010,238.77,140422,,,A*5A

$GPRMC,140505.90,A,4437.78241,N,01056.91590,E,12.137,239.33,140422,,,A*57

$GPRMC,140506.00,A,4437.78221,N,01056.91550,E,12.211,239.32,140422,,,A*51

$GPRMC,140506.10,A,4437.78206,N,01056.91508,E,12.169,239.73,140422,,,A*51

$GPRMC,140506.20,A,4437.78193,N,01056.91465,E,12.043,240.56,140422,,,A*57

$GPRMC,140506.30,A,4437.78169,N,01056.91431,E,12.061,239.55,140422,,,A*5F

$GPRMC,140506.40,A,4437.78146,N,01056.91393,E,12.050,238.30,140422,,,A*5A

$GPGGA,140506.40,4437.78146,N,01056.91393,E,1,06,1.78,43.9,M,46.0,M,,*61

$GPRMC,140506.50,A,4437.78129,N,01056.91351,E,11.996,238.00,140422,,,A*5F

$GPRMC,140506.60,A,4437.78089,N,01056.91335,E,11.551,233.58,140422,,,A*54

$GPRMC,140506.70,A,4437.78070,N,01056.91299,E,11.514,232.07,140422,,,A*5E

$GPRMC,140506.80,A,4437.78054,N,01056.91257,E,11.542,232.64,140422,,,A*53

$GPRMC,140506.90,A,4437.78032,N,01056.91222,E,11.717,232.33,140422,,,A*50

$GPRMC,140507.00,A,4437.78015,N,01056.91181,E,11.545,233.25,140422,,,A*54

$GPRMC,140507.10,A,4437.77999,N,01056.91142,E,11.357,234.43,140422,,,A*5A

$GPRMC,140507.20,A,4437.77981,N,01056.91106,E,11.446,235.05,140422,,,A*54

$GPRMC,140507.30,A,4437.77959,N,01056.91074,E,11.327,234.45,140422,,,A*51

$GPRMC,140507.40,A,4437.77939,N,01056.91040,E,11.119,234.38,140422,,,A*52

$GPGGA,140507.40,4437.77939,N,01056.91040,E,1,07,1.29,45.0,M,46.0,M,,*68

$GPRMC,140507.50,A,4437.77917,N,01056.91006,E,11.046,234.03,140422,,,A*5E

$GPRMC,140507.60,A,4437.77891,N,01056.90978,E,10.875,232.67,140422,,,A*5E

$GPRMC,140507.70,A,4437.77863,N,01056.90950,E,10.698,230.98,140422,,,A*57

$GPRMC,140507.80,A,4437.77833,N,01056.90925,E,10.277,229.24,140422,,,A*55

$GPRMC,140507.90,A,4437.77805,N,01056.90903,E,10.046,227.25,140422,,,A*5A

$GPRMC,140508.00,A,4437.77781,N,01056.90873,E,10.230,226.34,140422,,,A*5B

$GPRMC,140508.10,A,4437.77760,N,01056.90843,E,9.740,226.84,140422,,,A*67

$GPRMC,140508.20,A,4437.77740,N,01056.90816,E,9.529,227.26,140422,,,A*62

$GPRMC,140508.30,A,4437.77723,N,01056.90787,E,9.229,227.96,140422,,,A*6D

$GPRMC,140508.40,A,4437.77702,N,01056.90768,E,8.892,227.41,140422,,,A*69

$GPGGA,140508.40,4437.77702,N,01056.90768,E,1,07,1.29,44.9,M,46.0,M,,*65

$GPRMC,140508.50,A,4437.77683,N,01056.90743,E,8.705,227.50,140422,,,A*68

$GPRMC,140508.60,A,4437.77668,N,01056.90719,E,8.363,228.29,140422,,,A*64

$GPRMC,140508.70,A,4437.77656,N,01056.90694,E,8.149,230.10,140422,,,A*65

$GPRMC,140508.80,A,4437.77617,N,01056.90687,E,7.907,225.05,140422,,,A*60

$GPRMC,140508.90,A,4437.77601,N,01056.90666,E,7.616,224.89,140422,,,A*63

$GPRMC,140509.00,A,4437.77584,N,01056.90643,E,7.488,226.49,140422,,,A*69

$GPRMC,140509.10,A,4437.77574,N,01056.90620,E,7.391,229.37,140422,,,A*6B

$GPRMC,140509.20,A,4437.77564,N,01056.90598,E,7.313,231.67,140422,,,A*6F

$GPRMC,140509.30,A,4437.77551,N,01056.90575,E,7.037,233.67,140422,,,A*6C

$GPRMC,140509.40,A,4437.77536,N,01056.90557,E,6.770,234.58,140422,,,A*64

$GPGGA,140509.40,4437.77536,N,01056.90557,E,1,08,1.01,45.4,M,46.0,M,,*66

$GPRMC,140509.50,A,4437.77527,N,01056.90537,E,6.644,236.00,140422,,,A*6A

$GPRMC,140509.60,A,4437.77540,N,01056.90536,E,5.399,236.72,140422,,,A*6A

$GPRMC,140509.70,A,4437.77541,N,01056.90527,E,5.120,237.70,140422,,,A*69

$GPRMC,140509.80,A,4437.77540,N,01056.90507,E,5.245,244.17,140422,,,A*60

$GPRMC,140509.90,A,4437.77542,N,01056.90485,E,5.635,254.54,140422,,,A*6D

$GPRMC,140510.00,A,4437.77534,N,01056.90463,E,5.833,256.94,140422,,,A*63

$GPRMC,140510.10,A,4437.77528,N,01056.90440,E,6.055,256.95,140422,,,A*64

$GPRMC,140510.20,A,4437.77523,N,01056.90417,E,6.080,256.49,140422,,,A*67

$GPRMC,140510.30,A,4437.77515,N,01056.90390,E,6.317,255.87,140422,,,A*67

$GPRMC,140510.40,A,4437.77507,N,01056.90367,E,6.345,254.49,140422,,,A*6F

$GPGGA,140510.40,4437.77507,N,01056.90367,E,1,06,1.78,48.1,M,46.0,M,,*61

$GPRMC,140510.50,A,4437.77498,N,01056.90338,E,6.486,254.28,140422,,,A*6C

$GPRMC,140510.60,A,4437.77495,N,01056.90317,E,6.255,255.96,140422,,,A*63

$GPRMC,140510.70,A,4437.77492,N,01056.90294,E,6.339,257.56,140422,,,A*6A

$GPRMC,140510.80,A,4437.77486,N,01056.90274,E,6.149,258.26,140422,,,A*63

$GPRMC,140510.90,A,4437.77497,N,01056.90240,E,6.838,268.11,140422,,,A*6D

$GPRMC,140511.00,A,4437.77462,N,01056.90270,E,4.927,262.14,140422,,,A*6E

$GPRMC,140511.10,A,4437.77454,N,01056.90249,E,5.070,252.14,140422,,,A*69

$GPRMC,140511.20,A,4437.77443,N,01056.90231,E,5.105,248.62,140422,,,A*6A

$GPRMC,140511.30,A,4437.77430,N,01056.90215,E,5.252,245.74,140422,,,A*62

$GPRMC,140511.40,A,4437.77413,N,01056.90202,E,5.190,243.15,140422,,,A*6E

$GPGGA,140511.40,4437.77413,N,01056.90202,E,1,07,1.32,49.9,M,46.0,M,,*60

$GPRMC,140511.50,A,4437.77400,N,01056.90187,E,5.215,242.28,140422,,,A*62

$GPRMC,140511.60,A,4437.77385,N,01056.90175,E,5.224,241.95,140422,,,A*61

$GPRMC,140511.70,A,4437.77385,N,01056.90143,E,5.651,246.96,140422,,,A*67

$GPRMC,140511.80,A,4437.77382,N,01056.90108,E,6.355,251.51,140422,,,A*6F

$GPRMC,140511.90,A,4437.77376,N,01056.90079,E,6.490,253.78,140422,,,A*65

$GPRMC,140512.00,A,4437.77387,N,01056.90037,E,7.307,265.73,140422,,,A*6D

$GPRMC,140512.10,A,4437.77388,N,01056.89998,E,7.991,268.13,140422,,,A*69

$GPRMC,140512.20,A,4437.77384,N,01056.89965,E,8.017,267.95,140422,,,A*6D

$GPRMC,140512.30,A,4437.77384,N,01056.89933,E,8.140,268.56,140422,,,A*6C

$GPRMC,140512.40,A,4437.77382,N,01056.89896,E,8.534,269.10,140422,,,A*67

$GPGGA,140512.40,4437.77382,N,01056.89896,E,1,07,1.32,51.8,M,46.0,M,,*6B

$GPRMC,140512.50,A,4437.77379,N,01056.89862,E,8.643,268.88,140422,,,A*6A

$GPRMC,140512.60,A,4437.77378,N,01056.89829,E,8.709,269.84,140422,,,A*65

$GPRMC,140512.70,A,4437.77376,N,01056.89798,E,8.580,269.74,140422,,,A*63

$GPRMC,140512.80,A,4437.77371,N,01056.89770,E,8.412,268.58,140422,,,A*68

$GPRMC,140512.90,A,4437.77353,N,01056.89779,E,6.183,263.70,140422,,,A*62

$GPRMC,140513.00,A,4437.77337,N,01056.89774,E,5.305,254.20,140422,,,A*6B

$GPRMC,140513.10,A,4437.77318,N,01056.89770,E,5.193,239.38,140422,,,A*6C

$GPRMC,140513.20,A,4437.77302,N,01056.89761,E,5.064,228.80,140422,,,A*6E

$GPRMC,140513.30,A,4437.77286,N,01056.89749,E,5.199,223.43,140422,,,A*6F

$GPRMC,140513.40,A,4437.77269,N,01056.89739,E,5.234,218.73,140422,,,A*61

$GPGGA,140513.40,4437.77269,N,01056.89739,E,1,07,1.32,53.3,M,46.0,M,,*6D

$GPRMC,140513.50,A,4437.77253,N,01056.89725,E,5.253,217.26,140422,,,A*6A

$GPRMC,140513.60,A,4437.77234,N,01056.89714,E,5.577,215.74,140422,,,A*6E

$GPRMC,140513.70,A,4437.77217,N,01056.89705,E,5.543,214.83,140422,,,A*60

$GPRMC,140513.80,A,4437.77199,N,01056.89691,E,5.865,213.88,140422,,,A*63

$GPRMC,140513.90,A,4437.77183,N,01056.89678,E,5.845,214.38,140422,,,A*60

$GPRMC,140514.00,A,4437.77165,N,01056.89665,E,5.961,214.30,140422,,,A*65

$GPRMC,140514.10,A,4437.77147,N,01056.89655,E,5.842,213.33,140422,,,A*63

$GPRMC,140514.20,A,4437.77131,N,01056.89642,E,5.844,213.98,140422,,,A*60

$GPRMC,140514.30,A,4437.77115,N,01056.89633,E,5.624,213.23,140422,,,A*69

$GPRMC,140514.40,A,4437.77100,N,01056.89620,E,5.835,214.63,140422,,,A*65

$GPGGA,140514.40,4437.77100,N,01056.89620,E,1,07,1.32,54.2,M,46.0,M,,*69

$GPRMC,140514.50,A,4437.77083,N,01056.89606,E,5.883,215.76,140422,,,A*62

$GPRMC,140514.60,A,4437.77066,N,01056.89594,E,6.016,215.76,140422,,,A*65

$GPRMC,140514.70,A,4437.77051,N,01056.89580,E,5.988,216.91,140422,,,A*62

$GPRMC,140514.80,A,4437.77036,N,01056.89570,E,5.949,217.65,140422,,,A*64

$GPRMC,140514.90,A,4437.77023,N,01056.89560,E,5.944,218.35,140422,,,A*67

$GPRMC,140515.00,A,4437.77012,N,01056.89550,E,5.855,220.07,140422,,,A*65

$GPRMC,140515.10,A,4437.76998,N,01056.89538,E,5.929,221.52,140422,,,A*6B

$GPRMC,140515.20,A,4437.76986,N,01056.89530,E,5.619,221.27,140422,,,A*61

$GPRMC,140515.30,A,4437.76980,N,01056.89521,E,5.405,224.45,140422,,,A*68

$GPRMC,140515.40,A,4437.76973,N,01056.89521,E,4.713,224.23,140422,,,A*66

$GPGGA,140515.40,4437.76973,N,01056.89521,E,1,07,1.32,56.0,M,46.0,M,,*67

$GPRMC,140515.50,A,4437.76967,N,01056.89511,E,4.765,227.76,140422,,,A*63

$GPRMC,140515.60,A,4437.76951,N,01056.89494,E,5.242,227.25,140422,,,A*6E

$GPRMC,140515.70,A,4437.76933,N,01056.89479,E,5.601,223.54,140422,,,A*69

$GPRMC,140515.80,A,4437.76915,N,01056.89461,E,5.771,221.91,140422,,,A*66

$GPRMC,140515.90,A,4437.76898,N,01056.89439,E,6.234,223.05,140422,,,A*66

$GPRMC,140516.00,A,4437.76878,N,01056.89422,E,6.327,220.38,140422,,,A*66

$GPRMC,140516.10,A,4437.76860,N,01056.89401,E,6.519,220.46,140422,,,A*6D

$GPRMC,140516.20,A,4437.76843,N,01056.89382,E,6.714,220.18,140422,,,A*67

$GPRMC,140516.30,A,4437.76831,N,01056.89354,E,6.812,224.66,140422,,,A*6C

$GPRMC,140516.40,A,4437.76819,N,01056.89328,E,7.043,228.15,140422,,,A*6F

$GPGGA,140516.40,4437.76819,N,01056.89328,E,1,06,1.78,57.0,M,46.0,M,,*68

$GPRMC,140516.50,A,4437.76798,N,01056.89317,E,6.575,223.27,140422,,,A*6F

$GPRMC,140516.60,A,4437.76784,N,01056.89291,E,6.931,223.83,140422,,,A*6C

$GPRMC,140516.70,A,4437.76776,N,01056.89266,E,7.106,227.50,140422,,,A*6F

$GPRMC,140516.80,A,4437.76761,N,01056.89250,E,6.621,226.64,140422,,,A*66

$GPRMC,140516.90,A,4437.76751,N,01056.89222,E,6.954,228.87,140422,,,A*6F

$GPRMC,140517.00,A,4437.76742,N,01056.89188,E,7.173,233.60,140422,,,A*69

$GPRMC,140517.10,A,4437.76735,N,01056.89154,E,7.496,238.60,140422,,,A*6C

$GPRMC,140517.20,A,4437.76724,N,01056.89118,E,7.965,241.20,140422,,,A*6C

$GPRMC,140517.30,A,4437.76711,N,01056.89085,E,8.072,242.02,140422,,,A*6D

$GPRMC,140517.40,A,4437.76695,N,01056.89050,E,8.123,241.36,140422,,,A*6E

$GPGGA,140517.40,4437.76695,N,01056.89050,E,1,06,1.78,58.3,M,46.0,M,,*63

$GPRMC,140517.50,A,4437.76679,N,01056.89015,E,8.297,240.37,140422,,,A*60

$GPRMC,140517.60,A,4437.76666,N,01056.88979,E,8.498,240.34,140422,,,A*65

$GPRMC,140517.70,A,4437.76648,N,01056.88946,E,8.682,239.36,140422,,,A*61

$GPRMC,140517.80,A,4437.76633,N,01056.88916,E,8.586,238.75,140422,,,A*66

$GPRMC,140517.90,A,4437.76617,N,01056.88885,E,8.554,238.32,140422,,,A*66

$GPRMC,140518.00,A,4437.76600,N,01056.88851,E,8.879,237.74,140422,,,A*60

$GPRMC,140518.10,A,4437.76587,N,01056.88816,E,8.853,238.58,140422,,,A*67

$GPRMC,140518.20,A,4437.76572,N,01056.88782,E,8.969,239.03,140422,,,A*6B

$GPRMC,140518.30,A,4437.76558,N,01056.88749,E,8.927,239.38,140422,,,A*67

$GPRMC,140518.40,A,4437.76536,N,01056.88722,E,8.997,237.88,140422,,,A*6B

$GPGGA,140518.40,4437.76536,N,01056.88722,E,1,07,1.29,58.8,M,46.0,M,,*6B

$GPRMC,140518.50,A,4437.76515,N,01056.88692,E,8.953,236.59,140422,,,A*64

$GPRMC,140518.60,A,4437.76493,N,01056.88664,E,8.945,235.13,140422,,,A*6B

$GPRMC,140518.70,A,4437.76469,N,01056.88636,E,9.067,233.26,140422,,,A*60

$GPRMC,140518.80,A,4437.76442,N,01056.88609,E,9.241,230.54,140422,,,A*6A

$GPRMC,140518.90,A,4437.76407,N,01056.88589,E,9.110,226.33,140422,,,A*60

$GPRMC,140519.00,A,4437.76359,N,01056.88572,E,9.678,219.94,140422,,,A*68

$GPRMC,140519.10,A,4437.76328,N,01056.88543,E,9.646,218.30,140422,,,A*6F

$GPRMC,140519.20,A,4437.76301,N,01056.88518,E,9.579,217.53,140422,,,A*6C

$GPRMC,140519.30,A,4437.76274,N,01056.88491,E,9.645,217.24,140422,,,A*62

$GPRMC,140519.40,A,4437.76247,N,01056.88465,E,9.576,217.47,140422,,,A*68

$GPGGA,140519.40,4437.76247,N,01056.88465,E,1,08,1.29,57.7,M,46.0,M,,*64

$GPRMC,140519.50,A,4437.76218,N,01056.88437,E,9.699,218.16,140422,,,A*6D

$GPRMC,140519.60,A,4437.76189,N,01056.88410,E,9.785,218.62,140422,,,A*6F

$GPRMC,140519.70,A,4437.76153,N,01056.88384,E,9.976,218.89,140422,,,A*64

$GPRMC,140519.80,A,4437.76117,N,01056.88359,E,9.972,219.34,140422,,,A*68

$GPRMC,140519.90,A,4437.76068,N,01056.88343,E,10.333,215.81,140422,,,A*5E

$GPRMC,140520.00,A,4437.76035,N,01056.88321,E,10.171,216.09,140422,,,A*56

$GPRMC,140520.10,A,4437.76003,N,01056.88294,E,10.025,217.84,140422,,,A*59

$GPRMC,140520.20,A,4437.75970,N,01056.88270,E,10.111,218.52,140422,,,A*5C

$GPRMC,140520.30,A,4437.75939,N,01056.88242,E,10.388,219.44,140422,,,A*55

$GPRMC,140520.40,A,4437.75907,N,01056.88221,E,10.339,219.47,140422,,,A*53

$GPGGA,140520.40,4437.75907,N,01056.88221,E,1,07,1.29,56.0,M,46.0,M,,*6D

$GPRMC,140520.50,A,4437.75875,N,01056.88197,E,10.216,219.45,140422,,,A*56

$GPRMC,140520.60,A,4437.75843,N,01056.88171,E,10.432,219.04,140422,,,A*5D

$GPRMC,140520.70,A,4437.75812,N,01056.88143,E,10.630,218.92,140422,,,A*57

$GPRMC,140520.80,A,4437.75777,N,01056.88121,E,10.532,218.26,140422,,,A*5E

$GPRMC,140520.90,A,4437.75741,N,01056.88097,E,10.611,217.78,140422,,,A*50

$GPRMC,140521.00,A,4437.75706,N,01056.88073,E,10.612,217.37,140422,,,A*59

$GPRMC,140521.10,A,4437.75670,N,01056.88054,E,10.429,216.38,140422,,,A*59

$GPRMC,140521.20,A,4437.75632,N,01056.88031,E,10.547,216.15,140422,,,A*59

$GPRMC,140521.30,A,4437.75593,N,01056.88007,E,10.642,216.26,140422,,,A*53

$GPRMC,140521.40,A,4437.75549,N,01056.87986,E,10.777,216.41,140422,,,A*5A

$GPGGA,140521.40,4437.75549,N,01056.87986,E,1,06,1.78,54.1,M,46.0,M,,*65

$GPRMC,140521.50,A,4437.75515,N,01056.87964,E,10.543,216.30,140422,,,A*5D

$GPRMC,140521.60,A,4437.75480,N,01056.87940,E,10.705,216.07,140422,,,A*51

$GPRMC,140521.70,A,4437.75442,N,01056.87915,E,10.779,216.42,140422,,,A*54

$GPRMC,140521.80,A,4437.75401,N,01056.87893,E,10.922,216.45,140422,,,A*54

$GPRMC,140521.90,A,4437.75365,N,01056.87867,E,10.858,217.03,140422,,,A*54

$GPRMC,140522.00,A,4437.75337,N,01056.87831,E,10.963,219.30,140422,,,A*5D

$GPRMC,140522.10,A,4437.75307,N,01056.87810,E,10.687,220.33,140422,,,A*50

$GPRMC,140522.20,A,4437.75272,N,01056.87784,E,10.840,221.22,140422,,,A*56

$GPRMC,140522.30,A,4437.75241,N,01056.87759,E,10.698,221.39,140422,,,A*56

$GPRMC,140522.40,A,4437.75217,N,01056.87726,E,10.769,222.72,140422,,,A*59

$GPGGA,140522.40,4437.75217,N,01056.87726,E,1,07,1.32,52.7,M,46.0,M,,*61

$GPRMC,140522.50,A,4437.75191,N,01056.87698,E,10.639,223.95,140422,,,A*5D

$GPRMC,140522.60,A,4437.75165,N,01056.87672,E,10.498,224.94,140422,,,A*5E

$GPRMC,140522.70,A,4437.75135,N,01056.87650,E,10.445,225.18,140422,,,A*5F

$GPRMC,140522.80,A,4437.75106,N,01056.87625,E,10.435,225.17,140422,,,A*5A

$GPRMC,140522.90,A,4437.75065,N,01056.87614,E,10.570,220.56,140422,,,A*5D

$GPRMC,140523.00,A,4437.75022,N,01056.87605,E,10.693,215.93,140422,,,A*57

$GPRMC,140523.10,A,4437.74989,N,01056.87583,E,10.624,215.16,140422,,,A*53

$GPRMC,140523.20,A,4437.74953,N,01056.87567,E,10.761,213.47,140422,,,A*5F

$GPRMC,140523.30,A,4437.74927,N,01056.87540,E,10.343,217.05,140422,,,A*5E

$GPRMC,140523.40,A,4437.74891,N,01056.87524,E,10.599,215.23,140422,,,A*50

$GPGGA,140523.40,4437.74891,N,01056.87524,E,1,07,1.32,52.0,M,46.0,M,,*62

$GPRMC,140523.50,A,4437.74862,N,01056.87503,E,10.399,214.88,140422,,,A*5E

$GPRMC,140523.60,A,4437.74833,N,01056.87485,E,10.243,215.26,140422,,,A*55

$GPRMC,140523.70,A,4437.74804,N,01056.87458,E,10.437,216.63,140422,,,A*57

$GPRMC,140523.80,A,4437.74778,N,01056.87431,E,10.533,218.20,140422,,,A*5F

$GPRMC,140523.90,A,4437.74752,N,01056.87401,E,10.558,219.75,140422,,,A*59

$GPRMC,140524.00,A,4437.74726,N,01056.87371,E,10.508,220.86,140422,,,A*57

$GPRMC,140524.10,A,4437.74699,N,01056.87343,E,10.633,221.19,140422,,,A*5E

$GPRMC,140524.20,A,4437.74670,N,01056.87316,E,10.632,221.08,140422,,,A*5B

$GPRMC,140524.40,A,4437.74609,N,01056.87278,E,10.647,215.48,140422,,,A*5B

$GPRMC,140524.50,A,4437.74573,N,01056.87252,E,11.095,214.35,140422,,,A*5F

$GPGGA,140524.50,4437.74573,N,01056.87252,E,1,08,0.96,51.7,M,46.0,M,,*67

$GPRMC,140524.60,A,4437.74538,N,01056.87235,E,10.814,212.69,140422,,,A*5D

$GPRMC,140524.70,A,4437.74513,N,01056.87210,E,10.636,212.88,140422,,,A*53

$GPRMC,140524.90,A,4437.74465,N,01056.87163,E,10.250,215.07,140422,,,A*5E

$GPRMC,140525.00,A,4437.74445,N,01056.87141,E,9.652,216.80,140422,,,A*66

$GPRMC,140525.10,A,4437.74428,N,01056.87114,E,9.399,219.59,140422,,,A*65

$GPRMC,140525.20,A,4437.74402,N,01056.87086,E,9.256,220.51,140422,,,A*64

$GPRMC,140525.40,A,4437.74352,N,01056.87035,E,9.576,219.78,140422,,,A*6C

$GPRMC,140525.50,A,4437.74319,N,01056.87009,E,10.179,218.74,140422,,,A*53

$GPRMC,140525.60,A,4437.74290,N,01056.86983,E,10.081,218.23,140422,,,A*5E

$GPRMC,140525.70,A,4437.74262,N,01056.86957,E,10.362,218.35,140422,,,A*52

$GPGGA,140525.70,4437.74262,N,01056.86957,E,1,08,0.96,51.3,M,46.0,M,,*68

$GPRMC,140525.90,A,4437.74210,N,01056.86909,E,10.408,217.25,140422,,,A*57

$GPRMC,140526.00,A,4437.74182,N,01056.86883,E,10.668,217.68,140422,,,A*5B

$GPRMC,140526.10,A,4437.74153,N,01056.86862,E,10.326,217.21,140422,,,A*5B

$GPRMC,140526.20,A,4437.74129,N,01056.86838,E,10.308,217.27,140422,,,A*50

$GPRMC,140526.30,A,4437.74100,N,01056.86811,E,10.710,217.76,140422,,,A*58

$GPRMC,140526.40,A,4437.74071,N,01056.86783,E,10.767,217.35,140422,,,A*5B

$GPRMC,140526.50,A,4437.74045,N,01056.86752,E,10.923,218.57,140422,,,A*54

$GPRMC,140526.60,A,4437.74014,N,01056.86720,E,11.178,218.79,140422,,,A*5D

$GPRMC,140526.70,A,4437.73984,N,01056.86697,E,11.225,219.13,140422,,,A*50

$GPRMC,140526.80,A,4437.73952,N,01056.86670,E,11.315,219.23,140422,,,A*5C

$GPGGA,140526.80,4437.73952,N,01056.86670,E,1,08,0.96,50.7,M,46.0,M,,*64

$GPRMC,140526.90,A,4437.73920,N,01056.86646,E,11.285,219.67,140422,,,A*55

$GPRMC,140527.00,A,4437.73889,N,01056.86619,E,11.270,219.63,140422,,,A*5B

$GPRMC,140527.10,A,4437.73858,N,01056.86586,E,11.407,220.17,140422,,,A*5C

$GPRMC,140527.20,A,4437.73833,N,01056.86567,E,11.019,219.61,140422,,,A*5D

$GPRMC,140527.30,A,4437.73801,N,01056.86543,E,11.053,220.00,140422,,,A*58

$GPRMC,140527.40,A,4437.73767,N,01056.86517,E,11.226,220.03,140422,,,A*52

$GPRMC,140527.50,A,4437.73731,N,01056.86492,E,11.229,220.07,140422,,,A*57

$GPRMC,140527.60,A,4437.73698,N,01056.86464,E,11.482,221.20,140422,,,A*5C

$GPRMC,140527.70,A,4437.73667,N,01056.86440,E,11.336,221.01,140422,,,A*50

$GPRMC,140527.80,A,4437.73636,N,01056.86410,E,11.608,222.18,140422,,,A*5D

$GPGGA,140527.80,4437.73636,N,01056.86410,E,1,09,0.96,49.7,M,46.0,M,,*65

$GPRMC,140527.90,A,4437.73602,N,01056.86382,E,11.634,221.13,140422,,,A*50

$GPRMC,140528.00,A,4437.73570,N,01056.86346,E,11.736,222.28,140422,,,A*50

$GPRMC,140528.10,A,4437.73538,N,01056.86315,E,11.807,221.62,140422,,,A*5B

$GPRMC,140528.20,A,4437.73506,N,01056.86286,E,11.785,222.05,140422,,,A*59

$GPRMC,140528.30,A,4437.73467,N,01056.86258,E,11.927,220.73,140422,,,A*58

$GPRMC,140528.40,A,4437.73429,N,01056.86233,E,11.936,219.21,140422,,,A*55

$GPRMC,140528.50,A,4437.73392,N,01056.86206,E,12.126,219.28,140422,,,A*56

$GPRMC,140528.60,A,4437.73355,N,01056.86179,E,11.944,217.72,140422,,,A*5B

$GPRMC,140528.70,A,4437.73315,N,01056.86157,E,12.044,216.44,140422,,,A*5C

$GPRMC,140528.80,A,4437.73274,N,01056.86135,E,12.198,215.11,140422,,,A*52

$GPGGA,140528.80,4437.73274,N,01056.86135,E,1,09,0.96,48.0,M,46.0,M,,*6C

$GPRMC,140528.90,A,4437.73237,N,01056.86118,E,12.090,212.12,140422,,,A*56

$GPRMC,140529.00,A,4437.73196,N,01056.86100,E,12.298,209.69,140422,,,A*53

$GPRMC,140529.10,A,4437.73153,N,01056.86082,E,12.301,207.28,140422,,,A*5A

$GPRMC,140529.20,A,4437.73120,N,01056.86064,E,12.127,205.38,140422,,,A*50

$GPRMC,140529.30,A,4437.73084,N,01056.86048,E,12.215,203.59,140422,,,A*53

$GPRMC,140529.40,A,4437.73050,N,01056.86034,E,12.023,202.28,140422,,,A*56

$GPRMC,140529.50,A,4437.73013,N,01056.86023,E,12.058,199.23,140422,,,A*50

$GPRMC,140529.60,A,4437.72976,N,01056.86015,E,12.060,197.00,140422,,,A*59

$GPRMC,140529.70,A,4437.72939,N,01056.86006,E,12.075,194.70,140422,,,A*51

$GPRMC,140529.80,A,4437.72901,N,01056.86004,E,12.136,191.15,140422,,,A*57

$GPGGA,140529.80,4437.72901,N,01056.86004,E,1,09,0.96,47.2,M,46.0,M,,*6B

$GPRMC,140530.00,A,4437.72832,N,01056.85987,E,11.676,190.78,140422,,,A*5D

$GPRMC,140530.10,A,4437.72793,N,01056.85987,E,11.869,187.75,140422,,,A*53

$GPRMC,140530.20,A,4437.72755,N,01056.85989,E,11.981,185.14,140422,,,A*56

$GPRMC,140530.30,A,4437.72718,N,01056.85996,E,11.938,182.18,140422,,,A*59

$GPRMC,140530.40,A,4437.72681,N,01056.86000,E,12.124,179.42,140422,,,A*57

$GPRMC,140530.50,A,4437.72650,N,01056.86007,E,11.586,177.49,140422,,,A*57

$GPRMC,140530.60,A,4437.72621,N,01056.86014,E,10.980,175.70,140422,,,A*53

$GPRMC,140530.70,A,4437.72592,N,01056.86023,E,10.999,172.68,140422,,,A*5B

$GPRMC,140530.80,A,4437.72568,N,01056.86033,E,10.458,170.38,140422,,,A*57

$GPRMC,140530.90,A,4437.72541,N,01056.86048,E,10.415,166.25,140422,,,A*53

$GPGGA,140530.90,4437.72541,N,01056.86048,E,1,08,0.95,47.1,M,46.0,M,,*63

$GPRMC,140531.00,A,4437.72507,N,01056.86064,E,11.031,163.04,140422,,,A*52

$GPRMC,140531.10,A,4437.72475,N,01056.86079,E,11.234,161.09,140422,,,A*53

$GPRMC,140531.20,A,4437.72448,N,01056.86100,E,11.337,157.76,140422,,,A*5E

$GPRMC,140531.30,A,4437.72425,N,01056.86120,E,10.841,154.57,140422,,,A*5D

$GPRMC,140531.40,A,4437.72406,N,01056.86146,E,10.728,149.70,140422,,,A*52

$GPRMC,140531.50,A,4437.72380,N,01056.86167,E,11.044,146.32,140422,,,A*5C

$GPRMC,140531.60,A,4437.72355,N,01056.86194,E,11.316,143.07,140422,,,A*5C

$GPRMC,140531.70,A,4437.72334,N,01056.86219,E,10.748,140.76,140422,,,A*57

$GPRMC,140531.80,A,4437.72310,N,01056.86251,E,11.371,138.47,140422,,,A*50

$GPRMC,140531.90,A,4437.72288,N,01056.86280,E,10.977,137.19,140422,,,A*54

$GPGGA,140531.90,4437.72288,N,01056.86280,E,1,08,1.24,46.9,M,46.0,M,,*64

$GPRMC,140532.00,A,4437.72267,N,01056.86310,E,10.964,135.66,140422,,,A*5F

$GPRMC,140532.10,A,4437.72248,N,01056.86343,E,11.311,133.24,140422,,,A*5C

$GPRMC,140532.20,A,4437.72229,N,01056.86369,E,10.816,131.98,140422,,,A*58

$GPRMC,140532.30,A,4437.72207,N,01056.86396,E,11.232,131.30,140422,,,A*5A

$GPRMC,140532.40,A,4437.72190,N,01056.86426,E,11.227,129.86,140422,,,A*5C

$GPRMC,140532.50,A,4437.72171,N,01056.86459,E,11.595,128.17,140422,,,A*5D

$GPRMC,140532.60,A,4437.72150,N,01056.86497,E,11.860,126.98,140422,,,A*51

$GPRMC,140532.70,A,4437.72133,N,01056.86533,E,11.702,124.95,140422,,,A*5E

$GPRMC,140532.80,A,4437.72110,N,01056.86563,E,11.369,124.82,140422,,,A*5A

$GPRMC,140532.90,A,4437.72085,N,01056.86597,E,11.573,124.71,140422,,,A*5C

$GPGGA,140532.90,4437.72085,N,01056.86597,E,1,07,1.20,46.5,M,46.0,M,,*6E

$GPRMC,140533.00,A,4437.72061,N,01056.86628,E,11.380,125.54,140422,,,A*55

$GPRMC,140533.10,A,4437.72034,N,01056.86661,E,11.305,126.57,140422,,,A*54

$GPRMC,140533.20,A,4437.72010,N,01056.86695,E,11.448,126.40,140422,,,A*52

$GPRMC,140533.30,A,4437.71986,N,01056.86736,E,11.820,124.83,140422,,,A*51

$GPRMC,140533.40,A,4437.71963,N,01056.86766,E,11.382,125.22,140422,,,A*51

$GPRMC,140533.50,A,4437.71941,N,01056.86797,E,11.424,125.25,140422,,,A*52

$GPRMC,140533.60,A,4437.71917,N,01056.86827,E,11.143,126.56,140422,,,A*55

$GPRMC,140533.70,A,4437.71895,N,01056.86860,E,11.454,126.38,140422,,,A*57

$GPRMC,140533.80,A,4437.71869,N,01056.86892,E,11.538,126.66,140422,,,A*56

$GPRMC,140533.90,A,4437.71840,N,01056.86922,E,11.671,128.13,140422,,,A*54

$GPGGA,140533.90,4437.71840,N,01056.86922,E,1,07,1.20,45.5,M,46.0,M,,*6C

$GPRMC,140534.00,A,4437.71813,N,01056.86952,E,11.580,129.02,140422,,,A*57

$GPRMC,140534.10,A,4437.71783,N,01056.86982,E,11.934,129.61,140422,,,A*5B

$GPRMC,140534.20,A,4437.71755,N,01056.87014,E,11.776,129.50,140422,,,A*5E

$GPRMC,140534.30,A,4437.71726,N,01056.87047,E,11.900,129.97,140422,,,A*59

$GPRMC,140534.40,A,4437.71698,N,01056.87079,E,11.698,129.19,140422,,,A*5F

