$GPRMC,134118.60,A,4437.78906,N,01057.00084,E,0.273,,140422,,,A*74

$GPRMC,134118.70,A,4437.78907,N,01057.00083,E,0.077,,140422,,,A*75

$GPRMC,134118.80,A,4437.78906,N,01057.00085,E,0.169,,140422,,,A*73

$GPRMC,134118.90,A,4437.78903,N,01057.00086,E,0.164,,140422,,,A*79

$GPRMC,134119.00,A,4437.78903,N,01057.00087,E,0.206,,140422,,,A*77

$GPRMC,134119.10,A,4437.78901,N,01057.00087,E,0.067,,140422,,,A*71

$GPRMC,134119.20,A,4437.78901,N,01057.00087,E,0.147,,140422,,,A*71

$GPRMC,134119.30,A,4437.78898,N,01057.00088,E,0.130,,140422,,,A*7E

$GPRMC,134119.40,A,4437.78899,N,01057.00088,E,0.128,,140422,,,A*71

$GPRMC,134119.50,A,4437.78899,N,01057.00087,E,0.101,,140422,,,A*74

$GPGGA,134119.50,4437.78899,N,01057.00087,E,1,09,1.06,32.4,M,46.0,M,,*60

$GPRMC,134119.60,A,4437.78899,N,01057.00087,E,0.095,,140422,,,A*7B

$GPRMC,134119.70,A,4437.78899,N,01057.00086,E,0.153,,140422,,,A*70

$GPRMC,134119.80,A,4437.78898,N,01057.00086,E,0.092,,140422,,,A*72

$GPRMC,134119.90,A,4437.78897,N,01057.00085,E,0.174,,140422,,,A*76

$GPRMC,134120.00,A,4437.78896,N,01057.00085,E,0.227,,140422,,,A*71

$GPRMC,134120.10,A,4437.78897,N,01057.00084,E,0.066,,140422,,,A*77

$GPRMC,134120.20,A,4437.78897,N,01057.00084,E,0.183,,140422,,,A*7E

$GPRMC,134120.30,A,4437.78897,N,01057.00084,E,0.150,,140422,,,A*71

$GPRMC,134120.40,A,4437.78897,N,01057.00084,E,0.187,,140422,,,A*7C

$GPRMC,134120.50,A,4437.78896,N,01057.00086,E,0.226,,140422,,,A*76

$GPGGA,134120.50,4437.78896,N,01057.00086,E,1,08,1.14,32.5,M,46.0,M,,*67

$GPRMC,134120.60,A,4437.78896,N,01057.00086,E,0.159,,140422,,,A*7E

$GPRMC,134120.70,A,4437.78895,N,01057.00087,E,0.244,,140422,,,A*72

$GPRMC,134120.80,A,4437.78895,N,01057.00089,E,0.311,,140422,,,A*72

$GPRMC,134120.90,A,4437.78897,N,01057.00090,E,0.498,59.61,140422,,,A*5A

$GPRMC,134121.00,A,4437.78898,N,01057.00092,E,0.611,44.15,140422,,,A*53

$GPRMC,134121.10,A,4437.78900,N,01057.00093,E,0.681,36.95,140422,,,A*57

$GPRMC,134121.20,A,4437.78903,N,01057.00095,E,1.138,36.27,140422,,,A*5C

$GPRMC,134121.30,A,4437.78905,N,01057.00098,E,1.281,45.33,140422,,,A*56

$GPRMC,134121.40,A,4437.78909,N,01057.00099,E,1.192,44.33,140422,,,A*5C

$GPRMC,134121.50,A,4437.78910,N,01057.00104,E,1.738,52.55,140422,,,A*51

$GPGGA,134121.50,4437.78910,N,01057.00104,E,1,08,1.14,32.1,M,46.0,M,,*66

$GPRMC,134121.60,A,4437.78909,N,01057.00110,E,2.982,37.65,140422,,,A*53

$GPRMC,134121.70,A,4437.78915,N,01057.00123,E,3.670,37.85,140422,,,A*52

$GPRMC,134121.80,A,4437.78919,N,01057.00130,E,3.359,38.22,140422,,,A*5F

$GPRMC,134121.90,A,4437.78924,N,01057.00140,E,3.706,38.29,140422,,,A*52

$GPRMC,134122.00,A,4437.78929,N,01057.00150,E,3.678,39.98,140422,,,A*57

$GPRMC,134122.10,A,4437.78936,N,01057.00161,E,4.022,42.10,140422,,,A*58

$GPRMC,134122.20,A,4437.78934,N,01057.00170,E,3.079,49.47,140422,,,A*59

$GPRMC,134122.30,A,4437.78938,N,01057.00183,E,3.425,53.36,140422,,,A*58

$GPRMC,134122.40,A,4437.78942,N,01057.00195,E,3.701,54.58,140422,,,A*5F

$GPRMC,134122.50,A,4437.78948,N,01057.00207,E,3.842,54.86,140422,,,A*57

$GPGGA,134122.50,4437.78948,N,01057.00207,E,1,08,1.14,33.4,M,46.0,M,,*6C

$GPRMC,134122.60,A,4437.78955,N,01057.00224,E,4.573,55.11,140422,,,A*5E

$GPRMC,134122.70,A,4437.78967,N,01057.00232,E,4.611,48.85,140422,,,A*5F

$GPRMC,134122.80,A,4437.78981,N,01057.00238,E,4.762,40.46,140422,,,A*50

$GPRMC,134122.90,A,4437.78991,N,01057.00248,E,4.805,36.24,140422,,,A*5C

$GPRMC,134123.00,A,4437.79000,N,01057.00260,E,4.906,35.49,140422,,,A*54

$GPRMC,134123.10,A,4437.79008,N,01057.00271,E,4.857,35.59,140422,,,A*59

$GPRMC,134123.20,A,4437.79014,N,01057.00283,E,4.636,36.36,140422,,,A*59

$GPRMC,134123.30,A,4437.79026,N,01057.00296,E,5.092,37.73,140422,,,A*54

$GPRMC,134123.40,A,4437.79041,N,01057.00306,E,5.392,35.15,140422,,,A*5B

$GPRMC,134123.50,A,4437.79051,N,01057.00318,E,5.168,35.31,140422,,,A*55

$GPGGA,134123.50,4437.79051,N,01057.00318,E,1,08,1.14,33.9,M,46.0,M,,*6F

$GPRMC,134123.60,A,4437.79066,N,01057.00327,E,5.449,33.18,140422,,,A*55

$GPRMC,134123.70,A,4437.79080,N,01057.00334,E,5.242,31.00,140422,,,A*58

$GPRMC,134123.80,A,4437.79092,N,01057.00343,E,5.149,29.98,140422,,,A*54

$GPRMC,134123.90,A,4437.79104,N,01057.00354,E,5.323,29.10,140422,,,A*53

$GPRMC,134124.00,A,4437.79114,N,01057.00367,E,5.365,30.66,140422,,,A*57

$GPRMC,134124.10,A,4437.79128,N,01057.00378,E,5.590,31.31,140422,,,A*58

$GPRMC,134124.20,A,4437.79140,N,01057.00390,E,5.655,32.13,140422,,,A*5A

$GPRMC,134124.30,A,4437.79148,N,01057.00400,E,5.412,32.99,140422,,,A*5E

$GPRMC,134124.40,A,4437.79159,N,01057.00407,E,5.344,31.54,140422,,,A*58

$GPRMC,134124.50,A,4437.79168,N,01057.00411,E,5.006,28.76,140422,,,A*51

$GPGGA,134124.50,4437.79168,N,01057.00411,E,1,09,0.95,34.7,M,46.0,M,,*6D

$GPRMC,134124.60,A,4437.79175,N,01057.00413,E,4.790,24.51,140422,,,A*5C

$GPRMC,134124.70,A,4437.79182,N,01057.00412,E,4.452,19.73,140422,,,A*57

$GPRMC,134124.80,A,4437.79190,N,01057.00418,E,4.575,17.35,140422,,,A*59

$GPRMC,134124.90,A,4437.79193,N,01057.00415,E,3.925,13.38,140422,,,A*51

$GPRMC,134125.00,A,4437.79203,N,01057.00420,E,4.286,13.27,140422,,,A*5E

$GPRMC,134125.10,A,4437.79213,N,01057.00424,E,4.609,12.94,140422,,,A*50

$GPRMC,134125.20,A,4437.79223,N,01057.00429,E,4.647,13.49,140422,,,A*56

$GPRMC,134125.30,A,4437.79232,N,01057.00433,E,4.697,14.02,140422,,,A*59

$GPRMC,134125.40,A,4437.79241,N,01057.00434,E,4.722,12.38,140422,,,A*5D

$GPRMC,134125.50,A,4437.79249,N,01057.00438,E,4.792,11.82,140422,,,A*51

$GPGGA,134125.50,4437.79249,N,01057.00438,E,1,09,0.88,37.5,M,46.0,M,,*6A

$GPRMC,134125.60,A,4437.79258,N,01057.00442,E,4.805,12.31,140422,,,A*55

$GPRMC,134125.70,A,4437.79268,N,01057.00444,E,4.782,11.75,140422,,,A*52

$GPRMC,134125.80,A,4437.79280,N,01057.00442,E,4.888,9.27,140422,,,A*66

$GPRMC,134125.90,A,4437.79292,N,01057.00451,E,4.825,10.51,140422,,,A*58

$GPRMC,134126.00,A,4437.79308,N,01057.00462,E,5.273,13.23,140422,,,A*5E

$GPRMC,134126.10,A,4437.79322,N,01057.00475,E,5.501,16.87,140422,,,A*58

$GPRMC,134126.20,A,4437.79339,N,01057.00491,E,5.932,21.06,140422,,,A*5A

$GPRMC,134126.30,A,4437.79355,N,01057.00508,E,6.059,25.58,140422,,,A*58

$GPRMC,134126.50,A,4437.79385,N,01057.00542,E,6.441,30.57,140422,,,A*5B

$GPRMC,134126.60,A,4437.79402,N,01057.00557,E,6.477,32.33,140422,,,A*51

$GPGGA,134126.60,4437.79402,N,01057.00557,E,1,09,1.14,38.8,M,46.0,M,,*6D

$GPRMC,134126.70,A,4437.79424,N,01057.00606,E,8.070,43.87,140422,,,A*57

$GPRMC,134126.80,A,4437.79439,N,01057.00610,E,6.915,39.73,140422,,,A*51

$GPRMC,134126.90,A,4437.79457,N,01057.00628,E,6.935,40.35,140422,,,A*5D

$GPRMC,134127.00,A,4437.79476,N,01057.00646,E,6.940,39.67,140422,,,A*55

$GPRMC,134127.10,A,4437.79487,N,01057.00664,E,6.806,40.30,140422,,,A*55

$GPRMC,134127.20,A,4437.79500,N,01057.00679,E,6.351,39.53,140422,,,A*56

$GPRMC,134127.30,A,4437.79511,N,01057.00691,E,6.057,36.79,140422,,,A*53

$GPRMC,134127.40,A,4437.79529,N,01057.00714,E,6.579,40.30,140422,,,A*56

$GPRMC,134127.50,A,4437.79544,N,01057.00732,E,6.723,40.47,140422,,,A*55

$GPRMC,134127.60,A,4437.79557,N,01057.00745,E,5.744,40.95,140422,,,A*59

$GPGGA,134127.60,4437.79557,N,01057.00745,E,1,09,0.88,38.1,M,46.0,M,,*61

$GPRMC,134127.70,A,4437.79570,N,01057.00758,E,5.648,39.19,140422,,,A*56

$GPRMC,134127.80,A,4437.79585,N,01057.00771,E,5.764,36.20,140422,,,A*52

$GPRMC,134127.90,A,4437.79602,N,01057.00791,E,6.310,36.06,140422,,,A*51

$GPRMC,134128.00,A,4437.79616,N,01057.00802,E,6.223,30.47,140422,,,A*55

$GPRMC,134128.10,A,4437.79628,N,01057.00818,E,6.021,30.52,140422,,,A*56

$GPRMC,134128.20,A,4437.79644,N,01057.00833,E,6.185,30.16,140422,,,A*59

$GPRMC,134128.30,A,4437.79661,N,01057.00844,E,6.224,25.73,140422,,,A*50

$GPRMC,134128.40,A,4437.79678,N,01057.00858,E,6.582,23.53,140422,,,A*5D

$GPRMC,134128.50,A,4437.79696,N,01057.00870,E,6.737,20.51,140422,,,A*5B

$GPRMC,134128.60,A,4437.79715,N,01057.00878,E,6.686,15.85,140422,,,A*5E

$GPGGA,134128.60,4437.79715,N,01057.00878,E,1,09,0.88,38.6,M,46.0,M,,*6C

$GPRMC,134128.70,A,4437.79732,N,01057.00886,E,6.634,12.77,140422,,,A*58

$GPRMC,134128.80,A,4437.79746,N,01057.00891,E,6.206,8.36,140422,,,A*69

$GPRMC,134128.90,A,4437.79757,N,01057.00897,E,5.712,6.67,140422,,,A*67

$GPRMC,134129.00,A,4437.79772,N,01057.00906,E,5.560,6.63,140422,,,A*62

$GPRMC,134129.10,A,4437.79789,N,01057.00912,E,5.888,3.76,140422,,,A*68

$GPRMC,134129.20,A,4437.79806,N,01057.00917,E,5.896,1.80,140422,,,A*62

$GPRMC,134129.30,A,4437.79830,N,01057.00921,E,6.521,0.06,140422,,,A*6E

$GPRMC,134129.40,A,4437.79850,N,01057.00923,E,6.736,357.86,140422,,,A*60

$GPRMC,134129.50,A,4437.79870,N,01057.00921,E,6.803,352.48,140422,,,A*6F

$GPRMC,134129.60,A,4437.79892,N,01057.00919,E,6.990,349.39,140422,,,A*6C

$GPGGA,134129.60,4437.79892,N,01057.00919,E,1,09,1.06,39.2,M,46.0,M,,*69

$GPRMC,134129.70,A,4437.79912,N,01057.00914,E,6.972,345.75,140422,,,A*61

$GPRMC,134129.80,A,4437.79930,N,01057.00913,E,6.750,343.77,140422,,,A*63

$GPRMC,134129.90,A,4437.79949,N,01057.00911,E,6.728,342.59,140422,,,A*6C

$GPRMC,134130.00,A,4437.79968,N,01057.00909,E,6.879,341.73,140422,,,A*67

$GPRMC,134130.10,A,4437.79986,N,01057.00904,E,6.633,339.81,140422,,,A*69

$GPRMC,134130.20,A,4437.80006,N,01057.00899,E,6.779,338.72,140422,,,A*6A

$GPRMC,134130.30,A,4437.80026,N,01057.00894,E,6.735,338.18,140422,,,A*60

$GPRMC,134130.40,A,4437.80046,N,01057.00882,E,6.823,335.69,140422,,,A*65

$GPRMC,134130.50,A,4437.80068,N,01057.00868,E,6.942,333.40,140422,,,A*67

$GPRMC,134130.60,A,4437.80087,N,01057.00852,E,6.901,330.01,140422,,,A*6D

$GPGGA,134130.60,4437.80087,N,01057.00852,E,1,09,1.06,39.1,M,46.0,M,,*66

$GPRMC,134130.70,A,4437.80104,N,01057.00836,E,6.836,325.94,140422,,,A*69

$GPRMC,134130.80,A,4437.80123,N,01057.00822,E,7.141,326.08,140422,,,A*68

$GPRMC,134130.90,A,4437.80138,N,01057.00813,E,6.757,325.90,140422,,,A*63

$GPRMC,134131.00,A,4437.80155,N,01057.00800,E,6.977,324.25,140422,,,A*61

$GPRMC,134131.10,A,4437.80171,N,01057.00785,E,6.823,322.41,140422,,,A*60

$GPRMC,134131.20,A,4437.80186,N,01057.00773,E,6.859,321.96,140422,,,A*66

$GPRMC,134131.30,A,4437.80205,N,01057.00744,E,7.942,318.59,140422,,,A*68

$GPRMC,134131.40,A,4437.80221,N,01057.00722,E,7.808,315.09,140422,,,A*6E

$GPRMC,134131.50,A,4437.80235,N,01057.00703,E,7.766,313.20,140422,,,A*63

$GPRMC,134131.60,A,4437.80248,N,01057.00687,E,7.647,311.94,140422,,,A*68

$GPGGA,134131.60,4437.80248,N,01057.00687,E,1,09,1.06,39.4,M,46.0,M,,*65

$GPRMC,134131.70,A,4437.80261,N,01057.00670,E,7.501,311.68,140422,,,A*68

$GPRMC,134131.80,A,4437.80273,N,01057.00651,E,7.278,310.86,140422,,,A*6F

$GPRMC,134131.90,A,4437.80287,N,01057.00629,E,7.336,309.86,140422,,,A*69

$GPRMC,134132.00,A,4437.80303,N,01057.00607,E,7.520,309.73,140422,,,A*69

$GPRMC,134132.10,A,4437.80317,N,01057.00587,E,7.578,309.38,140422,,,A*64

$GPRMC,134132.20,A,4437.80330,N,01057.00566,E,7.759,308.12,140422,,,A*65

$GPRMC,134132.30,A,4437.80345,N,01057.00540,E,8.041,306.97,140422,,,A*60

$GPRMC,134132.40,A,4437.80358,N,01057.00522,E,7.913,306.79,140422,,,A*6E

$GPRMC,134132.50,A,4437.80369,N,01057.00511,E,7.564,306.94,140422,,,A*62

$GPRMC,134132.60,A,4437.80381,N,01057.00495,E,7.630,307.69,140422,,,A*6B

$GPGGA,134132.60,4437.80381,N,01057.00495,E,1,09,0.88,40.1,M,46.0,M,,*6F

$GPRMC,134132.70,A,4437.80396,N,01057.00470,E,8.059,307.19,140422,,,A*66

$GPRMC,134132.80,A,4437.80410,N,01057.00445,E,8.240,305.92,140422,,,A*6D

$GPRMC,134132.90,A,4437.80425,N,01057.00418,E,8.594,304.91,140422,,,A*6E

$GPRMC,134133.00,A,4437.80442,N,01057.00388,E,8.965,304.31,140422,,,A*61

$GPRMC,134133.10,A,4437.80457,N,01057.00365,E,8.867,305.74,140422,,,A*64

$GPRMC,134133.20,A,4437.80471,N,01057.00334,E,9.377,303.98,140422,,,A*68

$GPRMC,134133.30,A,4437.80490,N,01057.00308,E,9.329,306.61,140422,,,A*61

$GPRMC,134133.40,A,4437.80507,N,01057.00283,E,9.173,307.97,140422,,,A*6E

$GPRMC,134133.50,A,4437.80521,N,01057.00255,E,9.266,306.07,140422,,,A*6F

$GPRMC,134133.60,A,4437.80539,N,01057.00231,E,8.993,307.86,140422,,,A*6F

$GPGGA,134133.60,4437.80539,N,01057.00231,E,1,07,1.37,40.2,M,46.0,M,,*6B

$GPRMC,134133.70,A,4437.80555,N,01057.00206,E,9.017,308.66,140422,,,A*65

$GPRMC,134133.80,A,4437.80572,N,01057.00175,E,9.152,307.18,140422,,,A*6E

$GPRMC,134133.90,A,4437.80590,N,01057.00143,E,9.415,306.23,140422,,,A*69

$GPRMC,134134.00,A,4437.80608,N,01057.00115,E,9.356,306.95,140422,,,A*6B

$GPRMC,134134.10,A,4437.80625,N,01057.00085,E,9.586,306.69,140422,,,A*65

$GPRMC,134134.20,A,4437.80645,N,01057.00055,E,9.561,307.04,140422,,,A*6E

$GPRMC,134134.30,A,4437.80662,N,01057.00022,E,9.824,305.64,140422,,,A*62

$GPRMC,134134.40,A,4437.80682,N,01056.99996,E,9.620,306.87,140422,,,A*68

$GPRMC,134134.50,A,4437.80697,N,01056.99968,E,9.823,305.66,140422,,,A*6D

$GPRMC,134134.60,A,4437.80715,N,01056.99945,E,9.636,306.87,140422,,,A*6C

$GPGGA,134134.60,4437.80715,N,01056.99945,E,1,07,1.37,39.8,M,46.0,M,,*6D

$GPRMC,134134.70,A,4437.80729,N,01056.99918,E,9.684,306.01,140422,,,A*6D

$GPRMC,134134.80,A,4437.80746,N,01056.99894,E,9.391,306.56,140422,,,A*6D

$GPRMC,134134.90,A,4437.80763,N,01056.99867,E,9.493,307.04,140422,,,A*64

$GPRMC,134135.00,A,4437.80779,N,01056.99839,E,9.567,306.98,140422,,,A*62

$GPRMC,134135.10,A,4437.80797,N,01056.99811,E,9.684,307.64,140422,,,A*65

$GPRMC,134135.20,A,4437.80812,N,01056.99787,E,9.474,307.38,140422,,,A*60

$GPRMC,134135.30,A,4437.80831,N,01056.99753,E,9.930,306.98,140422,,,A*6F

$GPRMC,134135.40,A,4437.80847,N,01056.99728,E,9.696,307.18,140422,,,A*6F

$GPRMC,134135.50,A,4437.80865,N,01056.99700,E,9.744,308.13,140422,,,A*6E

$GPRMC,134135.60,A,4437.80881,N,01056.99674,E,9.653,308.61,140422,,,A*67

$GPGGA,134135.60,4437.80881,N,01056.99674,E,1,07,1.37,40.1,M,46.0,M,,*64

$GPRMC,134135.70,A,4437.80897,N,01056.99647,E,9.871,309.00,140422,,,A*69

$GPRMC,134135.80,A,4437.80914,N,01056.99615,E,9.722,307.57,140422,,,A*6E

$GPRMC,134135.90,A,4437.80929,N,01056.99599,E,9.623,308.92,140422,,,A*60

$GPRMC,134136.00,A,4437.80950,N,01056.99555,E,10.140,308.37,140422,,,A*51

$GPRMC,134136.10,A,4437.80968,N,01056.99522,E,10.160,309.36,140422,,,A*59

$GPRMC,134136.30,A,4437.81003,N,01056.99466,E,10.030,309.31,140422,,,A*5C

$GPRMC,134136.40,A,4437.81026,N,01056.99423,E,10.443,309.31,140422,,,A*5D

$GPRMC,134136.50,A,4437.81044,N,01056.99396,E,10.237,309.01,140422,,,A*57

$GPRMC,134136.60,A,4437.81065,N,01056.99368,E,10.582,310.59,140422,,,A*5A

$GPRMC,134136.70,A,4437.81086,N,01056.99335,E,10.487,309.90,140422,,,A*57

$GPGGA,134136.70,4437.81086,N,01056.99335,E,1,07,1.37,40.1,M,46.0,M,,*68

$GPRMC,134136.80,A,4437.81111,N,01056.99292,E,10.742,309.87,140422,,,A*57

$GPRMC,134136.90,A,4437.81132,N,01056.99261,E,10.692,310.28,140422,,,A*5A

$GPRMC,134137.00,A,4437.81151,N,01056.99228,E,10.834,309.42,140422,,,A*5C

$GPRMC,134137.10,A,4437.81171,N,01056.99204,E,10.722,310.53,140422,,,A*51

$GPRMC,134137.30,A,4437.81210,N,01056.99145,E,10.908,310.15,140422,,,A*55

$GPRMC,134137.40,A,4437.81228,N,01056.99123,E,10.565,311.12,140422,,,A*58

$GPRMC,134137.50,A,4437.81248,N,01056.99101,E,10.438,312.34,140422,,,A*51

$GPRMC,134137.60,A,4437.81265,N,01056.99075,E,10.428,311.74,140422,,,A*59

$GPRMC,134137.70,A,4437.81283,N,01056.99052,E,10.371,311.29,140422,,,A*56

$GPRMC,134137.80,A,4437.81301,N,01056.99023,E,10.329,311.00,140422,,,A*52

$GPGGA,134137.80,4437.81301,N,01056.99023,E,1,07,1.37,40.4,M,46.0,M,,*6B

$GPRMC,134137.90,A,4437.81321,N,01056.98987,E,10.681,310.43,140422,,,A*56

$GPRMC,134138.00,A,4437.81341,N,01056.98960,E,10.587,310.72,140422,,,A*58

$GPRMC,134138.10,A,4437.81360,N,01056.98921,E,10.995,309.12,140422,,,A*5E

$GPRMC,134138.20,A,4437.81378,N,01056.98899,E,10.587,310.38,140422,,,A*59

$GPRMC,134138.30,A,4437.81397,N,01056.98870,E,10.824,310.97,140422,,,A*5F

$GPRMC,134138.40,A,4437.81417,N,01056.98840,E,10.901,311.54,140422,,,A*5C

$GPRMC,134138.50,A,4437.81435,N,01056.98820,E,10.727,312.43,140422,,,A*54

$GPRMC,134138.60,A,4437.81452,N,01056.98791,E,10.732,311.90,140422,,,A*5A

$GPRMC,134138.70,A,4437.81470,N,01056.98758,E,10.883,311.19,140422,,,A*5A

$GPRMC,134138.80,A,4437.81489,N,01056.98729,E,10.911,311.14,140422,,,A*52

$GPGGA,134138.80,4437.81489,N,01056.98729,E,1,07,1.37,41.1,M,46.0,M,,*6B

$GPRMC,134138.90,A,4437.81508,N,01056.98703,E,10.861,311.31,140422,,,A*52

$GPRMC,134139.00,A,4437.81523,N,01056.98673,E,10.814,309.75,140422,,,A*5E

$GPRMC,134139.10,A,4437.81537,N,01056.98657,E,10.687,309.36,140422,,,A*5F

$GPRMC,134139.20,A,4437.81560,N,01056.98637,E,10.522,311.98,140422,,,A*59

$GPRMC,134139.30,A,4437.81578,N,01056.98604,E,10.505,311.15,140422,,,A*51

$GPRMC,134139.40,A,4437.81592,N,01056.98586,E,10.284,310.22,140422,,,A*50

$GPRMC,134139.50,A,4437.81607,N,01056.98567,E,10.203,310.40,140422,,,A*5A

$GPRMC,134139.60,A,4437.81622,N,01056.98554,E,9.951,310.89,140422,,,A*6F

$GPRMC,134139.70,A,4437.81635,N,01056.98545,E,9.754,311.36,140422,,,A*66

$GPRMC,134139.80,A,4437.81653,N,01056.98526,E,9.734,312.31,140422,,,A*6E

$GPGGA,134139.80,4437.81653,N,01056.98526,E,1,07,1.37,42.8,M,46.0,M,,*68

$GPRMC,134139.90,A,4437.81670,N,01056.98500,E,9.785,312.20,140422,,,A*60

$GPRMC,134140.00,A,4437.81686,N,01056.98460,E,10.028,309.05,140422,,,A*5C

$GPRMC,134140.10,A,4437.81702,N,01056.98431,E,10.162,308.32,140422,,,A*5E

$GPRMC,134140.20,A,4437.81732,N,01056.98352,E,10.995,309.04,140422,,,A*58

$GPRMC,134140.30,A,4437.81754,N,01056.98300,E,11.204,308.27,140422,,,A*5C

$GPRMC,134140.40,A,4437.81779,N,01056.98245,E,11.641,308.55,140422,,,A*54

$GPRMC,134140.50,A,4437.81800,N,01056.98207,E,11.597,308.89,140422,,,A*5B

$GPRMC,134140.60,A,4437.81821,N,01056.98169,E,11.636,308.76,140422,,,A*58

$GPRMC,134140.70,A,4437.81844,N,01056.98122,E,11.613,308.47,140422,,,A*50

$GPRMC,134140.80,A,4437.81862,N,01056.98088,E,11.661,308.10,140422,,,A*5D

$GPGGA,134140.80,4437.81862,N,01056.98088,E,1,08,1.06,42.1,M,46.0,M,,*6F

$GPRMC,134140.90,A,4437.81883,N,01056.98042,E,11.961,308.00,140422,,,A*5B

$GPRMC,134141.00,A,4437.81908,N,01056.97975,E,12.552,305.84,140422,,,A*5D

$GPRMC,134141.10,A,4437.81927,N,01056.97942,E,12.130,305.79,140422,,,A*57

$GPRMC,134141.20,A,4437.81942,N,01056.97907,E,12.329,303.60,140422,,,A*52

$GPRMC,134141.30,A,4437.81958,N,01056.97867,E,12.236,301.12,140422,,,A*57

$GPRMC,134141.40,A,4437.81974,N,01056.97837,E,11.863,301.29,140422,,,A*5A

$GPRMC,134141.50,A,4437.81990,N,01056.97804,E,11.474,300.51,140422,,,A*55

$GPRMC,134141.60,A,4437.82006,N,01056.97767,E,11.374,300.06,140422,,,A*5C

$GPRMC,134141.70,A,4437.82017,N,01056.97746,E,10.950,299.25,140422,,,A*53

$GPRMC,134141.80,A,4437.82021,N,01056.97737,E,10.133,294.95,140422,,,A*54

$GPGGA,134141.80,4437.82021,N,01056.97737,E,1,08,0.94,42.5,M,46.0,M,,*60

$GPRMC,134141.90,A,4437.82034,N,01056.97708,E,9.762,295.14,140422,,,A*6F

$GPRMC,134142.00,A,4437.82046,N,01056.97669,E,9.663,293.76,140422,,,A*64

$GPRMC,134142.10,A,4437.82061,N,01056.97629,E,9.652,294.18,140422,,,A*69

$GPRMC,134142.30,A,4437.82081,N,01056.97563,E,8.378,292.03,140422,,,A*68

$GPRMC,134142.40,A,4437.82097,N,01056.97520,E,8.550,291.83,140422,,,A*68

$GPRMC,134142.50,A,4437.82107,N,01056.97489,E,8.409,291.08,140422,,,A*6D

$GPRMC,134142.60,A,4437.82119,N,01056.97451,E,8.266,290.16,140422,,,A*65

$GPRMC,134142.70,A,4437.82129,N,01056.97419,E,8.389,289.01,140422,,,A*65

$GPRMC,134142.90,A,4437.82146,N,01056.97345,E,8.539,285.39,140422,,,A*66

$GPRMC,134143.00,A,4437.82152,N,01056.97292,E,9.337,281.59,140422,,,A*6B

$GPGGA,134143.00,4437.82152,N,01056.97292,E,1,08,0.94,41.2,M,46.0,M,,*61

$GPRMC,134143.10,A,4437.82156,N,01056.97257,E,8.878,278.97,140422,,,A*62

$GPRMC,134143.20,A,4437.82154,N,01056.97225,E,8.965,274.42,140422,,,A*6F

$GPRMC,134143.30,A,4437.82154,N,01056.97195,E,8.498,271.86,140422,,,A*64

$GPRMC,134143.40,A,4437.82155,N,01056.97162,E,8.378,270.47,140422,,,A*6F

$GPRMC,134143.50,A,4437.82151,N,01056.97133,E,8.487,267.60,140422,,,A*6A

$GPRMC,134143.60,A,4437.82150,N,01056.97105,E,8.155,266.63,140422,,,A*65

$GPRMC,134143.70,A,4437.82150,N,01056.97075,E,7.835,266.39,140422,,,A*6D

$GPRMC,134143.80,A,4437.82148,N,01056.97044,E,7.796,265.34,140422,,,A*61

$GPRMC,134143.90,A,4437.82144,N,01056.97017,E,7.675,263.62,140422,,,A*63

$GPRMC,134144.00,A,4437.82138,N,01056.96988,E,7.448,260.22,140422,,,A*63

$GPGGA,134144.00,4437.82138,N,01056.96988,E,1,08,1.06,40.8,M,46.0,M,,*6A

$GPRMC,134144.10,A,4437.82129,N,01056.96968,E,6.720,255.28,140422,,,A*6C

$GPRMC,134144.30,A,4437.82114,N,01056.96924,E,6.149,252.57,140422,,,A*6E

$GPRMC,134144.40,A,4437.82107,N,01056.96908,E,5.515,247.79,140422,,,A*63

$GPRMC,134144.50,A,4437.82093,N,01056.96901,E,5.030,239.47,140422,,,A*61

$GPRMC,134144.60,A,4437.82083,N,01056.96888,E,5.100,233.45,140422,,,A*69

$GPRMC,134144.70,A,4437.82069,N,01056.96878,E,5.187,228.14,140422,,,A*62

$GPRMC,134144.80,A,4437.82060,N,01056.96873,E,4.313,221.71,140422,,,A*6B

$GPRMC,134144.90,A,4437.82052,N,01056.96855,E,4.619,219.44,140422,,,A*6D

$GPRMC,134145.00,A,4437.82045,N,01056.96841,E,4.462,218.33,140422,,,A*69

$GPRMC,134145.10,A,4437.82036,N,01056.96826,E,4.681,216.09,140422,,,A*65

$GPGGA,134145.10,4437.82036,N,01056.96826,E,1,09,0.88,40.5,M,46.0,M,,*6B

$GPRMC,134145.30,A,4437.82021,N,01056.96806,E,3.774,211.22,140422,,,A*61

$GPRMC,134145.40,A,4437.82016,N,01056.96782,E,4.160,214.33,140422,,,A*60

$GPRMC,134145.50,A,4437.82009,N,01056.96771,E,3.872,210.15,140422,,,A*6E

$GPRMC,134145.60,A,4437.82004,N,01056.96755,E,3.646,202.08,140422,,,A*60

$GPRMC,134145.70,A,4437.82003,N,01056.96738,E,3.370,203.55,140422,,,A*64

$GPRMC,134145.80,A,4437.81997,N,01056.96729,E,3.348,196.28,140422,,,A*62

$GPRMC,134145.90,A,4437.82000,N,01056.96714,E,2.794,196.75,140422,,,A*65

$GPRMC,134146.00,A,4437.82019,N,01056.96713,E,0.502,,140422,,,A*7D

$GPRMC,134146.10,A,4437.82029,N,01056.96705,E,0.541,,140422,,,A*7F

$GPRMC,134146.20,A,4437.82037,N,01056.96695,E,0.836,208.03,140422,,,A*61

$GPGGA,134146.20,4437.82037,N,01056.96695,E,1,09,0.88,40.8,M,46.0,M,,*61

$GPRMC,134146.30,A,4437.82046,N,01056.96678,E,1.066,278.01,140422,,,A*6C

$GPRMC,134146.40,A,4437.82061,N,01056.96648,E,2.790,302.27,140422,,,A*68

$GPRMC,134146.50,A,4437.82072,N,01056.96627,E,2.707,306.02,140422,,,A*6F

$GPRMC,134146.60,A,4437.82082,N,01056.96616,E,2.490,311.42,140422,,,A*6E

$GPRMC,134146.70,A,4437.82091,N,01056.96604,E,2.297,314.46,140422,,,A*6E

$GPRMC,134146.80,A,4437.82098,N,01056.96597,E,2.011,312.96,140422,,,A*66

$GPRMC,134146.90,A,4437.82101,N,01056.96586,E,2.073,302.01,140422,,,A*6D

$GPRMC,134147.00,A,4437.82106,N,01056.96571,E,2.111,289.54,140422,,,A*6D

$GPRMC,134147.10,A,4437.82107,N,01056.96559,E,1.925,279.05,140422,,,A*60

$GPRMC,134147.20,A,4437.82110,N,01056.96530,E,3.563,267.21,140422,,,A*6F

$GPGGA,134147.20,4437.82110,N,01056.96530,E,1,09,0.88,42.4,M,46.0,M,,*66

$GPRMC,134147.30,A,4437.82117,N,01056.96504,E,4.130,269.26,140422,,,A*62

$GPRMC,134147.40,A,4437.82126,N,01056.96486,E,3.661,276.69,140422,,,A*6D

$GPRMC,134147.50,A,4437.82129,N,01056.96460,E,4.383,275.71,140422,,,A*6F

$GPRMC,134147.60,A,4437.82130,N,01056.96430,E,4.543,271.73,140422,,,A*6D

$GPRMC,134147.70,A,4437.82130,N,01056.96404,E,4.494,267.70,140422,,,A*64

$GPRMC,134147.80,A,4437.82131,N,01056.96385,E,4.057,265.75,140422,,,A*68

$GPRMC,134147.90,A,4437.82132,N,01056.96369,E,3.574,264.23,140422,,,A*69

$GPRMC,134148.00,A,4437.82136,N,01056.96353,E,3.301,264.77,140422,,,A*67

$GPRMC,134148.10,A,4437.82137,N,01056.96338,E,3.486,263.10,140422,,,A*64

$GPRMC,134148.20,A,4437.82135,N,01056.96324,E,3.518,258.70,140422,,,A*60

$GPGGA,134148.20,4437.82135,N,01056.96324,E,1,08,0.95,43.9,M,46.0,M,,*6C

$GPRMC,134148.30,A,4437.82134,N,01056.96309,E,3.481,254.93,140422,,,A*6F

$GPRMC,134148.40,A,4437.82132,N,01056.96296,E,3.395,250.56,140422,,,A*66

$GPRMC,134148.50,A,4437.82130,N,01056.96277,E,3.974,248.54,140422,,,A*64

$GPRMC,134148.60,A,4437.82125,N,01056.96262,E,3.965,243.90,140422,,,A*64

$GPRMC,134148.70,A,4437.82125,N,01056.96247,E,3.816,243.78,140422,,,A*61

$GPRMC,134148.80,A,4437.82122,N,01056.96232,E,3.906,243.02,140422,,,A*66

$GPRMC,134148.90,A,4437.82110,N,01056.96221,E,4.412,233.48,140422,,,A*62

$GPRMC,134149.00,A,4437.82108,N,01056.96206,E,4.207,233.91,140422,,,A*60

$GPRMC,134149.10,A,4437.82097,N,01056.96192,E,4.226,230.66,140422,,,A*60

$GPRMC,134149.20,A,4437.82095,N,01056.96171,E,4.707,234.94,140422,,,A*63

$GPGGA,134149.20,4437.82095,N,01056.96171,E,1,07,1.18,46.0,M,46.0,M,,*63

$GPRMC,134149.30,A,4437.82082,N,01056.96155,E,5.329,232.19,140422,,,A*68

$GPRMC,134149.40,A,4437.82074,N,01056.96130,E,5.804,233.03,140422,,,A*6B

$GPRMC,134149.50,A,4437.82064,N,01056.96108,E,5.681,232.40,140422,,,A*65

$GPRMC,134149.60,A,4437.82050,N,01056.96082,E,6.124,232.23,140422,,,A*6C

$GPRMC,134149.70,A,4437.82031,N,01056.96056,E,6.798,230.69,140422,,,A*6E

$GPRMC,134149.80,A,4437.82018,N,01056.96029,E,7.138,231.60,140422,,,A*67

$GPRMC,134149.90,A,4437.82003,N,01056.96004,E,7.544,231.23,140422,,,A*6B

$GPRMC,134150.00,A,4437.81986,N,01056.95976,E,7.788,229.21,140422,,,A*6B

$GPRMC,134150.10,A,4437.81959,N,01056.95950,E,8.197,224.74,140422,,,A*66

$GPRMC,134150.20,A,4437.81945,N,01056.95925,E,7.966,223.35,140422,,,A*61

$GPGGA,134150.20,4437.81945,N,01056.95925,E,1,07,1.18,46.2,M,46.0,M,,*64

$GPRMC,134150.30,A,4437.81922,N,01056.95895,E,8.543,222.69,140422,,,A*67

$GPRMC,134150.40,A,4437.81899,N,01056.95873,E,8.431,219.61,140422,,,A*6D

$GPRMC,134150.50,A,4437.81882,N,01056.95852,E,8.149,218.17,140422,,,A*6F

$GPRMC,134150.60,A,4437.81866,N,01056.95830,E,8.221,218.75,140422,,,A*6B

$GPRMC,134150.70,A,4437.81852,N,01056.95809,E,7.969,219.48,140422,,,A*60

$GPRMC,134150.80,A,4437.81838,N,01056.95788,E,7.829,220.19,140422,,,A*6E

$GPRMC,134150.90,A,4437.81824,N,01056.95766,E,7.775,221.18,140422,,,A*64

$GPRMC,134151.00,A,4437.81811,N,01056.95744,E,7.746,222.17,140422,,,A*66

$GPRMC,134151.10,A,4437.81796,N,01056.95725,E,7.670,221.59,140422,,,A*6D

$GPRMC,134151.20,A,4437.81780,N,01056.95707,E,7.522,219.99,140422,,,A*6A

$GPGGA,134151.20,4437.81780,N,01056.95707,E,1,07,1.18,46.9,M,46.0,M,,*67

$GPRMC,134151.30,A,4437.81754,N,01056.95677,E,8.405,222.19,140422,,,A*6F

$GPRMC,134151.40,A,4437.81733,N,01056.95651,E,8.783,223.85,140422,,,A*64

$GPRMC,134151.50,A,4437.81713,N,01056.95626,E,9.046,223.44,140422,,,A*65

$GPRMC,134151.60,A,4437.81697,N,01056.95602,E,8.842,223.82,140422,,,A*6A

$GPRMC,134151.70,A,4437.81676,N,01056.95578,E,9.040,222.52,140422,,,A*6D

$GPRMC,134151.80,A,4437.81662,N,01056.95552,E,8.857,223.39,140422,,,A*6C

$GPRMC,134151.90,A,4437.81642,N,01056.95530,E,8.803,222.27,140422,,,A*64

$GPRMC,134152.00,A,4437.81627,N,01056.95503,E,8.976,223.58,140422,,,A*67

$GPRMC,134152.10,A,4437.81611,N,01056.95480,E,8.896,223.13,140422,,,A*69

$GPRMC,134152.20,A,4437.81598,N,01056.95458,E,8.560,223.16,140422,,,A*6C

$GPGGA,134152.20,4437.81598,N,01056.95458,E,1,07,1.18,47.5,M,46.0,M,,*6B

$GPRMC,134152.30,A,4437.81584,N,01056.95433,E,8.537,223.34,140422,,,A*6F

$GPRMC,134152.40,A,4437.81565,N,01056.95406,E,8.912,223.43,140422,,,A*6A

$GPRMC,134152.50,A,4437.81549,N,01056.95380,E,8.883,223.80,140422,,,A*6A

$GPRMC,134152.60,A,4437.81533,N,01056.95355,E,8.863,224.14,140422,,,A*68

$GPRMC,134152.70,A,4437.81514,N,01056.95323,E,9.286,226.31,140422,,,A*68

$GPRMC,134152.80,A,4437.81497,N,01056.95294,E,9.227,227.09,140422,,,A*61

$GPRMC,134152.90,A,4437.81480,N,01056.95265,E,9.320,228.03,140422,,,A*6B

$GPRMC,134153.00,A,4437.81460,N,01056.95234,E,9.447,228.81,140422,,,A*65

$GPRMC,134153.10,A,4437.81437,N,01056.95206,E,9.484,228.45,140422,,,A*60

$GPRMC,134153.20,A,4437.81401,N,01056.95179,E,9.859,225.40,140422,,,A*69

$GPGGA,134153.20,4437.81401,N,01056.95179,E,1,07,1.10,47.6,M,46.0,M,,*66

$GPRMC,134153.30,A,4437.81379,N,01056.95150,E,9.802,225.09,140422,,,A*68

$GPRMC,134153.40,A,4437.81348,N,01056.95121,E,10.206,223.91,140422,,,A*5A

$GPRMC,134153.50,A,4437.81321,N,01056.95093,E,10.283,222.64,140422,,,A*5A

$GPRMC,134153.60,A,4437.81293,N,01056.95063,E,10.509,221.97,140422,,,A*54

$GPRMC,134153.70,A,4437.81259,N,01056.95032,E,11.081,221.31,140422,,,A*5F

$GPRMC,134153.80,A,4437.81224,N,01056.95006,E,11.069,218.60,140422,,,A*55

$GPRMC,134153.90,A,4437.81195,N,01056.94979,E,10.971,217.82,140422,,,A*5F

$GPRMC,134154.00,A,4437.81170,N,01056.94949,E,11.151,218.62,140422,,,A*53

$GPRMC,134154.20,A,4437.81118,N,01056.94897,E,11.145,217.20,140422,,,A*51

$GPRMC,134154.30,A,4437.81088,N,01056.94872,E,11.349,215.50,140422,,,A*58

$GPGGA,134154.30,4437.81088,N,01056.94872,E,1,08,0.99,46.1,M,46.0,M,,*6F

$GPRMC,134154.40,A,4437.81059,N,01056.94842,E,11.725,216.16,140422,,,A*5F

$GPRMC,134154.50,A,4437.81033,N,01056.94815,E,11.449,216.49,140422,,,A*53

$GPRMC,134154.60,A,4437.81005,N,01056.94790,E,11.330,216.05,140422,,,A*56

$GPRMC,134154.70,A,4437.80979,N,01056.94762,E,11.441,216.62,140422,,,A*59

$GPRMC,134154.80,A,4437.80955,N,01056.94736,E,11.203,216.42,140422,,,A*5B

$GPRMC,134154.90,A,4437.80930,N,01056.94710,E,11.290,216.54,140422,,,A*50

$GPRMC,134155.00,A,4437.80906,N,01056.94682,E,11.355,217.55,140422,,,A*5F

$GPRMC,134155.10,A,4437.80881,N,01056.94656,E,11.348,217.64,140422,,,A*57

$GPRMC,134155.20,A,4437.80857,N,01056.94630,E,11.342,217.85,140422,,,A*5A

$GPRMC,134155.30,A,4437.80834,N,01056.94605,E,11.257,217.51,140422,,,A*54

$GPGGA,134155.30,4437.80834,N,01056.94605,E,1,08,0.99,46.5,M,46.0,M,,*6A

$GPRMC,134155.40,A,4437.80812,N,01056.94579,E,10.922,217.42,140422,,,A*55

$GPRMC,134155.50,A,4437.80788,N,01056.94555,E,10.869,217.06,140422,,,A*58

$GPRMC,134155.60,A,4437.80764,N,01056.94529,E,10.911,217.35,140422,,,A*5C

$GPRMC,134155.70,A,4437.80739,N,01056.94503,E,11.013,217.94,140422,,,A*5C

$GPRMC,134155.80,A,4437.80703,N,01056.94476,E,11.622,215.51,140422,,,A*56

$GPRMC,134155.90,A,4437.80676,N,01056.94450,E,11.538,214.83,140422,,,A*56

$GPRMC,134156.00,A,4437.80647,N,01056.94421,E,11.870,215.03,140422,,,A*50

$GPRMC,134156.10,A,4437.80618,N,01056.94391,E,12.028,215.40,140422,,,A*56

$GPRMC,134156.20,A,4437.80591,N,01056.94365,E,11.839,214.64,140422,,,A*50

$GPRMC,134156.30,A,4437.80568,N,01056.94339,E,11.262,216.31,140422,,,A*58

$GPGGA,134156.30,4437.80568,N,01056.94339,E,1,08,1.29,46.4,M,46.0,M,,*6C

$GPRMC,134156.40,A,4437.80542,N,01056.94311,E,11.677,216.69,140422,,,A*50

$GPRMC,134156.50,A,4437.80517,N,01056.94285,E,11.462,216.76,140422,,,A*55

$GPRMC,134156.60,A,4437.80493,N,01056.94256,E,11.510,217.57,140422,,,A*53

$GPRMC,134156.70,A,4437.80465,N,01056.94229,E,11.866,216.81,140422,,,A*55

$GPRMC,134156.80,A,4437.80438,N,01056.94200,E,11.917,216.31,140422,,,A*55

$GPRMC,134156.90,A,4437.80413,N,01056.94174,E,11.892,216.17,140422,,,A*55

$GPRMC,134157.00,A,4437.80388,N,01056.94146,E,11.869,216.74,140422,,,A*58

$GPRMC,134157.10,A,4437.80362,N,01056.94117,E,11.875,217.07,140422,,,A*51

$GPRMC,134157.20,A,4437.80333,N,01056.94086,E,12.195,217.40,140422,,,A*58

$GPRMC,134157.30,A,4437.80305,N,01056.94056,E,12.210,217.39,140422,,,A*51

$GPGGA,134157.30,4437.80305,N,01056.94056,E,1,07,1.29,46.3,M,46.0,M,,*62

$GPRMC,134157.40,A,4437.80275,N,01056.94026,E,12.406,216.95,140422,,,A*51

$GPRMC,134157.50,A,4437.80246,N,01056.94003,E,12.233,215.99,140422,,,A*58

$GPRMC,134157.60,A,4437.80219,N,01056.93974,E,12.092,216.20,140422,,,A*57

$GPRMC,134157.70,A,4437.80189,N,01056.93944,E,12.601,216.48,140422,,,A*5D

$GPRMC,134157.80,A,4437.80161,N,01056.93917,E,12.214,216.24,140422,,,A*58

$GPRMC,134157.90,A,4437.80132,N,01056.93891,E,12.228,215.67,140422,,,A*5B

$GPRMC,134158.00,A,4437.80103,N,01056.93860,E,12.493,215.86,140422,,,A*58

$GPRMC,134158.10,A,4437.80073,N,01056.93835,E,12.473,215.15,140422,,,A*5B

$GPRMC,134158.30,A,4437.80018,N,01056.93787,E,12.032,214.06,140422,,,A*50

$GPRMC,134158.40,A,4437.79990,N,01056.93761,E,12.287,213.97,140422,,,A*53

$GPGGA,134158.40,4437.79990,N,01056.93761,E,1,07,1.29,46.2,M,46.0,M,,*6F

$GPRMC,134158.50,A,4437.79963,N,01056.93741,E,12.010,213.50,140422,,,A*5B

$GPRMC,134158.60,A,4437.79937,N,01056.93720,E,11.880,213.27,140422,,,A*5C

$GPRMC,134158.70,A,4437.79906,N,01056.93696,E,12.117,212.61,140422,,,A*54

$GPRMC,134158.80,A,4437.79880,N,01056.93669,E,11.935,213.23,140422,,,A*58

$GPRMC,134158.90,A,4437.79851,N,01056.93644,E,11.977,213.41,140422,,,A*58

$GPRMC,134159.00,A,4437.79820,N,01056.93622,E,12.036,212.20,140422,,,A*5F

$GPRMC,134159.10,A,4437.79795,N,01056.93594,E,11.956,213.54,140422,,,A*5F

$GPRMC,134159.20,A,4437.79766,N,01056.93571,E,12.163,213.56,140422,,,A*54

$GPRMC,134159.30,A,4437.79740,N,01056.93544,E,11.931,213.73,140422,,,A*5C

$GPRMC,134159.40,A,4437.79715,N,01056.93519,E,11.954,214.59,140422,,,A*5F

$GPGGA,134159.40,4437.79715,N,01056.93519,E,1,06,1.32,46.5,M,46.0,M,,*6C

$GPRMC,134159.50,A,4437.79685,N,01056.93500,E,12.054,213.53,140422,,,A*59

$GPRMC,134159.60,A,4437.79655,N,01056.93471,E,12.180,213.52,140422,,,A*59

$GPRMC,134159.70,A,4437.79627,N,01056.93446,E,12.102,213.86,140422,,,A*5A

$GPRMC,134159.80,A,4437.79602,N,01056.93435,E,11.645,212.49,140422,,,A*53

$GPRMC,134159.90,A,4437.79579,N,01056.93415,E,11.708,212.54,140422,,,A*5B

$GPRMC,134200.00,A,4437.79555,N,01056.93404,E,11.380,211.82,140422,,,A*5F

$GPRMC,134200.10,A,4437.79532,N,01056.93389,E,11.519,211.38,140422,,,A*5A

$GPRMC,134200.20,A,4437.79513,N,01056.93372,E,11.328,211.84,140422,,,A*5D

$GPRMC,134200.30,A,4437.79495,N,01056.93375,E,10.633,209.78,140422,,,A*50

$GPRMC,134200.40,A,4437.79482,N,01056.93373,E,10.218,208.99,140422,,,A*54

$GPGGA,134200.40,4437.79482,N,01056.93373,E,1,07,1.00,48.6,M,46.0,M,,*69

$GPRMC,134200.50,A,4437.79473,N,01056.93373,E,9.265,208.61,140422,,,A*6E

$GPRMC,134200.60,A,4437.79461,N,01056.93388,E,8.587,205.13,140422,,,A*68

$GPRMC,134200.70,A,4437.79452,N,01056.93389,E,7.893,203.32,140422,,,A*6A

$GPRMC,134200.80,A,4437.79444,N,01056.93387,E,7.095,202.95,140422,,,A*6E

$GPRMC,134200.90,A,4437.79433,N,01056.93396,E,6.759,200.53,140422,,,A*61

$GPRMC,134201.00,A,4437.79426,N,01056.93405,E,6.269,197.59,140422,,,A*61

$GPRMC,134201.10,A,4437.79426,N,01056.93414,E,5.544,196.26,140422,,,A*62

$GPRMC,134201.20,A,4437.79463,N,01056.93458,E,2.724,194.81,140422,,,A*64

$GPRMC,134201.30,A,4437.79457,N,01056.93474,E,3.155,184.86,140422,,,A*6B

$GPRMC,134201.40,A,4437.79450,N,01056.93482,E,3.537,179.20,140422,,,A*6C

$GPGGA,134201.40,4437.79450,N,01056.93482,E,1,07,1.00,53.3,M,46.0,M,,*61

$GPRMC,134201.50,A,4437.79446,N,01056.93489,E,3.385,177.11,140422,,,A*62

$GPRMC,134201.60,A,4437.79445,N,01056.93508,E,3.749,172.33,140422,,,A*6B

$GPRMC,134201.70,A,4437.79449,N,01056.93514,E,2.987,171.92,140422,,,A*6E

$GPRMC,134201.80,A,4437.79451,N,01056.93511,E,2.474,176.16,140422,,,A*67

$GPRMC,134201.90,A,4437.79447,N,01056.93516,E,2.938,179.55,140422,,,A*6B

$GPRMC,134202.00,A,4437.79439,N,01056.93512,E,3.485,184.13,140422,,,A*66

$GPRMC,134202.10,A,4437.79438,N,01056.93485,E,4.668,200.17,140422,,,A*64

$GPRMC,134202.20,A,4437.79438,N,01056.93470,E,4.995,208.62,140422,,,A*6A

$GPRMC,134202.30,A,4437.79437,N,01056.93468,E,5.173,211.29,140422,,,A*6B

$GPRMC,134202.40,A,4437.79437,N,01056.93452,E,5.458,216.84,140422,,,A*69

$GPGGA,134202.40,4437.79437,N,01056.93452,E,1,08,0.99,60.1,M,46.0,M,,*62

$GPRMC,134202.50,A,4437.79433,N,01056.93438,E,5.657,220.75,140422,,,A*66

$GPRMC,134202.60,A,4437.79423,N,01056.93433,E,5.905,219.42,140422,,,A*69

$GPRMC,134202.70,A,4437.79420,N,01056.93421,E,5.911,220.40,140422,,,A*65

$GPRMC,134202.80,A,4437.79413,N,01056.93407,E,5.891,222.27,140422,,,A*64

$GPRMC,134202.90,A,4437.79403,N,01056.93394,E,6.043,222.29,140422,,,A*63

$GPRMC,134203.00,A,4437.79401,N,01056.93376,E,6.029,225.27,140422,,,A*60

$GPRMC,134203.10,A,4437.79398,N,01056.93365,E,5.890,227.33,140422,,,A*6A

$GPRMC,134203.20,A,4437.79400,N,01056.93343,E,5.755,232.58,140422,,,A*64

$GPRMC,134203.30,A,4437.79404,N,01056.93318,E,5.728,241.05,140422,,,A*69

$GPRMC,134203.40,A,4437.79402,N,01056.93296,E,5.793,245.99,140422,,,A*6E

$GPGGA,134203.40,4437.79402,N,01056.93296,E,1,07,1.10,65.7,M,46.0,M,,*67

$GPRMC,134203.50,A,4437.79398,N,01056.93275,E,5.684,249.10,140422,,,A*6C

$GPRMC,134203.60,A,4437.79394,N,01056.93254,E,5.839,250.12,140422,,,A*62

$GPRMC,134203.70,A,4437.79389,N,01056.93227,E,6.346,250.43,140422,,,A*6F

$GPRMC,134203.80,A,4437.79380,N,01056.93205,E,6.540,249.22,140422,,,A*66

$GPRMC,134203.90,A,4437.79366,N,01056.93181,E,6.950,245.78,140422,,,A*6E

$GPRMC,134204.00,A,4437.79356,N,01056.93168,E,6.846,242.66,140422,,,A*6A

$GPRMC,134204.10,A,4437.79360,N,01056.93157,E,6.109,243.08,140422,,,A*69

$GPRMC,134204.20,A,4437.79369,N,01056.93144,E,5.810,245.81,140422,,,A*64

$GPRMC,134204.30,A,4437.79371,N,01056.93137,E,5.508,246.86,140422,,,A*68

$GPRMC,134204.40,A,4437.79364,N,01056.93138,E,4.900,244.68,140422,,,A*63

$GPGGA,134204.40,4437.79364,N,01056.93138,E,1,07,0.94,71.2,M,46.0,M,,*6D

$GPRMC,134204.50,A,4437.79364,N,01056.93132,E,4.643,243.16,140422,,,A*6E

$GPRMC,134204.60,A,4437.79376,N,01056.93126,E,4.180,245.64,140422,,,A*60

$GPRMC,134204.70,A,4437.79381,N,01056.93121,E,3.893,248.40,140422,,,A*69

$GPRMC,134204.80,A,4437.79383,N,01056.93116,E,3.809,248.79,140422,,,A*69

$GPRMC,134204.90,A,4437.79375,N,01056.93119,E,3.527,245.51,140422,,,A*68

$GPRMC,134205.00,A,4437.79370,N,01056.93124,E,3.142,241.36,140422,,,A*69

$GPRMC,134205.10,A,4437.79363,N,01056.93130,E,2.808,235.63,140422,,,A*6A

$GPRMC,134205.20,A,4437.79356,N,01056.93119,E,2.938,231.55,140422,,,A*67

$GPRMC,134205.30,A,4437.79355,N,01056.93101,E,3.220,232.43,140422,,,A*6B

$GPRMC,134205.40,A,4437.79342,N,01056.93102,E,3.555,226.90,140422,,,A*67

$GPGGA,134205.40,4437.79342,N,01056.93102,E,1,06,1.36,77.2,M,46.0,M,,*6F

$GPRMC,134205.50,A,4437.79337,N,01056.93093,E,3.546,225.31,140422,,,A*67

$GPRMC,134205.60,A,4437.79332,N,01056.93087,E,3.495,224.31,140422,,,A*6A

$GPRMC,134205.70,A,4437.79332,N,01056.93080,E,3.213,224.93,140422,,,A*6C

$GPRMC,134205.80,A,4437.79336,N,01056.93075,E,2.791,227.16,140422,,,A*6D

$GPRMC,134205.90,A,4437.79340,N,01056.93069,E,2.487,230.90,140422,,,A*6C

$GPRMC,134206.00,A,4437.79320,N,01056.93066,E,2.835,226.41,140422,,,A*61

$GPRMC,134206.10,A,4437.79308,N,01056.93057,E,2.950,223.94,140422,,,A*67

$GPRMC,134206.20,A,4437.79296,N,01056.93048,E,3.110,221.67,140422,,,A*6F

$GPRMC,134206.30,A,4437.79277,N,01056.93044,E,3.380,217.06,140422,,,A*64

$GPRMC,134206.40,A,4437.79254,N,01056.93047,E,3.307,210.24,140422,,,A*69

$GPGGA,134206.40,4437.79254,N,01056.93047,E,1,07,1.11,81.7,M,46.0,M,,*62

$GPRMC,134206.50,A,4437.79224,N,01056.93054,E,3.309,199.79,140422,,,A*69

$GPRMC,134206.60,A,4437.79184,N,01056.93078,E,4.130,182.54,140422,,,A*67

$GPRMC,134206.70,A,4437.79083,N,01056.93129,E,7.614,165.27,140422,,,A*6A

$GPRMC,134206.80,A,4437.79047,N,01056.93144,E,7.590,161.24,140422,,,A*6E

$GPRMC,134206.90,A,4437.79014,N,01056.93166,E,7.862,157.87,140422,,,A*65

$GPRMC,134207.00,A,4437.78976,N,01056.93191,E,8.160,154.06,140422,,,A*67

$GPRMC,134207.10,A,4437.78945,N,01056.93206,E,8.078,151.74,140422,,,A*63

$GPRMC,134207.20,A,4437.78915,N,01056.93214,E,7.877,150.87,140422,,,A*63

$GPRMC,134207.30,A,4437.78891,N,01056.93220,E,7.322,149.82,140422,,,A*6E

$GPRMC,134207.40,A,4437.78863,N,01056.93227,E,6.890,148.82,140422,,,A*61

$GPGGA,134207.40,4437.78863,N,01056.93227,E,1,07,1.06,81.6,M,46.0,M,,*6F

$GPRMC,134207.50,A,4437.78833,N,01056.93173,E,5.072,152.42,140422,,,A*67

$GPRMC,134207.60,A,4437.78803,N,01056.93158,E,4.642,155.79,140422,,,A*65

$GPRMC,134207.70,A,4437.78759,N,01056.93174,E,5.766,156.37,140422,,,A*65

$GPRMC,134207.80,A,4437.78732,N,01056.93179,E,5.645,155.95,140422,,,A*61

$GPRMC,134207.90,A,4437.78707,N,01056.93185,E,5.804,156.15,140422,,,A*65

$GPRMC,134208.00,A,4437.78685,N,01056.93192,E,5.606,155.80,140422,,,A*6D

$GPRMC,134208.10,A,4437.78662,N,01056.93191,E,5.226,155.99,140422,,,A*68

$GPRMC,134208.20,A,4437.78634,N,01056.93180,E,4.668,156.89,140422,,,A*65

$GPRMC,134208.30,A,4437.78606,N,01056.93177,E,4.401,157.75,140422,,,A*62

$GPRMC,134208.40,A,4437.78575,N,01056.93186,E,4.477,156.67,140422,,,A*6F

$GPGGA,134208.40,4437.78575,N,01056.93186,E,1,07,1.06,80.2,M,46.0,M,,*67

$GPRMC,134208.50,A,4437.78544,N,01056.93192,E,4.397,154.96,140422,,,A*6C

$GPRMC,134208.60,A,4437.78504,N,01056.93187,E,4.910,155.46,140422,,,A*66

$GPRMC,134208.70,A,4437.78470,N,01056.93176,E,4.629,156.45,140422,,,A*6E

$GPRMC,134208.80,A,4437.78439,N,01056.93170,E,4.249,156.57,140422,,,A*6B

$GPRMC,134208.90,A,4437.78406,N,01056.93160,E,3.963,157.89,140422,,,A*61

$GPRMC,134209.00,A,4437.78371,N,01056.93165,E,3.764,150.55,140422,,,A*64

$GPRMC,134209.10,A,4437.78345,N,01056.93168,E,3.793,147.61,140422,,,A*66

$GPRMC,134209.20,A,4437.78322,N,01056.93162,E,3.468,146.08,140422,,,A*67

$GPRMC,134209.30,A,4437.78294,N,01056.93151,E,3.225,145.46,140422,,,A*6C

$GPRMC,134209.40,A,4437.78269,N,01056.93146,E,3.047,143.59,140422,,,A*61

$GPGGA,134209.40,4437.78269,N,01056.93146,E,1,07,1.06,76.7,M,46.0,M,,*6C

$GPRMC,134209.50,A,4437.78242,N,01056.93149,E,3.284,137.83,140422,,,A*6F

$GPRMC,134209.60,A,4437.78217,N,01056.93142,E,3.122,137.44,140422,,,A*63

$GPRMC,134209.70,A,4437.78186,N,01056.93135,E,3.073,136.55,140422,,,A*6D

$GPRMC,134209.80,A,4437.78145,N,01056.93128,E,3.618,142.21,140422,,,A*6A

$GPRMC,134209.90,A,4437.78114,N,01056.93110,E,3.145,144.68,140422,,,A*60

$GPRMC,134210.00,A,4437.78077,N,01056.93077,E,2.931,151.42,140422,,,A*63

$GPRMC,134210.10,A,4437.78053,N,01056.93049,E,2.768,161.47,140422,,,A*6D

$GPRMC,134210.20,A,4437.78030,N,01056.93028,E,2.478,170.24,140422,,,A*6B

$GPRMC,134210.30,A,4437.78017,N,01056.93016,E,1.821,171.60,140422,,,A*60

$GPRMC,134210.40,A,4437.78004,N,01056.92999,E,1.265,171.59,140422,,,A*6A

$GPGGA,134210.40,4437.78004,N,01056.92999,E,1,07,1.06,72.7,M,46.0,M,,*62

$GPRMC,134210.50,A,4437.77988,N,01056.92981,E,1.127,171.95,140422,,,A*65

$GPRMC,134210.60,A,4437.77971,N,01056.92966,E,1.412,172.96,140422,,,A*6A

$GPRMC,134210.70,A,4437.77946,N,01056.92954,E,1.868,170.49,140422,,,A*6F

$GPRMC,134210.80,A,4437.77923,N,01056.92943,E,2.356,174.08,140422,,,A*61

$GPRMC,134210.90,A,4437.77900,N,01056.92930,E,2.835,180.37,140422,,,A*6C

$GPRMC,134211.00,A,4437.77875,N,01056.92917,E,2.841,183.09,140422,,,A*6F

$GPRMC,134211.10,A,4437.77853,N,01056.92899,E,2.767,183.28,140422,,,A*65

$GPRMC,134211.20,A,4437.77836,N,01056.92882,E,2.780,184.83,140422,,,A*60

$GPRMC,134211.30,A,4437.77814,N,01056.92864,E,2.851,186.82,140422,,,A*69

$GPRMC,134211.40,A,4437.77794,N,01056.92855,E,2.888,187.90,140422,,,A*6D

$GPGGA,134211.40,4437.77794,N,01056.92855,E,1,07,1.06,70.1,M,46.0,M,,*67

$GPRMC,134211.50,A,4437.77778,N,01056.92839,E,2.751,191.79,140422,,,A*6F

$GPRMC,134211.60,A,4437.77761,N,01056.92820,E,2.879,197.08,140422,,,A*69

$GPRMC,134211.70,A,4437.77749,N,01056.92811,E,2.731,201.14,140422,,,A*62

$GPRMC,134211.80,A,4437.77735,N,01056.92812,E,2.921,202.22,140422,,,A*6C

$GPRMC,134211.90,A,4437.77722,N,01056.92809,E,3.024,202.53,140422,,,A*6A

$GPRMC,134212.00,A,4437.77706,N,01056.92805,E,3.214,201.08,140422,,,A*66

$GPRMC,134212.10,A,4437.77693,N,01056.92800,E,3.160,200.03,140422,,,A*65

$GPRMC,134212.20,A,4437.77684,N,01056.92797,E,2.868,198.62,140422,,,A*64

$GPRMC,134212.30,A,4437.77675,N,01056.92794,E,2.802,197.89,140422,,,A*6E

$GPRMC,134212.40,A,4437.77660,N,01056.92795,E,3.262,195.90,140422,,,A*6B

$GPGGA,134212.40,4437.77660,N,01056.92795,E,1,07,1.06,70.7,M,46.0,M,,*6B

$GPRMC,134212.50,A,4437.77654,N,01056.92785,E,3.016,196.81,140422,,,A*6E

$GPRMC,134212.60,A,4437.77647,N,01056.92777,E,2.763,197.48,140422,,,A*62

$GPRMC,134212.70,A,4437.77640,N,01056.92756,E,3.020,202.45,140422,,,A*64

$GPRMC,134212.80,A,4437.77625,N,01056.92753,E,3.183,201.46,140422,,,A*65

$GPRMC,134212.90,A,4437.77620,N,01056.92733,E,2.978,205.17,140422,,,A*6A

$GPRMC,134213.00,A,4437.77617,N,01056.92728,E,2.741,208.87,140422,,,A*6C

$GPRMC,134213.10,A,4437.77609,N,01056.92718,E,3.029,211.75,140422,,,A*6C

$GPRMC,134213.20,A,4437.77601,N,01056.92704,E,3.098,213.37,140422,,,A*64

$GPRMC,134213.30,A,4437.77589,N,01056.92697,E,3.357,211.02,140422,,,A*69

$GPRMC,134213.40,A,4437.77583,N,01056.92691,E,3.078,210.04,140422,,,A*6B

$GPGGA,134213.40,4437.77583,N,01056.92691,E,1,06,1.15,72.2,M,46.0,M,,*65

$GPRMC,134213.50,A,4437.77573,N,01056.92688,E,2.996,206.53,140422,,,A*60

$GPRMC,134213.60,A,4437.77566,N,01056.92676,E,3.042,206.20,140422,,,A*63

$GPRMC,134213.70,A,4437.77560,N,01056.92669,E,3.000,204.87,140422,,,A*63

$GPRMC,134213.80,A,4437.77553,N,01056.92654,E,2.863,202.18,140422,,,A*6E

$GPRMC,134213.90,A,4437.77546,N,01056.92642,E,3.158,202.76,140422,,,A*64

$GPRMC,134214.00,A,4437.77538,N,01056.92626,E,3.131,201.35,140422,,,A*6A

$GPRMC,134214.10,A,4437.77534,N,01056.92606,E,3.120,202.41,140422,,,A*65

$GPRMC,134214.20,A,4437.77529,N,01056.92586,E,3.248,205.80,140422,,,A*66

$GPRMC,134214.30,A,4437.77526,N,01056.92570,E,3.110,207.28,140422,,,A*6F

$GPRMC,134214.40,A,4437.77521,N,01056.92552,E,3.187,209.23,140422,,,A*64

$GPGGA,134214.40,4437.77521,N,01056.92552,E,1,06,1.19,74.2,M,46.0,M,,*6C

$GPRMC,134214.50,A,4437.77517,N,01056.92537,E,3.182,210.67,140422,,,A*6E

$GPRMC,134214.60,A,4437.77513,N,01056.92521,E,3.269,212.90,140422,,,A*62

$GPRMC,134214.70,A,4437.77512,N,01056.92513,E,3.018,213.84,140422,,,A*63

$GPRMC,134214.80,A,4437.77508,N,01056.92502,E,3.048,214.77,140422,,,A*69

$GPRMC,134214.90,A,4437.77501,N,01056.92491,E,3.009,212.42,140422,,,A*6F

$GPRMC,134215.00,A,4437.77489,N,01056.92475,E,3.385,210.24,140422,,,A*69

$GPRMC,134215.10,A,4437.77481,N,01056.92457,E,3.491,211.21,140422,,,A*66

$GPRMC,134215.20,A,4437.77476,N,01056.92440,E,3.465,212.71,140422,,,A*66

$GPRMC,134215.30,A,4437.77468,N,01056.92432,E,3.405,210.55,140422,,,A*6F

$GPRMC,134215.40,A,4437.77467,N,01056.92420,E,3.073,210.34,140422,,,A*66

$GPGGA,134215.40,4437.77467,N,01056.92420,E,1,06,1.19,77.0,M,46.0,M,,*6B

$GPRMC,134215.50,A,4437.77465,N,01056.92408,E,3.321,212.77,140422,,,A*6E

$GPRMC,134215.60,A,4437.77460,N,01056.92397,E,3.186,213.84,140422,,,A*6B

$GPRMC,134215.70,A,4437.77453,N,01056.92385,E,3.105,212.67,140422,,,A*6E

$GPRMC,134215.80,A,4437.77435,N,01056.92371,E,3.690,207.82,140422,,,A*6E

$GPRMC,134215.90,A,4437.77429,N,01056.92353,E,3.512,209.02,140422,,,A*6D

$GPRMC,134216.00,A,4437.77412,N,01056.92330,E,3.968,209.12,140422,,,A*6A

$GPRMC,134216.10,A,4437.77396,N,01056.92311,E,4.176,208.28,140422,,,A*6B

$GPRMC,134216.20,A,4437.77389,N,01056.92292,E,4.325,212.01,140422,,,A*68

$GPRMC,134216.30,A,4437.77381,N,01056.92284,E,3.739,210.83,140422,,,A*60

$GPRMC,134216.40,A,4437.77383,N,01056.92278,E,3.635,212.73,140422,,,A*66

$GPGGA,134216.40,4437.77383,N,01056.92278,E,1,06,1.19,79.4,M,46.0,M,,*64

$GPRMC,134216.50,A,4437.77377,N,01056.92272,E,3.602,211.14,140422,,,A*60

$GPRMC,134216.60,A,4437.77373,N,01056.92267,E,3.513,209.43,140422,,,A*6B

$GPRMC,134216.70,A,4437.77376,N,01056.92252,E,3.555,213.36,140422,,,A*62

$GPRMC,134216.80,A,4437.77378,N,01056.92245,E,3.224,214.94,140422,,,A*6B

$GPRMC,134216.90,A,4437.77380,N,01056.92237,E,3.116,217.57,140422,,,A*66

$GPRMC,134217.00,A,4437.77372,N,01056.92225,E,3.159,217.24,140422,,,A*6F

$GPRMC,134217.10,A,4437.77365,N,01056.92209,E,3.231,218.76,140422,,,A*63

$GPRMC,134217.20,A,4437.77364,N,01056.92201,E,2.852,217.52,140422,,,A*6E

$GPRMC,134217.30,A,4437.77356,N,01056.92183,E,2.982,216.23,140422,,,A*6C

$GPRMC,134217.40,A,4437.77349,N,01056.92160,E,3.231,219.60,140422,,,A*62

$GPGGA,134217.40,4437.77349,N,01056.92160,E,1,08,1.10,83.2,M,46.0,M,,*6D

$GPRMC,134217.50,A,4437.77341,N,01056.92140,E,3.376,220.84,140422,,,A*6B

$GPRMC,134217.60,A,4437.77333,N,01056.92126,E,3.425,218.94,140422,,,A*66

$GPRMC,134217.70,A,4437.77329,N,01056.92107,E,3.682,223.15,140422,,,A*61

$GPRMC,134217.80,A,4437.77320,N,01056.92095,E,3.585,220.28,140422,,,A*64

$GPRMC,134217.90,A,4437.77317,N,01056.92076,E,3.516,221.99,140422,,,A*6D

$GPRMC,134218.00,A,4437.77305,N,01056.92059,E,3.740,218.56,140422,,,A*6D

$GPRMC,134218.10,A,4437.77298,N,01056.92037,E,3.861,219.93,140422,,,A*65

$GPRMC,134218.20,A,4437.77293,N,01056.92016,E,3.882,222.70,140422,,,A*66

$GPRMC,134218.30,A,4437.77284,N,01056.92002,E,3.805,220.07,140422,,,A*69

$GPRMC,134218.40,A,4437.77278,N,01056.91982,E,4.062,221.40,140422,,,A*63

$GPGGA,134218.40,4437.77278,N,01056.91982,E,1,08,1.10,85.9,M,46.0,M,,*6B

$GPRMC,134218.50,A,4437.77276,N,01056.91962,E,3.961,224.17,140422,,,A*68

$GPRMC,134218.60,A,4437.77271,N,01056.91942,E,4.073,225.36,140422,,,A*61

$GPRMC,134218.70,A,4437.77265,N,01056.91923,E,4.065,225.44,140422,,,A*60

$GPRMC,134218.80,A,4437.77256,N,01056.91907,E,4.070,223.77,140422,,,A*6B

$GPRMC,134218.90,A,4437.77245,N,01056.91885,E,4.261,222.71,140422,,,A*66

$GPRMC,134219.00,A,4437.77236,N,01056.91869,E,4.188,221.20,140422,,,A*6B

$GPRMC,134219.10,A,4437.77235,N,01056.91849,E,3.904,223.44,140422,,,A*60

$GPRMC,134219.20,A,4437.77228,N,01056.91835,E,3.943,223.50,140422,,,A*62

$GPRMC,134219.30,A,4437.77219,N,01056.91823,E,3.921,221.36,140422,,,A*60

$GPRMC,134219.40,A,4437.77199,N,01056.91806,E,4.205,216.96,140422,,,A*6F

$GPGGA,134219.40,4437.77199,N,01056.91806,E,1,09,1.10,89.0,M,46.0,M,,*6F

$GPRMC,134219.50,A,4437.77196,N,01056.91797,E,3.891,214.74,140422,,,A*68

$GPRMC,134219.60,A,4437.77184,N,01056.91793,E,3.811,208.99,140422,,,A*6A

$GPRMC,134219.70,A,4437.77158,N,01056.91784,E,4.450,201.52,140422,,,A*6C

$GPRMC,134219.80,A,4437.77133,N,01056.91773,E,4.939,196.53,140422,,,A*68

$GPRMC,134219.90,A,4437.77111,N,01056.91758,E,5.234,194.57,140422,,,A*61

$GPRMC,134220.00,A,4437.77095,N,01056.91736,E,5.390,195.71,140422,,,A*6D

$GPRMC,134220.10,A,4437.77087,N,01056.91715,E,5.234,198.49,140422,,,A*67

$GPRMC,134220.20,A,4437.77083,N,01056.91694,E,4.918,201.75,140422,,,A*60

$GPRMC,134220.30,A,4437.77093,N,01056.91672,E,4.219,207.08,140422,,,A*6E

$GPRMC,134220.40,A,4437.77081,N,01056.91651,E,4.486,211.11,140422,,,A*64

$GPGGA,134220.40,4437.77081,N,01056.91651,E,1,07,1.18,91.9,M,46.0,M,,*67

$GPRMC,134220.50,A,4437.77070,N,01056.91633,E,4.393,212.76,140422,,,A*6E

$GPRMC,134220.60,A,4437.77061,N,01056.91614,E,4.363,214.22,140422,,,A*60

$GPRMC,134220.70,A,4437.77062,N,01056.91596,E,3.517,216.46,140422,,,A*69

$GPRMC,134220.80,A,4437.77058,N,01056.91581,E,3.319,218.15,140422,,,A*69

$GPRMC,134220.90,A,4437.77060,N,01056.91566,E,3.183,220.73,140422,,,A*60

$GPRMC,134221.00,A,4437.77061,N,01056.91555,E,3.046,222.18,140422,,,A*6E

$GPRMC,134221.10,A,4437.77051,N,01056.91538,E,2.848,222.52,140422,,,A*6E

$GPRMC,134221.20,A,4437.77043,N,01056.91525,E,2.759,220.83,140422,,,A*63

$GPRMC,134221.30,A,4437.77041,N,01056.91516,E,2.740,218.41,140422,,,A*6D

$GPRMC,134221.40,A,4437.77038,N,01056.91506,E,2.418,216.09,140422,,,A*69

$GPGGA,134221.40,4437.77038,N,01056.91506,E,1,06,1.19,95.4,M,46.0,M,,*6C

$GPRMC,134221.50,A,4437.77034,N,01056.91493,E,2.730,215.93,140422,,,A*60

$GPRMC,134221.60,A,4437.77027,N,01056.91476,E,3.470,217.04,140422,,,A*60

$GPRMC,134221.70,A,4437.77030,N,01056.91456,E,3.002,221.08,140422,,,A*6D

$GPRMC,134221.80,A,4437.77027,N,01056.91427,E,3.921,226.86,140422,,,A*6B

$GPRMC,134221.90,A,4437.77031,N,01056.91403,E,3.838,232.47,140422,,,A*6A

$GPRMC,134222.00,A,4437.76990,N,01056.91388,E,4.356,228.66,140422,,,A*6B

$GPRMC,134222.10,A,4437.76949,N,01056.91375,E,4.725,222.87,140422,,,A*69

$GPRMC,134222.20,A,4437.76899,N,01056.91358,E,5.225,217.15,140422,,,A*60

$GPRMC,134222.30,A,4437.76795,N,01056.91350,E,6.830,204.02,140422,,,A*63

$GPRMC,134222.40,A,4437.76703,N,01056.91345,E,7.847,196.32,140422,,,A*65

$GPGGA,134222.40,4437.76703,N,01056.91345,E,1,07,1.00,94.2,M,46.0,M,,*6E

$GPRMC,134222.50,A,4437.76645,N,01056.91338,E,7.651,192.94,140422,,,A*6C

$GPRMC,134222.60,A,4437.76593,N,01056.91315,E,7.159,193.64,140422,,,A*69

$GPRMC,134222.70,A,4437.76541,N,01056.91310,E,7.345,193.05,140422,,,A*6A

$GPRMC,134222.80,A,4437.76486,N,01056.91301,E,7.436,191.96,140422,,,A*64

$GPRMC,134222.90,A,4437.76432,N,01056.91294,E,7.228,191.47,140422,,,A*62

$GPRMC,134223.00,A,4437.76381,N,01056.91279,E,7.186,192.56,140422,,,A*62

$GPRMC,134223.10,A,4437.76339,N,01056.91263,E,7.028,194.37,140422,,,A*6F

$GPRMC,134223.20,A,4437.76289,N,01056.91249,E,6.932,195.69,140422,,,A*67

$GPRMC,134223.30,A,4437.76240,N,01056.91237,E,7.320,196.53,140422,,,A*68

$GPRMC,134223.40,A,4437.76191,N,01056.91230,E,7.427,196.10,140422,,,A*60

$GPGGA,134223.40,4437.76191,N,01056.91230,E,1,07,1.00,89.9,M,46.0,M,,*66

$GPRMC,134223.50,A,4437.76133,N,01056.91226,E,7.299,194.80,140422,,,A*66

$GPRMC,134223.60,A,4437.76083,N,01056.91219,E,7.597,194.18,140422,,,A*6B

$GPRMC,134223.70,A,4437.76031,N,01056.91212,E,7.815,193.74,140422,,,A*62

$GPRMC,134223.80,A,4437.76013,N,01056.91192,E,6.572,198.41,140422,,,A*66

$GPRMC,134224.00,A,4437.75945,N,01056.91174,E,6.765,199.69,140422,,,A*67

$GPRMC,134224.10,A,4437.75889,N,01056.91156,E,6.814,201.61,140422,,,A*64

$GPRMC,134224.30,A,4437.75774,N,01056.91139,E,8.583,195.10,140422,,,A*67

$GPRMC,134224.40,A,4437.75689,N,01056.91127,E,9.052,191.59,140422,,,A*6D

$GPRMC,134224.60,A,4437.75604,N,01056.91100,E,9.368,191.52,140422,,,A*6E

$GPRMC,134224.70,A,4437.75540,N,01056.91071,E,9.468,193.28,140422,,,A*63

$GPGGA,134224.70,4437.75540,N,01056.91071,E,1,08,0.99,85.4,M,46.0,M,,*61

$GPRMC,134224.80,A,4437.75478,N,01056.91036,E,9.841,195.43,140422,,,A*69

$GPRMC,134224.90,A,4437.75418,N,01056.90971,E,10.382,199.69,140422,,,A*5D

$GPRMC,134225.00,A,4437.75362,N,01056.90912,E,10.436,202.62,140422,,,A*58

$GPRMC,134225.10,A,4437.75309,N,01056.90852,E,10.244,204.05,140422,,,A*55

$GPRMC,134225.20,A,4437.75266,N,01056.90832,E,9.814,204.83,140422,,,A*61

$GPRMC,134225.30,A,4437.75223,N,01056.90808,E,9.788,205.95,140422,,,A*64

$GPRMC,134225.40,A,4437.75177,N,01056.90791,E,9.819,205.92,140422,,,A*6E

$GPRMC,134225.50,A,4437.75141,N,01056.90786,E,9.536,204.63,140422,,,A*63

$GPRMC,134225.60,A,4437.75103,N,01056.90770,E,9.387,203.95,140422,,,A*6D

$GPRMC,134225.70,A,4437.75063,N,01056.90715,E,9.383,205.66,140422,,,A*66

$GPGGA,134225.70,4437.75063,N,01056.90715,E,1,08,0.99,80.5,M,46.0,M,,*64

$GPRMC,134225.80,A,4437.75029,N,01056.90672,E,8.864,207.97,140422,,,A*68

$GPRMC,134225.90,A,4437.74996,N,01056.90635,E,8.337,210.24,140422,,,A*65

$GPRMC,134226.00,A,4437.74963,N,01056.90570,E,8.060,212.55,140422,,,A*62

$GPRMC,134226.10,A,4437.74931,N,01056.90475,E,8.450,216.06,140422,,,A*65

$GPRMC,134226.20,A,4437.74903,N,01056.90388,E,8.256,217.81,140422,,,A*6C

$GPRMC,134226.30,A,4437.74868,N,01056.90281,E,8.778,217.82,140422,,,A*63

$GPRMC,134226.40,A,4437.74841,N,01056.90158,E,9.259,220.20,140422,,,A*63

$GPRMC,134226.50,A,4437.74811,N,01056.90028,E,9.717,219.76,140422,,,A*67

$GPRMC,134226.60,A,4437.74781,N,01056.89892,E,9.897,219.41,140422,,,A*60

$GPRMC,134226.70,A,4437.74747,N,01056.89768,E,10.567,219.25,140422,,,A*59

$GPGGA,134226.70,4437.74747,N,01056.89768,E,1,07,1.00,73.5,M,46.0,M,,*67

$GPRMC,134226.80,A,4437.74705,N,01056.89678,E,11.079,218.13,140422,,,A*5F

$GPRMC,134226.90,A,4437.74677,N,01056.89555,E,10.783,217.32,140422,,,A*59

$GPRMC,134227.00,A,4437.74656,N,01056.89427,E,10.645,218.65,140422,,,A*50

$GPRMC,134227.10,A,4437.74638,N,01056.89315,E,10.035,219.26,140422,,,A*58

$GPRMC,134227.20,A,4437.74625,N,01056.89213,E,9.138,221.04,140422,,,A*6F

$GPRMC,134227.30,A,4437.74602,N,01056.89132,E,9.523,223.01,140422,,,A*62

$GPRMC,134227.40,A,4437.74581,N,01056.89060,E,9.127,222.92,140422,,,A*60

$GPRMC,134227.50,A,4437.74567,N,01056.88981,E,9.170,224.07,140422,,,A*66

$GPRMC,134227.60,A,4437.74551,N,01056.88916,E,8.766,224.19,140422,,,A*61

$GPRMC,134227.70,A,4437.74534,N,01056.88847,E,8.963,225.76,140422,,,A*65

$GPGGA,134227.70,4437.74534,N,01056.88847,E,1,07,1.00,68.1,M,46.0,M,,*6D

$GPRMC,134227.80,A,4437.74513,N,01056.88774,E,8.993,225.42,140422,,,A*68

$GPRMC,134227.90,A,4437.74480,N,01056.88704,E,9.625,222.78,140422,,,A*68

$GPRMC,134228.00,A,4437.74445,N,01056.88627,E,10.363,221.34,140422,,,A*53

$GPRMC,134228.10,A,4437.74412,N,01056.88551,E,10.524,220.28,140422,,,A*5B

$GPRMC,134228.20,A,4437.74379,N,01056.88481,E,10.711,219.75,140422,,,A*58

$GPRMC,134228.30,A,4437.74344,N,01056.88421,E,10.658,218.83,140422,,,A*59

$GPRMC,134228.40,A,4437.74311,N,01056.88364,E,11.221,220.24,140422,,,A*55

$GPRMC,134228.50,A,4437.74280,N,01056.88303,E,11.072,218.55,140422,,,A*55

$GPRMC,134228.60,A,4437.74243,N,01056.88243,E,11.375,218.21,140422,,,A*5B

$GPRMC,134228.70,A,4437.74211,N,01056.88185,E,11.514,219.49,140422,,,A*5A

$GPGGA,134228.70,4437.74211,N,01056.88185,E,1,08,1.00,63.8,M,46.0,M,,*68

$GPRMC,134228.80,A,4437.74178,N,01056.88139,E,11.320,218.57,140422,,,A*51

$GPRMC,134228.90,A,4437.74144,N,01056.88081,E,11.635,219.77,140422,,,A*5F

$GPRMC,134229.00,A,4437.74110,N,01056.87999,E,11.530,219.35,140422,,,A*59

$GPRMC,134229.10,A,4437.74070,N,01056.87924,E,11.718,219.70,140422,,,A*50

$GPRMC,134229.20,A,4437.74029,N,01056.87844,E,11.727,219.33,140422,,,A*53

$GPRMC,134229.30,A,4437.73997,N,01056.87789,E,11.691,219.36,140422,,,A*5E

$GPRMC,134229.40,A,4437.73960,N,01056.87730,E,11.867,219.28,140422,,,A*5B

$GPRMC,134229.50,A,4437.73923,N,01056.87680,E,12.109,218.90,140422,,,A*57

$GPRMC,134229.60,A,4437.73891,N,01056.87633,E,11.827,218.24,140422,,,A*5D

$GPRMC,134229.70,A,4437.73852,N,01056.87587,E,12.322,218.17,140422,,,A*52

$GPGGA,134229.70,4437.73852,N,01056.87587,E,1,08,1.00,59.3,M,46.0,M,,*68

$GPRMC,134229.80,A,4437.73818,N,01056.87532,E,12.067,216.71,140422,,,A*51

$GPRMC,134229.90,A,4437.73785,N,01056.87481,E,11.246,216.53,140422,,,A*50

$GPRMC,134230.00,A,4437.73753,N,01056.87439,E,10.439,216.89,140422,,,A*51

$GPRMC,134230.10,A,4437.73716,N,01056.87390,E,10.794,219.07,140422,,,A*58

$GPRMC,134230.20,A,4437.73680,N,01056.87343,E,11.324,220.44,140422,,,A*58

$GPRMC,134230.30,A,4437.73646,N,01056.87307,E,11.443,219.93,140422,,,A*55

$GPRMC,134230.40,A,4437.73611,N,01056.87272,E,11.577,219.19,140422,,,A*57

$GPRMC,134230.50,A,4437.73576,N,01056.87238,E,11.689,217.99,140422,,,A*5E

$GPRMC,134230.60,A,4437.73538,N,01056.87197,E,11.620,216.26,140422,,,A*57

$GPRMC,134230.70,A,4437.73499,N,01056.87152,E,11.721,215.33,140422,,,A*52

$GPGGA,134230.70,4437.73499,N,01056.87152,E,1,08,0.99,55.9,M,46.0,M,,*60

$GPRMC,134230.80,A,4437.73457,N,01056.87110,E,11.913,212.95,140422,,,A*5D

$GPRMC,134230.90,A,4437.73420,N,01056.87066,E,11.638,211.61,140422,,,A*52

$GPRMC,134231.00,A,4437.73380,N,01056.87022,E,11.802,210.87,140422,,,A*59

$GPRMC,134231.10,A,4437.73341,N,01056.86980,E,11.435,209.49,140422,,,A*57

$GPRMC,134231.20,A,4437.73296,N,01056.86942,E,11.658,206.30,140422,,,A*59

$GPRMC,134231.30,A,4437.73255,N,01056.86909,E,11.665,204.59,140422,,,A*5B

$GPRMC,134231.40,A,4437.73213,N,01056.86873,E,10.986,201.52,140422,,,A*5F

$GPRMC,134231.50,A,4437.73168,N,01056.86843,E,11.497,199.46,140422,,,A*59

$GPRMC,134231.60,A,4437.73127,N,01056.86814,E,11.488,197.64,140422,,,A*53

$GPRMC,134231.70,A,4437.73090,N,01056.86794,E,10.951,195.06,140422,,,A*56

$GPGGA,134231.70,4437.73090,N,01056.86794,E,1,08,0.99,52.1,M,46.0,M,,*6E

$GPRMC,134231.80,A,4437.73047,N,01056.86778,E,10.972,191.52,140422,,,A*55

$GPRMC,134231.90,A,4437.73016,N,01056.86761,E,10.409,188.50,140422,,,A*53

$GPRMC,134232.10,A,4437.72957,N,01056.86738,E,9.715,184.22,140422,,,A*66

$GPRMC,134232.20,A,4437.72928,N,01056.86726,E,9.470,181.24,140422,,,A*61

$GPRMC,134232.30,A,4437.72894,N,01056.86720,E,9.831,177.82,140422,,,A*6C

$GPRMC,134232.40,A,4437.72861,N,01056.86706,E,9.760,176.94,140422,,,A*68

$GPRMC,134232.50,A,4437.72832,N,01056.86701,E,9.665,174.60,140422,,,A*65

$GPRMC,134232.60,A,4437.72800,N,01056.86684,E,9.175,173.18,140422,,,A*65

$GPRMC,134232.70,A,4437.72762,N,01056.86672,E,9.463,171.03,140422,,,A*6C

$GPRMC,134232.80,A,4437.72730,N,01056.86670,E,9.454,167.96,140422,,,A*69

$GPGGA,134232.80,4437.72730,N,01056.86670,E,1,07,1.18,49.5,M,46.0,M,,*6C

$GPRMC,134232.90,A,4437.72702,N,01056.86669,E,9.451,166.57,140422,,,A*68

$GPRMC,134233.00,A,4437.72674,N,01056.86673,E,9.446,163.07,140422,,,A*6D

$GPRMC,134233.20,A,4437.72619,N,01056.86679,E,9.761,161.31,140422,,,A*6F

$GPRMC,134233.30,A,4437.72593,N,01056.86668,E,9.307,159.46,140422,,,A*60

$GPRMC,134233.40,A,4437.72569,N,01056.86663,E,9.204,156.58,140422,,,A*6B

$GPRMC,134233.50,A,4437.72540,N,01056.86661,E,9.474,153.31,140422,,,A*68

$GPRMC,134233.60,A,4437.72512,N,01056.86662,E,9.546,150.70,140422,,,A*69

$GPRMC,134233.70,A,4437.72490,N,01056.86668,E,9.541,147.50,140422,,,A*6A

