$GPRMC,135224.60,A,4437.78844,N,01057.00238,E,0.116,,140422,,,A*7B

$GPRMC,135224.70,A,4437.78844,N,01057.00238,E,0.173,,140422,,,A*79

$GPRMC,135224.80,A,4437.78843,N,01057.00238,E,0.160,,140422,,,A*73

$GPRMC,135224.90,A,4437.78842,N,01057.00238,E,0.114,,140422,,,A*70

$GPRMC,135225.00,A,4437.78842,N,01057.00238,E,0.092,,140422,,,A*77

$GPGGA,135225.00,4437.78842,N,01057.00238,E,1,10,1.04,35.9,M,46.0,M,,*68

$GPRMC,135225.10,A,4437.78840,N,01057.00238,E,0.160,,140422,,,A*78

$GPRMC,135225.20,A,4437.78839,N,01057.00239,E,0.043,,140422,,,A*74

$GPRMC,135225.30,A,4437.78838,N,01057.00240,E,0.034,,140422,,,A*7A

$GPRMC,135225.40,A,4437.78837,N,01057.00241,E,0.029,,140422,,,A*7F

$GPRMC,135225.50,A,4437.78835,N,01057.00242,E,0.050,,140422,,,A*71

$GPRMC,135225.60,A,4437.78834,N,01057.00242,E,0.038,,140422,,,A*7D

$GPRMC,135225.70,A,4437.78832,N,01057.00243,E,0.085,,140422,,,A*7D

$GPRMC,135225.80,A,4437.78831,N,01057.00243,E,0.040,,140422,,,A*78

$GPRMC,135225.90,A,4437.78830,N,01057.00242,E,0.115,,140422,,,A*78

$GPRMC,135226.00,A,4437.78829,N,01057.00241,E,0.029,,140422,,,A*77

$GPGGA,135226.00,4437.78829,N,01057.00241,E,1,10,1.04,35.9,M,46.0,M,,*68

$GPRMC,135226.10,A,4437.78829,N,01057.00240,E,0.060,,140422,,,A*7A

$GPRMC,135226.20,A,4437.78829,N,01057.00240,E,0.146,,140422,,,A*7C

$GPRMC,135226.30,A,4437.78828,N,01057.00239,E,0.031,,140422,,,A*73

$GPRMC,135226.40,A,4437.78828,N,01057.00239,E,0.114,,140422,,,A*72

$GPRMC,135226.50,A,4437.78828,N,01057.00239,E,0.087,,140422,,,A*78

$GPRMC,135226.60,A,4437.78827,N,01057.00239,E,0.068,,140422,,,A*75

$GPRMC,135226.70,A,4437.78827,N,01057.00239,E,0.047,,140422,,,A*79

$GPRMC,135226.80,A,4437.78827,N,01057.00240,E,0.040,,140422,,,A*7F

$GPRMC,135226.90,A,4437.78826,N,01057.00240,E,0.127,,140422,,,A*7F

$GPRMC,135227.00,A,4437.78826,N,01057.00241,E,0.073,,140422,,,A*76

$GPGGA,135227.00,4437.78826,N,01057.00241,E,1,10,1.04,35.8,M,46.0,M,,*67

$GPRMC,135227.10,A,4437.78825,N,01057.00241,E,0.024,,140422,,,A*76

$GPRMC,135227.20,A,4437.78825,N,01057.00242,E,0.076,,140422,,,A*71

$GPRMC,135227.30,A,4437.78824,N,01057.00242,E,0.067,,140422,,,A*71

$GPRMC,135227.40,A,4437.78824,N,01057.00243,E,0.047,,140422,,,A*75

$GPRMC,135227.50,A,4437.78823,N,01057.00243,E,0.063,,140422,,,A*75

$GPRMC,135227.60,A,4437.78822,N,01057.00243,E,0.073,,140422,,,A*76

$GPRMC,135227.70,A,4437.78822,N,01057.00243,E,0.008,,140422,,,A*7B

$GPRMC,135227.80,A,4437.78822,N,01057.00244,E,0.013,,140422,,,A*79

$GPRMC,135227.90,A,4437.78822,N,01057.00244,E,0.060,,140422,,,A*7C

$GPRMC,135228.00,A,4437.78821,N,01057.00244,E,0.077,,140422,,,A*7F

$GPGGA,135228.00,4437.78821,N,01057.00244,E,1,10,0.85,35.8,M,46.0,M,,*62

$GPRMC,135228.10,A,4437.78821,N,01057.00244,E,0.007,,140422,,,A*79

$GPRMC,135228.20,A,4437.78821,N,01057.00244,E,0.003,,140422,,,A*7E

$GPRMC,135228.30,A,4437.78820,N,01057.00244,E,0.035,,140422,,,A*7B

$GPRMC,135228.40,A,4437.78820,N,01057.00243,E,0.040,,140422,,,A*79

$GPRMC,135228.50,A,4437.78820,N,01057.00243,E,0.094,,140422,,,A*71

$GPRMC,135228.60,A,4437.78820,N,01057.00243,E,0.029,,140422,,,A*74

$GPRMC,135228.70,A,4437.78820,N,01057.00242,E,0.087,,140422,,,A*70

$GPRMC,135228.80,A,4437.78820,N,01057.00242,E,0.051,,140422,,,A*74

$GPRMC,135228.90,A,4437.78820,N,01057.00241,E,0.041,,140422,,,A*77

$GPRMC,135229.00,A,4437.78820,N,01057.00240,E,0.038,,140422,,,A*70

$GPGGA,135229.00,4437.78820,N,01057.00240,E,1,10,0.85,35.8,M,46.0,M,,*66

$GPRMC,135229.10,A,4437.78819,N,01057.00240,E,0.029,,140422,,,A*7B

$GPRMC,135229.20,A,4437.78819,N,01057.00239,E,0.071,,140422,,,A*7B

$GPRMC,135229.30,A,4437.78819,N,01057.00238,E,0.044,,140422,,,A*7D

$GPRMC,135229.40,A,4437.78819,N,01057.00237,E,0.040,,140422,,,A*71

$GPRMC,135229.50,A,4437.78818,N,01057.00236,E,0.087,,140422,,,A*7B

$GPRMC,135229.60,A,4437.78819,N,01057.00235,E,0.074,,140422,,,A*76

$GPRMC,135229.70,A,4437.78818,N,01057.00234,E,0.013,,140422,,,A*76

$GPRMC,135229.80,A,4437.78818,N,01057.00233,E,0.017,,140422,,,A*7A

$GPRMC,135229.90,A,4437.78818,N,01057.00232,E,0.035,,140422,,,A*7A

$GPRMC,135230.00,A,4437.78818,N,01057.00231,E,0.103,,140422,,,A*7C

$GPGGA,135230.00,4437.78818,N,01057.00231,E,1,10,0.85,35.7,M,46.0,M,,*6C

$GPRMC,135230.10,A,4437.78818,N,01057.00230,E,0.021,,140422,,,A*7D

$GPRMC,135230.20,A,4437.78818,N,01057.00229,E,0.034,,140422,,,A*72

$GPRMC,135230.30,A,4437.78818,N,01057.00228,E,0.087,,140422,,,A*7A

$GPRMC,135230.40,A,4437.78817,N,01057.00227,E,0.035,,140422,,,A*74

$GPRMC,135230.50,A,4437.78818,N,01057.00226,E,0.021,,140422,,,A*7E

$GPRMC,135230.60,A,4437.78818,N,01057.00225,E,0.032,,140422,,,A*7C

$GPRMC,135230.70,A,4437.78818,N,01057.00225,E,0.031,,140422,,,A*7E

$GPRMC,135230.80,A,4437.78818,N,01057.00223,E,0.065,,140422,,,A*76

$GPRMC,135230.90,A,4437.78818,N,01057.00223,E,0.050,,140422,,,A*71

$GPRMC,135231.00,A,4437.78818,N,01057.00221,E,0.044,,140422,,,A*7E

$GPGGA,135231.00,4437.78818,N,01057.00221,E,1,10,0.85,35.5,M,46.0,M,,*6E

$GPRMC,135231.10,A,4437.78818,N,01057.00220,E,0.069,,140422,,,A*71

$GPRMC,135231.20,A,4437.78818,N,01057.00219,E,0.071,,140422,,,A*71

$GPRMC,135231.30,A,4437.78818,N,01057.00218,E,0.111,,140422,,,A*76

$GPRMC,135231.40,A,4437.78818,N,01057.00217,E,0.022,,140422,,,A*7F

$GPRMC,135231.50,A,4437.78818,N,01057.00216,E,0.019,,140422,,,A*77

$GPRMC,135231.60,A,4437.78818,N,01057.00215,E,0.112,,140422,,,A*7D

$GPRMC,135231.70,A,4437.78818,N,01057.00214,E,0.015,,140422,,,A*7B

$GPRMC,135231.80,A,4437.78818,N,01057.00213,E,0.048,,140422,,,A*7B

$GPRMC,135231.90,A,4437.78818,N,01057.00213,E,0.043,,140422,,,A*71

$GPRMC,135232.00,A,4437.78818,N,01057.00212,E,0.042,,140422,,,A*7B

$GPGGA,135232.00,4437.78818,N,01057.00212,E,1,10,0.85,35.3,M,46.0,M,,*6B

$GPRMC,135232.10,A,4437.78818,N,01057.00211,E,0.022,,140422,,,A*7F

$GPRMC,135232.20,A,4437.78818,N,01057.00210,E,0.039,,140422,,,A*77

$GPRMC,135232.30,A,4437.78818,N,01057.00209,E,0.089,,140422,,,A*75

$GPRMC,135232.40,A,4437.78818,N,01057.00209,E,0.023,,140422,,,A*72

$GPRMC,135232.50,A,4437.78818,N,01057.00208,E,0.018,,140422,,,A*7A

$GPRMC,135232.60,A,4437.78818,N,01057.00207,E,0.133,,140422,,,A*7E

$GPRMC,135232.70,A,4437.78818,N,01057.00207,E,0.027,,140422,,,A*7B

$GPRMC,135232.80,A,4437.78818,N,01057.00206,E,0.039,,140422,,,A*7A

$GPRMC,135232.90,A,4437.78818,N,01057.00205,E,0.114,,140422,,,A*76

$GPRMC,135233.00,A,4437.78817,N,01057.00205,E,0.059,,140422,,,A*79

$GPGGA,135233.00,4437.78817,N,01057.00205,E,1,10,0.85,35.1,M,46.0,M,,*61

$GPRMC,135233.10,A,4437.78817,N,01057.00203,E,0.125,,140422,,,A*74

$GPRMC,135233.20,A,4437.78817,N,01057.00203,E,0.075,,140422,,,A*73

$GPRMC,135233.30,A,4437.78817,N,01057.00202,E,0.036,,140422,,,A*74

$GPRMC,135233.40,A,4437.78817,N,01057.00202,E,0.067,,140422,,,A*77

$GPRMC,135233.50,A,4437.78817,N,01057.00201,E,0.050,,140422,,,A*71

$GPRMC,135233.60,A,4437.78818,N,01057.00201,E,0.117,,140422,,,A*7F

$GPRMC,135233.70,A,4437.78817,N,01057.00200,E,0.054,,140422,,,A*76

$GPRMC,135233.80,A,4437.78817,N,01057.00200,E,0.057,,140422,,,A*7A

$GPRMC,135233.90,A,4437.78817,N,01057.00200,E,0.032,,140422,,,A*78

$GPRMC,135234.00,A,4437.78817,N,01057.00199,E,0.037,,140422,,,A*70

$GPGGA,135234.00,4437.78817,N,01057.00199,E,1,10,0.85,34.9,M,46.0,M,,*69

$GPRMC,135234.10,A,4437.78817,N,01057.00199,E,0.044,,140422,,,A*75

$GPRMC,135234.20,A,4437.78817,N,01057.00198,E,0.060,,140422,,,A*71

$GPRMC,135234.30,A,4437.78816,N,01057.00198,E,0.058,,140422,,,A*7A

$GPRMC,135234.40,A,4437.78816,N,01057.00197,E,0.055,,140422,,,A*7F

$GPRMC,135234.50,A,4437.78816,N,01057.00197,E,0.051,,140422,,,A*7A

$GPRMC,135234.60,A,4437.78816,N,01057.00197,E,0.058,,140422,,,A*70

$GPRMC,135234.70,A,4437.78815,N,01057.00197,E,0.034,,140422,,,A*78

$GPRMC,135234.80,A,4437.78815,N,01057.00197,E,0.042,,140422,,,A*76

$GPRMC,135234.90,A,4437.78815,N,01057.00197,E,0.010,,140422,,,A*70

$GPRMC,135235.00,A,4437.78815,N,01057.00197,E,0.041,,140422,,,A*7C

$GPGGA,135235.00,4437.78815,N,01057.00197,E,1,10,0.85,34.7,M,46.0,M,,*6A

$GPRMC,135235.10,A,4437.78814,N,01057.00197,E,0.042,,140422,,,A*7F

$GPRMC,135235.20,A,4437.78814,N,01057.00197,E,0.080,,140422,,,A*72

$GPRMC,135235.30,A,4437.78813,N,01057.00198,E,0.113,,140422,,,A*70

$GPRMC,135235.40,A,4437.78813,N,01057.00197,E,0.017,,140422,,,A*7D

$GPRMC,135235.50,A,4437.78813,N,01057.00197,E,0.064,,140422,,,A*78

$GPRMC,135235.60,A,4437.78812,N,01057.00197,E,0.020,,140422,,,A*7A

$GPRMC,135235.70,A,4437.78812,N,01057.00197,E,0.080,,140422,,,A*71

$GPRMC,135235.80,A,4437.78812,N,01057.00197,E,0.106,,140422,,,A*71

$GPRMC,135235.90,A,4437.78812,N,01057.00197,E,0.031,,140422,,,A*75

$GPRMC,135236.00,A,4437.78811,N,01057.00196,E,0.029,,140422,,,A*74

$GPGGA,135236.00,4437.78811,N,01057.00196,E,1,10,1.04,34.6,M,46.0,M,,*65

$GPRMC,135236.10,A,4437.78811,N,01057.00196,E,0.031,,140422,,,A*7C

$GPRMC,135236.20,A,4437.78811,N,01057.00196,E,0.092,,140422,,,A*76

$GPRMC,135236.30,A,4437.78810,N,01057.00196,E,0.063,,140422,,,A*78

$GPRMC,135236.40,A,4437.78810,N,01057.00195,E,0.061,,140422,,,A*7E

$GPRMC,135236.50,A,4437.78809,N,01057.00195,E,0.077,,140422,,,A*70

$GPRMC,135236.60,A,4437.78809,N,01057.00195,E,0.055,,140422,,,A*73

$GPRMC,135236.70,A,4437.78808,N,01057.00194,E,0.064,,140422,,,A*70

$GPRMC,135236.80,A,4437.78807,N,01057.00194,E,0.103,,140422,,,A*70

$GPRMC,135236.90,A,4437.78807,N,01057.00194,E,0.081,,140422,,,A*7A

$GPRMC,135237.00,A,4437.78806,N,01057.00194,E,0.097,,140422,,,A*74

$GPGGA,135237.00,4437.78806,N,01057.00194,E,1,10,0.85,34.4,M,46.0,M,,*6A

$GPRMC,135237.10,A,4437.78805,N,01057.00194,E,0.099,,140422,,,A*78

$GPRMC,135237.20,A,4437.78804,N,01057.00193,E,0.098,,140422,,,A*7C

$GPRMC,135237.30,A,4437.78803,N,01057.00194,E,0.086,,140422,,,A*72

$GPRMC,135237.40,A,4437.78802,N,01057.00194,E,0.037,,140422,,,A*7E

$GPRMC,135237.50,A,4437.78800,N,01057.00194,E,0.013,,140422,,,A*7B

$GPRMC,135237.60,A,4437.78799,N,01057.00193,E,0.065,,140422,,,A*71

$GPRMC,135237.70,A,4437.78798,N,01057.00194,E,0.084,,140422,,,A*79

$GPRMC,135237.80,A,4437.78798,N,01057.00194,E,0.088,,140422,,,A*7A

$GPRMC,135237.90,A,4437.78797,N,01057.00195,E,0.055,,140422,,,A*75

$GPRMC,135238.00,A,4437.78797,N,01057.00195,E,0.102,,140422,,,A*70

$GPGGA,135238.00,4437.78797,N,01057.00195,E,1,10,1.12,34.4,M,46.0,M,,*6C

$GPRMC,135238.10,A,4437.78796,N,01057.00196,E,0.074,,140422,,,A*73

$GPRMC,135238.20,A,4437.78795,N,01057.00196,E,0.023,,140422,,,A*71

$GPRMC,135238.30,A,4437.78795,N,01057.00197,E,0.029,,140422,,,A*7B

$GPRMC,135238.40,A,4437.78794,N,01057.00197,E,0.082,,140422,,,A*7C

$GPRMC,135238.50,A,4437.78794,N,01057.00197,E,0.035,,140422,,,A*71

$GPRMC,135238.60,A,4437.78793,N,01057.00197,E,0.066,,140422,,,A*73

$GPRMC,135238.70,A,4437.78792,N,01057.00198,E,0.039,,140422,,,A*76

$GPRMC,135238.80,A,4437.78793,N,01057.00198,E,0.068,,140422,,,A*7C

$GPRMC,135238.90,A,4437.78792,N,01057.00198,E,0.034,,140422,,,A*75

$GPRMC,135239.00,A,4437.78792,N,01057.00198,E,0.042,,140422,,,A*7C

$GPGGA,135239.00,4437.78792,N,01057.00198,E,1,10,1.12,34.4,M,46.0,M,,*65

$GPRMC,135239.10,A,4437.78791,N,01057.00199,E,0.008,,140422,,,A*71

$GPRMC,135239.20,A,4437.78790,N,01057.00199,E,0.047,,140422,,,A*78

$GPRMC,135239.30,A,4437.78790,N,01057.00199,E,0.015,,140422,,,A*7E

$GPRMC,135239.40,A,4437.78790,N,01057.00199,E,0.041,,140422,,,A*78

$GPRMC,135239.50,A,4437.78790,N,01057.00198,E,0.116,,140422,,,A*7B

$GPRMC,135239.60,A,4437.78789,N,01057.00198,E,0.043,,140422,,,A*71

$GPRMC,135239.70,A,4437.78789,N,01057.00198,E,0.058,,140422,,,A*7A

$GPRMC,135239.80,A,4437.78789,N,01057.00198,E,0.035,,140422,,,A*7E

$GPRMC,135239.90,A,4437.78789,N,01057.00197,E,0.155,,140422,,,A*77

$GPRMC,135240.00,A,4437.78789,N,01057.00197,E,0.070,,140422,,,A*76

$GPGGA,135240.00,4437.78789,N,01057.00197,E,1,10,1.12,34.3,M,46.0,M,,*69

$GPRMC,135240.10,A,4437.78788,N,01057.00196,E,0.180,,140422,,,A*79

$GPRMC,135240.20,A,4437.78787,N,01057.00196,E,0.123,,140422,,,A*7C

$GPRMC,135240.30,A,4437.78786,N,01057.00196,E,0.166,,140422,,,A*7D

$GPRMC,135240.40,A,4437.78787,N,01057.00195,E,0.145,,140422,,,A*79

$GPRMC,135240.50,A,4437.78786,N,01057.00195,E,0.067,,140422,,,A*78

$GPRMC,135240.60,A,4437.78785,N,01057.00195,E,0.086,,140422,,,A*77

$GPRMC,135240.70,A,4437.78785,N,01057.00194,E,0.156,,140422,,,A*7B

$GPRMC,135240.80,A,4437.78784,N,01057.00194,E,0.090,,140422,,,A*7E

$GPRMC,135240.90,A,4437.78783,N,01057.00192,E,0.091,,140422,,,A*7F

$GPRMC,135241.00,A,4437.78782,N,01057.00191,E,0.096,,140422,,,A*72

$GPGGA,135241.00,4437.78782,N,01057.00191,E,1,10,1.12,34.3,M,46.0,M,,*65

$GPRMC,135241.10,A,4437.78780,N,01057.00191,E,0.028,,140422,,,A*74

$GPRMC,135241.20,A,4437.78779,N,01057.00190,E,0.103,,140422,,,A*78

$GPRMC,135241.30,A,4437.78777,N,01057.00189,E,0.025,,140422,,,A*7A

$GPRMC,135241.40,A,4437.78776,N,01057.00188,E,0.154,,140422,,,A*7A

$GPRMC,135241.50,A,4437.78775,N,01057.00188,E,0.080,,140422,,,A*70

$GPRMC,135241.60,A,4437.78773,N,01057.00188,E,0.085,,140422,,,A*70

$GPRMC,135241.70,A,4437.78773,N,01057.00188,E,0.195,,140422,,,A*71

$GPRMC,135241.80,A,4437.78773,N,01057.00187,E,0.062,,140422,,,A*78

$GPRMC,135241.90,A,4437.78772,N,01057.00187,E,0.070,,140422,,,A*7B

$GPRMC,135242.00,A,4437.78772,N,01057.00186,E,0.140,,140422,,,A*72

$GPGGA,135242.00,4437.78772,N,01057.00186,E,1,10,1.39,34.4,M,46.0,M,,*61

$GPRMC,135242.10,A,4437.78772,N,01057.00185,E,0.062,,140422,,,A*71

$GPRMC,135242.20,A,4437.78771,N,01057.00184,E,0.169,,140422,,,A*7A

$GPRMC,135242.30,A,4437.78771,N,01057.00184,E,0.149,,140422,,,A*79

$GPRMC,135242.40,A,4437.78771,N,01057.00183,E,0.030,,140422,,,A*76

$GPRMC,135242.50,A,4437.78770,N,01057.00183,E,0.038,,140422,,,A*7E

$GPRMC,135242.60,A,4437.78771,N,01057.00183,E,0.205,,140422,,,A*70

$GPRMC,135242.70,A,4437.78770,N,01057.00183,E,0.115,,140422,,,A*72

$GPRMC,135242.80,A,4437.78770,N,01057.00182,E,0.136,,140422,,,A*7D

$GPRMC,135242.90,A,4437.78771,N,01057.00182,E,0.108,,140422,,,A*70

$GPRMC,135243.00,A,4437.78771,N,01057.00181,E,0.104,,140422,,,A*77

$GPGGA,135243.00,4437.78771,N,01057.00181,E,1,10,1.12,34.3,M,46.0,M,,*6A

$GPRMC,135243.10,A,4437.78772,N,01057.00180,E,0.026,,140422,,,A*75

$GPRMC,135243.20,A,4437.78772,N,01057.00179,E,0.029,,140422,,,A*7F

$GPRMC,135243.30,A,4437.78772,N,01057.00179,E,0.043,,140422,,,A*72

$GPRMC,135243.40,A,4437.78772,N,01057.00178,E,0.074,,140422,,,A*70

$GPRMC,135243.50,A,4437.78771,N,01057.00178,E,0.039,,140422,,,A*7B

$GPRMC,135243.60,A,4437.78771,N,01057.00177,E,0.032,,140422,,,A*7C

$GPRMC,135243.70,A,4437.78770,N,01057.00177,E,0.008,,140422,,,A*75

$GPRMC,135243.80,A,4437.78769,N,01057.00177,E,0.088,,140422,,,A*7A

$GPRMC,135243.90,A,4437.78768,N,01057.00177,E,0.083,,140422,,,A*71

$GPRMC,135244.00,A,4437.78768,N,01057.00178,E,0.171,,140422,,,A*7C

$GPGGA,135244.00,4437.78768,N,01057.00178,E,1,10,0.91,34.2,M,46.0,M,,*68

$GPRMC,135244.10,A,4437.78767,N,01057.00179,E,0.345,122.33,140422,,,A*69

$GPRMC,135244.20,A,4437.78768,N,01057.00181,E,0.721,60.07,140422,,,A*54

$GPRMC,135244.30,A,4437.78771,N,01057.00182,E,0.903,42.76,140422,,,A*56

$GPRMC,135244.40,A,4437.78774,N,01057.00185,E,1.259,31.97,140422,,,A*5D

$GPRMC,135244.50,A,4437.78776,N,01057.00188,E,1.354,36.15,140422,,,A*52

$GPRMC,135244.60,A,4437.78779,N,01057.00189,E,0.897,34.38,140422,,,A*57

$GPRMC,135244.70,A,4437.78781,N,01057.00193,E,1.563,37.82,140422,,,A*5F

$GPRMC,135244.80,A,4437.78791,N,01057.00203,E,4.299,32.61,140422,,,A*54

$GPRMC,135244.90,A,4437.78803,N,01057.00217,E,5.139,35.16,140422,,,A*5B

$GPRMC,135245.00,A,4437.78808,N,01057.00225,E,3.878,36.05,140422,,,A*52

$GPGGA,135245.00,4437.78808,N,01057.00225,E,1,09,1.39,34.3,M,46.0,M,,*61

$GPRMC,135245.10,A,4437.78815,N,01057.00234,E,3.704,38.23,140422,,,A*51

$GPRMC,135245.20,A,4437.78822,N,01057.00244,E,3.704,40.66,140422,,,A*5F

$GPRMC,135245.30,A,4437.78830,N,01057.00250,E,3.363,39.19,140422,,,A*5B

$GPRMC,135245.40,A,4437.78837,N,01057.00253,E,2.429,37.78,140422,,,A*59

$GPRMC,135245.50,A,4437.78845,N,01057.00268,E,5.217,36.90,140422,,,A*5E

$GPRMC,135245.60,A,4437.78858,N,01057.00283,E,6.139,35.81,140422,,,A*5B

$GPRMC,135245.70,A,4437.78865,N,01057.00298,E,5.368,40.29,140422,,,A*5B

$GPRMC,135245.80,A,4437.78875,N,01057.00310,E,4.599,43.62,140422,,,A*51

$GPRMC,135245.90,A,4437.78872,N,01057.00316,E,3.441,42.91,140422,,,A*5F

$GPRMC,135246.00,A,4437.78883,N,01057.00327,E,4.170,42.59,140422,,,A*5D

$GPGGA,135246.00,4437.78883,N,01057.00327,E,1,09,1.39,34.8,M,46.0,M,,*69

$GPRMC,135246.10,A,4437.78890,N,01057.00340,E,4.335,45.08,140422,,,A*5F

$GPRMC,135246.20,A,4437.78901,N,01057.00355,E,4.815,46.93,140422,,,A*59

$GPRMC,135246.30,A,4437.78912,N,01057.00366,E,5.053,42.44,140422,,,A*5F

$GPRMC,135246.40,A,4437.78924,N,01057.00377,E,5.090,39.06,140422,,,A*58

$GPRMC,135246.50,A,4437.78932,N,01057.00389,E,4.770,40.53,140422,,,A*59

$GPRMC,135246.60,A,4437.78943,N,01057.00400,E,4.692,41.19,140422,,,A*58

$GPRMC,135246.70,A,4437.78950,N,01057.00415,E,5.046,44.42,140422,,,A*5A

$GPRMC,135246.80,A,4437.78958,N,01057.00418,E,3.962,36.59,140422,,,A*56

$GPRMC,135246.90,A,4437.78965,N,01057.00432,E,4.312,43.17,140422,,,A*53

$GPRMC,135247.00,A,4437.78973,N,01057.00443,E,4.395,42.22,140422,,,A*52

$GPGGA,135247.00,4437.78973,N,01057.00443,E,1,09,1.04,35.2,M,46.0,M,,*66

$GPRMC,135247.10,A,4437.78977,N,01057.00452,E,3.962,42.30,140422,,,A*51

$GPRMC,135247.20,A,4437.78988,N,01057.00463,E,4.323,41.17,140422,,,A*5E

$GPRMC,135247.30,A,4437.78999,N,01057.00474,E,4.818,39.84,140422,,,A*5F

$GPRMC,135247.40,A,4437.79011,N,01057.00486,E,4.858,39.59,140422,,,A*59

$GPRMC,135247.50,A,4437.79021,N,01057.00499,E,4.920,40.65,140422,,,A*5A

$GPRMC,135247.60,A,4437.79028,N,01057.00508,E,4.450,40.47,140422,,,A*53

$GPRMC,135247.70,A,4437.79036,N,01057.00522,E,4.859,42.01,140422,,,A*50

$GPRMC,135247.80,A,4437.79045,N,01057.00535,E,4.975,42.36,140422,,,A*56

$GPRMC,135247.90,A,4437.79056,N,01057.00548,E,5.305,41.79,140422,,,A*5B

$GPRMC,135248.00,A,4437.79070,N,01057.00563,E,5.623,41.78,140422,,,A*50

$GPGGA,135248.00,4437.79070,N,01057.00563,E,1,09,1.04,35.8,M,46.0,M,,*6B

$GPRMC,135248.10,A,4437.79082,N,01057.00576,E,5.554,40.78,140422,,,A*5A

$GPRMC,135248.20,A,4437.79096,N,01057.00591,E,5.883,40.84,140422,,,A*51

$GPRMC,135248.30,A,4437.79109,N,01057.00605,E,5.791,39.76,140422,,,A*56

$GPRMC,135248.40,A,4437.79123,N,01057.00618,E,5.744,39.23,140422,,,A*5D

$GPRMC,135248.50,A,4437.79136,N,01057.00635,E,5.891,41.10,140422,,,A*5F

$GPRMC,135248.60,A,4437.79149,N,01057.00653,E,6.113,45.07,140422,,,A*56

$GPRMC,135248.70,A,4437.79162,N,01057.00670,E,6.298,44.88,140422,,,A*59

$GPRMC,135248.80,A,4437.79175,N,01057.00688,E,6.414,45.37,140422,,,A*50

$GPRMC,135248.90,A,4437.79189,N,01057.00707,E,6.852,44.65,140422,,,A*5C

$GPRMC,135249.00,A,4437.79203,N,01057.00728,E,6.866,47.29,140422,,,A*54

$GPGGA,135249.00,4437.79203,N,01057.00728,E,1,08,1.39,35.8,M,46.0,M,,*6E

$GPRMC,135249.10,A,4437.79216,N,01057.00743,E,6.389,45.05,140422,,,A*5A

$GPRMC,135249.20,A,4437.79230,N,01057.00765,E,7.010,47.43,140422,,,A*5B

$GPRMC,135249.30,A,4437.79245,N,01057.00784,E,7.091,46.44,140422,,,A*58

$GPRMC,135249.40,A,4437.79260,N,01057.00803,E,7.127,45.36,140422,,,A*52

$GPRMC,135249.50,A,4437.79275,N,01057.00823,E,7.393,44.65,140422,,,A*5F

$GPRMC,135249.60,A,4437.79292,N,01057.00845,E,7.635,44.90,140422,,,A*56

$GPRMC,135249.70,A,4437.79305,N,01057.00862,E,7.205,43.76,140422,,,A*55

$GPRMC,135249.80,A,4437.79320,N,01057.00881,E,7.310,42.65,140422,,,A*56

$GPRMC,135249.90,A,4437.79336,N,01057.00901,E,7.399,43.07,140422,,,A*5D

$GPRMC,135250.00,A,4437.79353,N,01057.00920,E,7.560,40.89,140422,,,A*59

$GPGGA,135250.00,4437.79353,N,01057.00920,E,1,09,1.12,35.7,M,46.0,M,,*63

$GPRMC,135250.10,A,4437.79369,N,01057.00940,E,7.841,40.66,140422,,,A*58

$GPRMC,135250.20,A,4437.79386,N,01057.00960,E,7.871,40.32,140422,,,A*5A

$GPRMC,135250.30,A,4437.79403,N,01057.00978,E,7.871,39.37,140422,,,A*53

$GPRMC,135250.40,A,4437.79421,N,01057.01000,E,8.203,40.62,140422,,,A*5D

$GPRMC,135250.50,A,4437.79439,N,01057.01016,E,7.831,37.36,140422,,,A*57

$GPRMC,135250.60,A,4437.79455,N,01057.01036,E,8.116,37.92,140422,,,A*51

$GPRMC,135250.70,A,4437.79473,N,01057.01053,E,8.059,36.35,140422,,,A*51

$GPRMC,135250.80,A,4437.79491,N,01057.01072,E,8.192,36.71,140422,,,A*57

$GPRMC,135250.90,A,4437.79509,N,01057.01091,E,8.050,36.78,140422,,,A*5D

$GPRMC,135251.00,A,4437.79525,N,01057.01112,E,8.110,39.40,140422,,,A*50

$GPGGA,135251.00,4437.79525,N,01057.01112,E,1,10,1.04,35.9,M,46.0,M,,*6C

$GPRMC,135251.10,A,4437.79544,N,01057.01131,E,8.519,37.53,140422,,,A*56

$GPRMC,135251.20,A,4437.79563,N,01057.01148,E,8.418,34.22,140422,,,A*5B

$GPRMC,135251.30,A,4437.79578,N,01057.01167,E,7.813,36.83,140422,,,A*5C

$GPRMC,135251.40,A,4437.79594,N,01057.01181,E,7.401,35.37,140422,,,A*52

$GPRMC,135251.50,A,4437.79609,N,01057.01196,E,7.219,33.55,140422,,,A*5F

$GPRMC,135251.60,A,4437.79626,N,01057.01206,E,7.040,28.58,140422,,,A*52

$GPRMC,135251.70,A,4437.79640,N,01057.01220,E,6.665,30.15,140422,,,A*57

$GPRMC,135251.80,A,4437.79659,N,01057.01228,E,6.638,25.32,140422,,,A*51

$GPRMC,135251.90,A,4437.79674,N,01057.01241,E,6.665,26.49,140422,,,A*57

$GPRMC,135252.00,A,4437.79691,N,01057.01251,E,6.543,25.41,140422,,,A*5B

$GPGGA,135252.00,4437.79691,N,01057.01251,E,1,09,1.39,36.3,M,46.0,M,,*68

$GPRMC,135252.10,A,4437.79711,N,01057.01265,E,7.220,26.66,140422,,,A*51

$GPRMC,135252.20,A,4437.79729,N,01057.01276,E,6.867,24.48,140422,,,A*5D

$GPRMC,135252.30,A,4437.79749,N,01057.01286,E,6.880,22.94,140422,,,A*5B

$GPRMC,135252.40,A,4437.79769,N,01057.01295,E,7.315,19.34,140422,,,A*58

$GPRMC,135252.50,A,4437.79790,N,01057.01300,E,7.245,13.31,140422,,,A*59

$GPRMC,135252.60,A,4437.79813,N,01057.01303,E,7.546,8.13,140422,,,A*63

$GPRMC,135252.70,A,4437.79835,N,01057.01305,E,7.675,3.91,140422,,,A*62

$GPRMC,135252.80,A,4437.79856,N,01057.01305,E,7.502,1.32,140422,,,A*60

$GPRMC,135252.90,A,4437.79879,N,01057.01303,E,7.769,357.02,140422,,,A*66

$GPRMC,135253.00,A,4437.79901,N,01057.01301,E,7.686,355.14,140422,,,A*67

$GPGGA,135253.00,4437.79901,N,01057.01301,E,1,10,0.85,36.1,M,46.0,M,,*67

$GPRMC,135253.10,A,4437.79925,N,01057.01295,E,8.086,350.75,140422,,,A*67

$GPRMC,135253.20,A,4437.79947,N,01057.01288,E,7.919,348.64,140422,,,A*65

$GPRMC,135253.30,A,4437.79969,N,01057.01280,E,7.979,345.25,140422,,,A*6E

$GPRMC,135253.40,A,4437.79993,N,01057.01270,E,8.219,341.57,140422,,,A*60

$GPRMC,135253.50,A,4437.80015,N,01057.01257,E,7.970,337.60,140422,,,A*6B

$GPRMC,135253.60,A,4437.80038,N,01057.01244,E,8.438,335.30,140422,,,A*6C

$GPRMC,135253.70,A,4437.80059,N,01057.01227,E,8.447,331.99,140422,,,A*60

$GPRMC,135253.80,A,4437.80081,N,01057.01211,E,8.500,330.42,140422,,,A*6A

$GPRMC,135253.90,A,4437.80103,N,01057.01193,E,8.615,328.80,140422,,,A*69

$GPRMC,135254.00,A,4437.80125,N,01057.01176,E,8.612,327.39,140422,,,A*62

$GPGGA,135254.00,4437.80125,N,01057.01176,E,1,10,0.85,35.6,M,46.0,M,,*6E

$GPRMC,135254.10,A,4437.80145,N,01057.01156,E,8.638,324.08,140422,,,A*6E

$GPRMC,135254.20,A,4437.80165,N,01057.01136,E,8.579,322.61,140422,,,A*66

$GPRMC,135254.30,A,4437.80184,N,01057.01113,E,8.870,319.89,140422,,,A*65

$GPRMC,135254.40,A,4437.80205,N,01057.01092,E,8.917,319.64,140422,,,A*63

$GPRMC,135254.50,A,4437.80222,N,01057.01068,E,8.838,316.09,140422,,,A*6A

$GPRMC,135254.60,A,4437.80240,N,01057.01042,E,9.147,313.64,140422,,,A*6B

$GPRMC,135254.70,A,4437.80261,N,01057.01017,E,9.377,314.33,140422,,,A*6D

$GPRMC,135254.80,A,4437.80276,N,01057.00991,E,8.924,310.71,140422,,,A*6D

$GPRMC,135254.90,A,4437.80297,N,01057.00965,E,9.440,312.13,140422,,,A*60

$GPRMC,135255.00,A,4437.80314,N,01057.00938,E,9.366,311.05,140422,,,A*6D

$GPGGA,135255.00,4437.80314,N,01057.00938,E,1,10,0.85,35.1,M,46.0,M,,*6B

$GPRMC,135255.10,A,4437.80332,N,01057.00913,E,9.241,310.67,140422,,,A*60

$GPRMC,135255.20,A,4437.80351,N,01057.00886,E,9.357,311.37,140422,,,A*69

$GPRMC,135255.30,A,4437.80369,N,01057.00857,E,9.617,309.42,140422,,,A*65

$GPRMC,135255.40,A,4437.80387,N,01057.00828,E,9.605,308.52,140422,,,A*69

$GPRMC,135255.50,A,4437.80405,N,01057.00799,E,9.756,308.51,140422,,,A*64

$GPRMC,135255.60,A,4437.80422,N,01057.00773,E,9.463,308.66,140422,,,A*67

$GPRMC,135255.70,A,4437.80441,N,01057.00743,E,9.879,309.22,140422,,,A*66

$GPRMC,135255.80,A,4437.80458,N,01057.00713,E,10.017,308.13,140422,,,A*5F

$GPRMC,135255.90,A,4437.80477,N,01057.00684,E,9.852,309.26,140422,,,A*6A

$GPRMC,135256.00,A,4437.80493,N,01057.00656,E,9.857,308.79,140422,,,A*6B

$GPGGA,135256.00,4437.80493,N,01057.00656,E,1,10,1.12,34.9,M,46.0,M,,*61

$GPRMC,135256.10,A,4437.80514,N,01057.00625,E,10.158,309.03,140422,,,A*52

$GPRMC,135256.20,A,4437.80532,N,01057.00595,E,10.117,308.38,140422,,,A*5F

$GPRMC,135256.30,A,4437.80552,N,01057.00567,E,10.218,310.17,140422,,,A*5D

$GPRMC,135256.40,A,4437.80572,N,01057.00537,E,10.170,310.14,140422,,,A*53

$GPRMC,135256.50,A,4437.80592,N,01057.00507,E,10.219,309.72,140422,,,A*5B

$GPRMC,135256.60,A,4437.80610,N,01057.00475,E,10.373,307.88,140422,,,A*53

$GPRMC,135256.70,A,4437.80629,N,01057.00445,E,10.288,308.38,140422,,,A*5A

$GPRMC,135256.80,A,4437.80649,N,01057.00410,E,10.809,307.94,140422,,,A*59

$GPRMC,135256.90,A,4437.80669,N,01057.00380,E,10.693,309.23,140422,,,A*5B

$GPRMC,135257.00,A,4437.80688,N,01057.00348,E,10.653,308.86,140422,,,A*5A

$GPGGA,135257.00,4437.80688,N,01057.00348,E,1,10,0.85,34.4,M,46.0,M,,*60

$GPRMC,135257.10,A,4437.80707,N,01057.00316,E,10.688,307.00,140422,,,A*51

$GPRMC,135257.20,A,4437.80726,N,01057.00280,E,11.070,306.07,140422,,,A*59

$GPRMC,135257.30,A,4437.80745,N,01057.00249,E,10.622,306.59,140422,,,A*53

$GPRMC,135257.40,A,4437.80764,N,01057.00215,E,10.951,305.98,140422,,,A*5B

$GPRMC,135257.50,A,4437.80783,N,01057.00180,E,11.097,305.97,140422,,,A*51

$GPRMC,135257.60,A,4437.80801,N,01057.00145,E,11.036,304.77,140422,,,A*5A

$GPRMC,135257.70,A,4437.80821,N,01057.00109,E,11.346,305.51,140422,,,A*50

$GPRMC,135257.80,A,4437.80840,N,01057.00075,E,11.067,305.28,140422,,,A*5C

$GPRMC,135257.90,A,4437.80861,N,01057.00039,E,11.507,305.93,140422,,,A*55

$GPRMC,135258.00,A,4437.80878,N,01057.00004,E,11.297,304.40,140422,,,A*54

$GPGGA,135258.00,4437.80878,N,01057.00004,E,1,10,0.85,34.0,M,46.0,M,,*61

$GPRMC,135258.10,A,4437.80897,N,01056.99969,E,11.365,305.04,140422,,,A*5A

$GPRMC,135258.20,A,4437.80915,N,01056.99933,E,11.376,305.42,140422,,,A*5D

$GPRMC,135258.30,A,4437.80932,N,01056.99896,E,11.664,303.79,140422,,,A*5F

$GPRMC,135258.40,A,4437.80951,N,01056.99863,E,11.239,306.39,140422,,,A*5A

$GPRMC,135258.50,A,4437.80970,N,01056.99827,E,11.440,306.33,140422,,,A*5A

$GPRMC,135258.60,A,4437.80988,N,01056.99791,E,11.463,305.75,140422,,,A*5C

$GPRMC,135258.70,A,4437.81006,N,01056.99756,E,11.480,305.90,140422,,,A*5E

$GPRMC,135258.80,A,4437.81024,N,01056.99719,E,11.534,305.31,140422,,,A*5F

$GPRMC,135258.90,A,4437.81043,N,01056.99684,E,11.552,305.61,140422,,,A*5F

$GPRMC,135259.00,A,4437.81062,N,01056.99649,E,11.683,306.02,140422,,,A*5C

$GPGGA,135259.00,4437.81062,N,01056.99649,E,1,10,1.12,34.2,M,46.0,M,,*61

$GPRMC,135259.10,A,4437.81079,N,01056.99612,E,11.662,303.92,140422,,,A*5A

$GPRMC,135259.20,A,4437.81101,N,01056.99577,E,11.723,307.19,140422,,,A*54

$GPRMC,135259.30,A,4437.81120,N,01056.99540,E,11.680,305.82,140422,,,A*5A

$GPRMC,135259.40,A,4437.81139,N,01056.99503,E,11.936,305.28,140422,,,A*50

$GPRMC,135259.50,A,4437.81160,N,01056.99467,E,11.903,305.89,140422,,,A*53

$GPRMC,135259.60,A,4437.81182,N,01056.99427,E,12.154,305.59,140422,,,A*5C

$GPRMC,135259.70,A,4437.81205,N,01056.99392,E,12.011,307.89,140422,,,A*57

$GPRMC,135259.80,A,4437.81227,N,01056.99354,E,12.134,307.13,140422,,,A*57

$GPRMC,135259.90,A,4437.81250,N,01056.99316,E,12.113,307.92,140422,,,A*5C

$GPRMC,135300.00,A,4437.81272,N,01056.99275,E,12.513,306.54,140422,,,A*53

$GPGGA,135300.00,4437.81272,N,01056.99275,E,1,09,1.21,33.8,M,46.0,M,,*61

$GPRMC,135300.10,A,4437.81294,N,01056.99242,E,12.258,308.87,140422,,,A*56

$GPRMC,135300.20,A,4437.81315,N,01056.99204,E,12.375,307.52,140422,,,A*56

$GPRMC,135300.30,A,4437.81338,N,01056.99166,E,12.533,309.10,140422,,,A*53

$GPRMC,135300.40,A,4437.81361,N,01056.99129,E,12.594,308.97,140422,,,A*50

$GPRMC,135300.50,A,4437.81384,N,01056.99089,E,12.617,307.68,140422,,,A*56

$GPRMC,135300.60,A,4437.81407,N,01056.99052,E,12.714,308.87,140422,,,A*53

$GPRMC,135300.70,A,4437.81430,N,01056.99014,E,12.740,308.04,140422,,,A*5E

$GPRMC,135300.80,A,4437.81453,N,01056.98976,E,12.657,307.78,140422,,,A*5B

$GPRMC,135300.90,A,4437.81473,N,01056.98940,E,12.498,307.38,140422,,,A*58

$GPRMC,135301.00,A,4437.81494,N,01056.98901,E,12.884,307.12,140422,,,A*55

$GPGGA,135301.00,4437.81494,N,01056.98901,E,1,10,0.91,33.7,M,46.0,M,,*6A

$GPRMC,135301.10,A,4437.81516,N,01056.98866,E,12.448,309.91,140422,,,A*56

$GPRMC,135301.20,A,4437.81539,N,01056.98827,E,12.734,309.40,140422,,,A*59

$GPRMC,135301.30,A,4437.81562,N,01056.98788,E,13.137,309.10,140422,,,A*5D

$GPRMC,135301.40,A,4437.81586,N,01056.98751,E,12.911,310.49,140422,,,A*5D

$GPRMC,135301.50,A,4437.81608,N,01056.98710,E,12.970,308.58,140422,,,A*52

$GPRMC,135301.60,A,4437.81636,N,01056.98673,E,13.344,312.75,140422,,,A*50

$GPRMC,135301.70,A,4437.81659,N,01056.98634,E,12.988,310.72,140422,,,A*55

$GPRMC,135301.80,A,4437.81684,N,01056.98597,E,13.093,312.34,140422,,,A*52

$GPRMC,135301.90,A,4437.81710,N,01056.98557,E,13.498,312.37,140422,,,A*5F

$GPRMC,135302.00,A,4437.81730,N,01056.98517,E,13.095,308.51,140422,,,A*51

$GPGGA,135302.00,4437.81730,N,01056.98517,E,1,10,0.91,33.6,M,46.0,M,,*6E

$GPRMC,135302.10,A,4437.81754,N,01056.98477,E,13.435,309.18,140422,,,A*57

$GPRMC,135302.20,A,4437.81779,N,01056.98437,E,13.385,309.41,140422,,,A*5F

$GPRMC,135302.30,A,4437.81802,N,01056.98399,E,13.192,310.16,140422,,,A*50

$GPRMC,135302.40,A,4437.81825,N,01056.98358,E,13.467,308.90,140422,,,A*57

$GPRMC,135302.50,A,4437.81850,N,01056.98320,E,13.249,310.70,140422,,,A*56

$GPRMC,135302.60,A,4437.81873,N,01056.98279,E,13.378,308.61,140422,,,A*53

$GPRMC,135302.70,A,4437.81897,N,01056.98239,E,13.437,309.31,140422,,,A*54

$GPRMC,135302.80,A,4437.81920,N,01056.98201,E,13.268,309.50,140422,,,A*56

$GPRMC,135302.90,A,4437.81942,N,01056.98161,E,13.210,308.66,140422,,,A*5D

$GPRMC,135303.00,A,4437.81967,N,01056.98121,E,13.443,309.36,140422,,,A*52

$GPGGA,135303.00,4437.81967,N,01056.98121,E,1,10,0.91,33.6,M,46.0,M,,*62

$GPRMC,135303.10,A,4437.81988,N,01056.98082,E,13.171,307.55,140422,,,A*55

$GPRMC,135303.20,A,4437.82011,N,01056.98041,E,13.351,308.05,140422,,,A*59

$GPRMC,135303.30,A,4437.82034,N,01056.98002,E,13.268,308.31,140422,,,A*54

$GPRMC,135303.40,A,4437.82056,N,01056.97961,E,13.220,307.04,140422,,,A*51

$GPRMC,135303.50,A,4437.82079,N,01056.97919,E,13.456,307.27,140422,,,A*54

$GPRMC,135303.60,A,4437.82101,N,01056.97879,E,13.392,307.35,140422,,,A*52

$GPRMC,135303.70,A,4437.82124,N,01056.97838,E,13.422,307.24,140422,,,A*5D

$GPRMC,135303.80,A,4437.82145,N,01056.97796,E,13.467,306.18,140422,,,A*51

$GPRMC,135303.90,A,4437.82169,N,01056.97756,E,13.305,308.52,140422,,,A*51

$GPRMC,135304.00,A,4437.82191,N,01056.97713,E,13.593,306.25,140422,,,A*5E

$GPGGA,135304.00,4437.82191,N,01056.97713,E,1,09,0.89,33.8,M,46.0,M,,*60

$GPRMC,135304.10,A,4437.82213,N,01056.97674,E,13.405,307.10,140422,,,A*5F

$GPRMC,135304.20,A,4437.82237,N,01056.97634,E,13.362,308.46,140422,,,A*54

$GPRMC,135304.30,A,4437.82256,N,01056.97592,E,13.154,305.02,140422,,,A*57

$GPRMC,135304.40,A,4437.82278,N,01056.97555,E,12.641,307.25,140422,,,A*52

$GPRMC,135304.50,A,4437.82297,N,01056.97517,E,12.410,305.10,140422,,,A*56

$GPRMC,135304.60,A,4437.82318,N,01056.97480,E,12.173,306.14,140422,,,A*5B

$GPRMC,135304.70,A,4437.82336,N,01056.97443,E,11.908,304.99,140422,,,A*59

$GPRMC,135304.80,A,4437.82355,N,01056.97407,E,11.595,304.61,140422,,,A*5C

$GPRMC,135304.90,A,4437.82371,N,01056.97372,E,11.078,303.96,140422,,,A*57

$GPRMC,135305.00,A,4437.82388,N,01056.97336,E,11.229,302.07,140422,,,A*56

$GPGGA,135305.00,4437.82388,N,01056.97336,E,1,10,0.85,33.9,M,46.0,M,,*6D

$GPRMC,135305.10,A,4437.82404,N,01056.97299,E,10.893,300.59,140422,,,A*53

$GPRMC,135305.20,A,4437.82416,N,01056.97268,E,10.459,299.70,140422,,,A*5D

$GPRMC,135305.30,A,4437.82426,N,01056.97233,E,10.319,295.36,140422,,,A*5C

$GPRMC,135305.40,A,4437.82440,N,01056.97193,E,10.171,294.79,140422,,,A*54

$GPRMC,135305.50,A,4437.82447,N,01056.97161,E,9.751,290.38,140422,,,A*62

$GPRMC,135305.60,A,4437.82454,N,01056.97129,E,9.574,288.26,140422,,,A*6C

$GPRMC,135305.70,A,4437.82462,N,01056.97091,E,9.676,286.00,140422,,,A*61

$GPRMC,135305.80,A,4437.82466,N,01056.97057,E,9.043,282.04,140422,,,A*60

$GPRMC,135305.90,A,4437.82469,N,01056.97023,E,9.098,279.04,140422,,,A*6F

$GPRMC,135306.00,A,4437.82472,N,01056.96990,E,8.953,275.68,140422,,,A*66

$GPGGA,135306.00,4437.82472,N,01056.96990,E,1,09,1.04,33.9,M,46.0,M,,*6B

$GPRMC,135306.10,A,4437.82472,N,01056.96957,E,8.682,272.53,140422,,,A*60

$GPRMC,135306.20,A,4437.82473,N,01056.96925,E,8.490,271.03,140422,,,A*60

$GPRMC,135306.30,A,4437.82472,N,01056.96890,E,8.534,267.59,140422,,,A*68

$GPRMC,135306.40,A,4437.82470,N,01056.96860,E,8.263,264.77,140422,,,A*68

$GPRMC,135306.50,A,4437.82466,N,01056.96828,E,8.204,259.93,140422,,,A*67

$GPRMC,135306.60,A,4437.82461,N,01056.96799,E,7.905,256.62,140422,,,A*62

$GPRMC,135306.70,A,4437.82456,N,01056.96767,E,8.122,254.96,140422,,,A*6D

$GPRMC,135306.80,A,4437.82450,N,01056.96739,E,7.797,252.19,140422,,,A*69

$GPRMC,135306.90,A,4437.82443,N,01056.96710,E,7.801,249.74,140422,,,A*60

$GPRMC,135307.00,A,4437.82434,N,01056.96685,E,7.520,246.83,140422,,,A*6C

$GPGGA,135307.00,4437.82434,N,01056.96685,E,1,10,1.07,33.7,M,46.0,M,,*66

$GPRMC,135307.10,A,4437.82428,N,01056.96659,E,7.443,247.55,140422,,,A*6F

$GPRMC,135307.20,A,4437.82418,N,01056.96633,E,7.518,243.06,140422,,,A*6E

$GPRMC,135307.30,A,4437.82407,N,01056.96611,E,7.095,238.82,140422,,,A*61

$GPRMC,135307.40,A,4437.82398,N,01056.96588,E,6.951,239.33,140422,,,A*6F

$GPRMC,135307.50,A,4437.82388,N,01056.96568,E,6.565,235.70,140422,,,A*61

$GPRMC,135307.60,A,4437.82378,N,01056.96548,E,6.565,234.54,140422,,,A*68

$GPRMC,135307.70,A,4437.82367,N,01056.96528,E,6.525,232.34,140422,,,A*65

$GPRMC,135307.80,A,4437.82355,N,01056.96511,E,6.258,227.88,140422,,,A*6F

$GPRMC,135307.90,A,4437.82346,N,01056.96491,E,6.166,229.18,140422,,,A*6C

$GPRMC,135308.00,A,4437.82336,N,01056.96474,E,6.112,228.99,140422,,,A*6D

$GPGGA,135308.00,4437.82336,N,01056.96474,E,1,10,0.88,33.4,M,46.0,M,,*65

$GPRMC,135308.10,A,4437.82326,N,01056.96458,E,5.576,226.56,140422,,,A*6B

$GPRMC,135308.20,A,4437.82314,N,01056.96441,E,5.895,223.09,140422,,,A*6E

$GPRMC,135308.30,A,4437.82304,N,01056.96429,E,5.422,220.80,140422,,,A*62

$GPRMC,135308.40,A,4437.82293,N,01056.96417,E,5.257,216.93,140422,,,A*64

$GPRMC,135308.50,A,4437.82281,N,01056.96403,E,5.463,217.82,140422,,,A*63

$GPRMC,135308.60,A,4437.82272,N,01056.96392,E,5.117,217.50,140422,,,A*6A

$GPRMC,135308.70,A,4437.82262,N,01056.96383,E,4.710,215.59,140422,,,A*61

$GPRMC,135308.80,A,4437.82250,N,01056.96375,E,4.954,211.68,140422,,,A*6E

$GPRMC,135308.90,A,4437.82237,N,01056.96358,E,6.081,215.24,140422,,,A*6E

$GPRMC,135309.00,A,4437.82222,N,01056.96351,E,5.845,209.78,140422,,,A*6C

$GPGGA,135309.00,4437.82222,N,01056.96351,E,1,10,0.88,33.4,M,46.0,M,,*60

$GPRMC,135309.10,A,4437.82209,N,01056.96342,E,5.621,206.56,140422,,,A*69

$GPRMC,135309.20,A,4437.82194,N,01056.96335,E,6.007,202.72,140422,,,A*6E

$GPRMC,135309.30,A,4437.82180,N,01056.96328,E,5.825,200.66,140422,,,A*6A

$GPRMC,135309.40,A,4437.82165,N,01056.96323,E,5.850,197.86,140422,,,A*6C

$GPRMC,135309.50,A,4437.82153,N,01056.96318,E,5.710,197.69,140422,,,A*6A

$GPRMC,135309.60,A,4437.82145,N,01056.96319,E,4.904,196.08,140422,,,A*63

$GPRMC,135309.70,A,4437.82135,N,01056.96314,E,4.865,198.01,140422,,,A*69

$GPRMC,135309.80,A,4437.82128,N,01056.96311,E,4.413,199.40,140422,,,A*66

$GPRMC,135309.90,A,4437.82146,N,01056.96316,E,1.752,203.79,140422,,,A*61

$GPRMC,135310.00,A,4437.82158,N,01056.96318,E,1.751,242.09,140422,,,A*60

$GPGGA,135310.00,4437.82158,N,01056.96318,E,1,10,0.88,35.7,M,46.0,M,,*6E

$GPRMC,135310.10,A,4437.82163,N,01056.96319,E,1.607,251.46,140422,,,A*63

$GPRMC,135310.20,A,4437.82172,N,01056.96317,E,1.952,280.29,140422,,,A*64

$GPRMC,135310.30,A,4437.82178,N,01056.96314,E,1.920,282.94,140422,,,A*6D

$GPRMC,135310.40,A,4437.82182,N,01056.96311,E,1.919,282.08,140422,,,A*65

$GPRMC,135310.50,A,4437.82184,N,01056.96305,E,2.078,274.94,140422,,,A*66

$GPRMC,135310.60,A,4437.82182,N,01056.96294,E,2.403,263.79,140422,,,A*67

$GPRMC,135310.70,A,4437.82177,N,01056.96282,E,2.914,251.28,140422,,,A*65

$GPRMC,135310.80,A,4437.82175,N,01056.96270,E,2.959,249.55,140422,,,A*6F

$GPRMC,135310.90,A,4437.82166,N,01056.96242,E,4.615,251.10,140422,,,A*64

$GPRMC,135311.00,A,4437.82158,N,01056.96225,E,4.379,247.12,140422,,,A*6A

$GPGGA,135311.00,4437.82158,N,01056.96225,E,1,10,0.88,39.2,M,46.0,M,,*69

$GPRMC,135311.10,A,4437.82150,N,01056.96204,E,4.698,246.00,140422,,,A*68

$GPRMC,135311.20,A,4437.82139,N,01056.96187,E,4.791,241.03,140422,,,A*60

$GPRMC,135311.30,A,4437.82128,N,01056.96164,E,5.536,240.32,140422,,,A*61

$GPRMC,135311.40,A,4437.82117,N,01056.96147,E,5.239,236.22,140422,,,A*63

$GPRMC,135311.50,A,4437.82106,N,01056.96131,E,5.182,231.74,140422,,,A*64

$GPRMC,135311.60,A,4437.82096,N,01056.96115,E,5.181,228.56,140422,,,A*62

$GPRMC,135311.70,A,4437.82086,N,01056.96097,E,5.442,229.09,140422,,,A*68

$GPRMC,135311.80,A,4437.82073,N,01056.96081,E,5.812,226.12,140422,,,A*66

$GPRMC,135311.90,A,4437.82064,N,01056.96063,E,5.566,226.93,140422,,,A*6A

$GPRMC,135312.00,A,4437.82050,N,01056.96039,E,6.333,229.40,140422,,,A*6C

$GPGGA,135312.00,4437.82050,N,01056.96039,E,1,10,0.85,40.3,M,46.0,M,,*6E

$GPRMC,135312.10,A,4437.82028,N,01056.96015,E,6.889,227.84,140422,,,A*60

$GPRMC,135312.20,A,4437.82016,N,01056.95991,E,6.809,229.34,140422,,,A*65

$GPRMC,135312.30,A,4437.81997,N,01056.95967,E,7.221,228.49,140422,,,A*64

$GPRMC,135312.40,A,4437.81982,N,01056.95944,E,7.113,228.14,140422,,,A*6C

$GPRMC,135312.50,A,4437.81963,N,01056.95921,E,7.429,227.08,140422,,,A*6F

$GPRMC,135312.60,A,4437.81949,N,01056.95898,E,7.408,226.54,140422,,,A*6C

$GPRMC,135312.70,A,4437.81930,N,01056.95875,E,7.560,226.33,140422,,,A*6E

$GPRMC,135312.80,A,4437.81912,N,01056.95851,E,7.863,226.00,140422,,,A*69

$GPRMC,135312.90,A,4437.81899,N,01056.95830,E,7.767,225.28,140422,,,A*6F

$GPRMC,135313.00,A,4437.81882,N,01056.95810,E,7.892,223.17,140422,,,A*60

$GPGGA,135313.00,4437.81882,N,01056.95810,E,1,10,0.91,40.3,M,46.0,M,,*6E

$GPRMC,135313.10,A,4437.81866,N,01056.95788,E,8.018,222.90,140422,,,A*6E

$GPRMC,135313.20,A,4437.81847,N,01056.95767,E,8.242,221.35,140422,,,A*6E

$GPRMC,135313.30,A,4437.81830,N,01056.95746,E,8.322,220.48,140422,,,A*60

$GPRMC,135313.40,A,4437.81809,N,01056.95723,E,8.519,220.48,140422,,,A*60

$GPRMC,135313.50,A,4437.81789,N,01056.95697,E,8.648,221.88,140422,,,A*62

$GPRMC,135313.60,A,4437.81770,N,01056.95676,E,8.449,220.42,140422,,,A*6C

$GPRMC,135313.70,A,4437.81750,N,01056.95653,E,8.756,219.96,140422,,,A*66

$GPRMC,135313.80,A,4437.81734,N,01056.95630,E,8.589,220.51,140422,,,A*6F

$GPRMC,135313.90,A,4437.81718,N,01056.95606,E,8.700,221.63,140422,,,A*66

$GPRMC,135314.00,A,4437.81696,N,01056.95581,E,9.032,222.37,140422,,,A*66

$GPGGA,135314.00,4437.81696,N,01056.95581,E,1,10,0.96,40.7,M,46.0,M,,*64

$GPRMC,135314.10,A,4437.81676,N,01056.95557,E,9.043,221.81,140422,,,A*6A

$GPRMC,135314.20,A,4437.81651,N,01056.95532,E,9.488,220.81,140422,,,A*6D

$GPRMC,135314.30,A,4437.81630,N,01056.95508,E,9.504,220.76,140422,,,A*6F

$GPRMC,135314.40,A,4437.81605,N,01056.95484,E,9.682,220.00,140422,,,A*67

$GPRMC,135314.50,A,4437.81583,N,01056.95461,E,9.823,219.05,140422,,,A*6A

$GPRMC,135314.60,A,4437.81564,N,01056.95435,E,9.895,220.40,140422,,,A*67

$GPRMC,135314.70,A,4437.81541,N,01056.95412,E,9.825,219.72,140422,,,A*64

$GPRMC,135314.80,A,4437.81520,N,01056.95389,E,9.917,218.57,140422,,,A*6F

$GPRMC,135314.90,A,4437.81499,N,01056.95366,E,9.905,218.05,140422,,,A*68

$GPRMC,135315.00,A,4437.81479,N,01056.95343,E,9.858,217.76,140422,,,A*6B

$GPGGA,135315.00,4437.81479,N,01056.95343,E,1,10,0.90,41.0,M,46.0,M,,*6E

$GPRMC,135315.10,A,4437.81460,N,01056.95320,E,9.764,217.97,140422,,,A*68

$GPRMC,135315.20,A,4437.81442,N,01056.95294,E,9.779,219.89,140422,,,A*68

$GPRMC,135315.30,A,4437.81422,N,01056.95270,E,9.741,219.90,140422,,,A*66

$GPRMC,135315.40,A,4437.81404,N,01056.95246,E,9.731,219.92,140422,,,A*65

$GPRMC,135315.50,A,4437.81384,N,01056.95220,E,9.842,220.77,140422,,,A*61

$GPRMC,135315.60,A,4437.81363,N,01056.95196,E,9.844,220.27,140422,,,A*66

$GPRMC,135315.70,A,4437.81341,N,01056.95167,E,10.179,221.78,140422,,,A*5D

$GPRMC,135315.80,A,4437.81320,N,01056.95138,E,10.083,222.68,140422,,,A*59

$GPRMC,135315.90,A,4437.81298,N,01056.95109,E,10.323,223.14,140422,,,A*5B

$GPRMC,135316.00,A,4437.81280,N,01056.95080,E,10.146,223.84,140422,,,A*50

$GPGGA,135316.00,4437.81280,N,01056.95080,E,1,09,0.88,41.7,M,46.0,M,,*67

$GPRMC,135316.10,A,4437.81261,N,01056.95050,E,10.230,225.01,140422,,,A*5A

$GPRMC,135316.20,A,4437.81243,N,01056.95020,E,10.230,225.57,140422,,,A*5D

$GPRMC,135316.30,A,4437.81219,N,01056.94992,E,10.465,224.56,140422,,,A*54

$GPRMC,135316.40,A,4437.81198,N,01056.94963,E,10.325,223.61,140422,,,A*57

$GPRMC,135316.50,A,4437.81175,N,01056.94934,E,10.553,223.15,140422,,,A*53

$GPRMC,135316.60,A,4437.81151,N,01056.94905,E,10.639,222.52,140422,,,A*59

$GPRMC,135316.70,A,4437.81124,N,01056.94877,E,10.755,221.53,140422,,,A*57

$GPRMC,135316.80,A,4437.81096,N,01056.94849,E,10.963,220.56,140422,,,A*52

$GPRMC,135316.90,A,4437.81070,N,01056.94820,E,11.017,220.11,140422,,,A*5C

$GPRMC,135317.00,A,4437.81042,N,01056.94792,E,11.119,219.75,140422,,,A*54

$GPGGA,135317.00,4437.81042,N,01056.94792,E,1,09,0.91,41.6,M,46.0,M,,*66

$GPRMC,135317.10,A,4437.81016,N,01056.94764,E,11.156,218.83,140422,,,A*5E

$GPRMC,135317.20,A,4437.80988,N,01056.94737,E,11.473,217.70,140422,,,A*55

$GPRMC,135317.30,A,4437.80959,N,01056.94710,E,11.420,217.58,140422,,,A*51

$GPRMC,135317.40,A,4437.80938,N,01056.94682,E,11.202,218.33,140422,,,A*5F

$GPRMC,135317.50,A,4437.80916,N,01056.94655,E,11.235,218.50,140422,,,A*59

$GPRMC,135317.60,A,4437.80894,N,01056.94627,E,11.283,219.23,140422,,,A*5C

$GPRMC,135317.70,A,4437.80871,N,01056.94599,E,11.208,219.67,140422,,,A*53

$GPRMC,135317.80,A,4437.80848,N,01056.94573,E,11.087,219.00,140422,,,A*56

$GPRMC,135317.90,A,4437.80825,N,01056.94546,E,10.910,219.34,140422,,,A*5B

$GPRMC,135318.00,A,4437.80801,N,01056.94518,E,11.270,219.30,140422,,,A*58

$GPGGA,135318.00,4437.80801,N,01056.94518,E,1,10,0.91,42.0,M,46.0,M,,*6A

$GPRMC,135318.10,A,4437.80776,N,01056.94492,E,11.149,218.68,140422,,,A*50

$GPRMC,135318.20,A,4437.80750,N,01056.94464,E,11.293,218.94,140422,,,A*59

$GPRMC,135318.30,A,4437.80723,N,01056.94436,E,11.435,219.03,140422,,,A*5E

$GPRMC,135318.40,A,4437.80698,N,01056.94408,E,11.255,219.12,140422,,,A*55

$GPRMC,135318.50,A,4437.80673,N,01056.94379,E,11.644,219.41,140422,,,A*52

$GPRMC,135318.60,A,4437.80639,N,01056.94351,E,11.913,217.85,140422,,,A*5E

$GPRMC,135318.70,A,4437.80617,N,01056.94323,E,11.670,217.84,140422,,,A*5D

$GPRMC,135318.80,A,4437.80593,N,01056.94294,E,11.960,218.43,140422,,,A*5A

$GPRMC,135318.90,A,4437.80561,N,01056.94265,E,12.023,217.21,140422,,,A*5E

$GPRMC,135319.00,A,4437.80536,N,01056.94237,E,11.985,217.11,140422,,,A*56

$GPGGA,135319.00,4437.80536,N,01056.94237,E,1,08,1.21,42.2,M,46.0,M,,*69

$GPRMC,135319.10,A,4437.80505,N,01056.94207,E,12.504,215.86,140422,,,A*5E

$GPRMC,135319.20,A,4437.80472,N,01056.94177,E,12.554,214.24,140422,,,A*54

$GPRMC,135319.30,A,4437.80446,N,01056.94147,E,12.396,216.44,140422,,,A*5D

$GPRMC,135319.40,A,4437.80419,N,01056.94117,E,12.526,216.58,140422,,,A*55

$GPRMC,135319.50,A,4437.80395,N,01056.94086,E,12.250,218.00,140422,,,A*5B

$GPRMC,135319.60,A,4437.80364,N,01056.94057,E,12.605,216.41,140422,,,A*55

$GPRMC,135319.70,A,4437.80343,N,01056.94025,E,12.087,219.53,140422,,,A*54

$GPRMC,135319.80,A,4437.80320,N,01056.93995,E,11.973,220.95,140422,,,A*5A

$GPRMC,135319.90,A,4437.80298,N,01056.93965,E,12.088,221.79,140422,,,A*5B

$GPRMC,135320.00,A,4437.80275,N,01056.93935,E,11.984,221.94,140422,,,A*5B

$GPGGA,135320.00,4437.80275,N,01056.93935,E,1,08,1.21,42.4,M,46.0,M,,*6B

$GPRMC,135320.10,A,4437.80250,N,01056.93903,E,11.989,222.12,140422,,,A*58

$GPRMC,135320.20,A,4437.80224,N,01056.93875,E,11.995,220.58,140422,,,A*59

$GPRMC,135320.30,A,4437.80200,N,01056.93842,E,12.331,222.08,140422,,,A*5A

$GPRMC,135320.40,A,4437.80176,N,01056.93812,E,11.915,221.95,140422,,,A*52

$GPRMC,135320.50,A,4437.80153,N,01056.93782,E,11.969,221.73,140422,,,A*51

$GPRMC,135320.60,A,4437.80127,N,01056.93751,E,12.169,220.98,140422,,,A*50

$GPRMC,135320.70,A,4437.80099,N,01056.93722,E,12.287,219.45,140422,,,A*58

$GPRMC,135320.80,A,4437.80074,N,01056.93692,E,12.095,219.54,140422,,,A*5F

$GPRMC,135320.90,A,4437.80050,N,01056.93664,E,12.033,219.42,140422,,,A*5A

$GPRMC,135321.00,A,4437.80025,N,01056.93634,E,12.095,219.41,140422,,,A*5A

$GPGGA,135321.00,4437.80025,N,01056.93634,E,1,08,1.35,42.9,M,46.0,M,,*6B

$GPRMC,135321.10,A,4437.80000,N,01056.93605,E,12.021,219.60,140422,,,A*52

$GPRMC,135321.20,A,4437.79975,N,01056.93578,E,12.026,219.06,140422,,,A*52

$GPRMC,135321.30,A,4437.79952,N,01056.93554,E,11.795,218.27,140422,,,A*56

$GPRMC,135321.40,A,4437.79934,N,01056.93525,E,11.666,220.04,140422,,,A*50

$GPRMC,135321.50,A,4437.79912,N,01056.93498,E,11.730,220.25,140422,,,A*53

$GPRMC,135321.60,A,4437.79884,N,01056.93469,E,11.782,219.68,140422,,,A*5A

$GPRMC,135321.70,A,4437.79857,N,01056.93443,E,11.751,218.37,140422,,,A*58

$GPRMC,135321.80,A,4437.79833,N,01056.93415,E,12.005,218.34,140422,,,A*50

$GPRMC,135321.90,A,4437.79809,N,01056.93389,E,11.598,218.14,140422,,,A*5A

$GPRMC,135322.00,A,4437.79788,N,01056.93364,E,11.776,218.43,140422,,,A*55

$GPGGA,135322.00,4437.79788,N,01056.93364,E,1,09,1.21,44.0,M,46.0,M,,*65

$GPRMC,135322.10,A,4437.79769,N,01056.93337,E,11.533,219.37,140422,,,A*5C

$GPRMC,135322.20,A,4437.79746,N,01056.93317,E,11.224,217.92,140422,,,A*50

$GPRMC,135322.30,A,4437.79730,N,01056.93289,E,11.450,219.54,140422,,,A*57

$GPRMC,135322.40,A,4437.79712,N,01056.93268,E,11.015,219.34,140422,,,A*5C

$GPRMC,135322.50,A,4437.79690,N,01056.93241,E,11.200,219.89,140422,,,A*5D

$GPRMC,135322.60,A,4437.79668,N,01056.93211,E,11.091,221.13,140422,,,A*5E

$GPRMC,135322.70,A,4437.79648,N,01056.93183,E,10.971,222.05,140422,,,A*57

$GPRMC,135322.80,A,4437.79623,N,01056.93152,E,11.101,222.63,140422,,,A*57

$GPRMC,135322.90,A,4437.79597,N,01056.93127,E,11.044,221.12,140422,,,A*5D

$GPRMC,135323.00,A,4437.79573,N,01056.93102,E,11.179,220.22,140422,,,A*55

$GPGGA,135323.00,4437.79573,N,01056.93102,E,1,06,2.07,45.9,M,46.0,M,,*60

$GPRMC,135323.10,A,4437.79550,N,01056.93073,E,11.111,220.70,140422,,,A*5B

$GPRMC,135323.20,A,4437.79527,N,01056.93046,E,10.981,220.80,140422,,,A*51

$GPRMC,135323.30,A,4437.79498,N,01056.93021,E,11.545,218.59,140422,,,A*5E

$GPRMC,135323.40,A,4437.79475,N,01056.92992,E,10.854,218.93,140422,,,A*50

$GPRMC,135323.50,A,4437.79447,N,01056.92969,E,11.051,217.19,140422,,,A*55

$GPRMC,135323.60,A,4437.79428,N,01056.92938,E,11.323,219.00,140422,,,A*5B

$GPRMC,135323.70,A,4437.79405,N,01056.92911,E,11.124,219.62,140422,,,A*5F

$GPRMC,135323.80,A,4437.79380,N,01056.92886,E,10.951,218.90,140422,,,A*52

$GPRMC,135323.90,A,4437.79352,N,01056.92860,E,11.166,217.58,140422,,,A*52

$GPRMC,135324.00,A,4437.79325,N,01056.92832,E,11.274,216.88,140422,,,A*57

$GPGGA,135324.00,4437.79325,N,01056.92832,E,1,05,2.13,47.0,M,46.0,M,,*64

$GPRMC,135324.10,A,4437.79302,N,01056.92801,E,11.353,218.32,140422,,,A*58

$GPRMC,135324.20,A,4437.79268,N,01056.92779,E,11.393,215.14,140422,,,A*53

$GPRMC,135324.30,A,4437.79248,N,01056.92748,E,11.550,216.77,140422,,,A*5D

$GPRMC,135324.40,A,4437.79226,N,01056.92719,E,11.491,218.45,140422,,,A*55

$GPRMC,135324.50,A,4437.79206,N,01056.92687,E,11.323,220.98,140422,,,A*55

$GPRMC,135324.60,A,4437.79184,N,01056.92658,E,11.332,221.82,140422,,,A*57

$GPRMC,135324.70,A,4437.79162,N,01056.92627,E,11.359,222.33,140422,,,A*52

$GPRMC,135324.80,A,4437.79142,N,01056.92596,E,11.447,223.05,140422,,,A*5A

$GPRMC,135324.90,A,4437.79119,N,01056.92567,E,11.246,223.12,140422,,,A*5A

$GPRMC,135325.00,A,4437.79094,N,01056.92534,E,11.459,223.51,140422,,,A*5F

$GPGGA,135325.00,4437.79094,N,01056.92534,E,1,04,4.32,48.4,M,46.0,M,,*68

$GPRMC,135325.10,A,4437.79065,N,01056.92501,E,11.673,222.90,140422,,,A*50

$GPRMC,135325.20,A,4437.79038,N,01056.92465,E,11.752,223.28,140422,,,A*58

$GPRMC,135325.30,A,4437.79014,N,01056.92428,E,11.857,224.13,140422,,,A*5B

$GPRMC,135325.40,A,4437.78987,N,01056.92391,E,11.897,224.72,140422,,,A*50

$GPRMC,135325.50,A,4437.78960,N,01056.92353,E,11.952,225.37,140422,,,A*5E

$GPRMC,135325.60,A,4437.78931,N,01056.92317,E,11.982,225.44,140422,,,A*50

$GPRMC,135325.70,A,4437.78901,N,01056.92283,E,11.965,224.93,140422,,,A*5C

$GPRMC,135325.80,A,4437.78876,N,01056.92246,E,12.078,225.01,140422,,,A*57

$GPRMC,135325.90,A,4437.78860,N,01056.92210,E,11.990,226.07,140422,,,A*5B

$GPRMC,135326.00,A,4437.78851,N,01056.92172,E,12.096,227.98,140422,,,A*5F

$GPGGA,135326.00,4437.78851,N,01056.92172,E,1,08,1.07,48.9,M,46.0,M,,*6F

$GPRMC,135326.10,A,4437.78841,N,01056.92135,E,11.902,230.06,140422,,,A*5A

$GPRMC,135326.20,A,4437.78833,N,01056.92093,E,12.003,232.65,140422,,,A*5D

$GPRMC,135326.30,A,4437.78830,N,01056.92052,E,11.673,235.77,140422,,,A*54

$GPRMC,135326.40,A,4437.78831,N,01056.92003,E,11.999,239.73,140422,,,A*55

$GPRMC,135326.50,A,4437.78804,N,01056.91992,E,11.359,235.62,140422,,,A*5A

$GPRMC,135326.60,A,4437.78793,N,01056.91968,E,10.588,233.59,140422,,,A*58

$GPRMC,135326.70,A,4437.78791,N,01056.91934,E,10.706,233.94,140422,,,A*57

$GPRMC,135326.80,A,4437.78794,N,01056.91895,E,11.039,236.47,140422,,,A*56

$GPRMC,135326.90,A,4437.78828,N,01056.91843,E,11.399,248.66,140422,,,A*57

$GPRMC,135327.00,A,4437.78832,N,01056.91803,E,11.616,251.87,140422,,,A*55

$GPGGA,135327.00,4437.78832,N,01056.91803,E,1,09,1.07,53.5,M,46.0,M,,*60

$GPRMC,135327.10,A,4437.78834,N,01056.91764,E,11.404,253.45,140422,,,A*51

$GPRMC,135327.20,A,4437.78831,N,01056.91731,E,10.744,253.67,140422,,,A*51

$GPRMC,135327.30,A,4437.78815,N,01056.91736,E,8.684,247.63,140422,,,A*64

$GPRMC,135327.40,A,4437.78819,N,01056.91706,E,8.783,244.58,140422,,,A*61

$GPRMC,135327.50,A,4437.78826,N,01056.91680,E,8.841,244.27,140422,,,A*6A

$GPRMC,135327.60,A,4437.78818,N,01056.91657,E,8.610,242.35,140422,,,A*61

$GPRMC,135327.70,A,4437.78834,N,01056.91611,E,9.448,248.75,140422,,,A*6C

$GPRMC,135327.80,A,4437.78822,N,01056.91590,E,9.032,246.76,140422,,,A*6A

$GPRMC,135327.90,A,4437.78824,N,01056.91556,E,8.837,248.49,140422,,,A*69

$GPRMC,135328.00,A,4437.78823,N,01056.91523,E,8.697,251.22,140422,,,A*6B

$GPGGA,135328.00,4437.78823,N,01056.91523,E,1,10,0.88,59.1,M,46.0,M,,*60

$GPRMC,135328.10,A,4437.78819,N,01056.91490,E,8.879,252.57,140422,,,A*65

$GPRMC,135328.20,A,4437.78808,N,01056.91454,E,8.956,252.73,140422,,,A*64

$GPRMC,135328.30,A,4437.78799,N,01056.91417,E,8.971,253.99,140422,,,A*65

$GPRMC,135328.40,A,4437.78791,N,01056.91387,E,8.905,253.50,140422,,,A*62

$GPRMC,135328.50,A,4437.78788,N,01056.91354,E,8.732,254.48,140422,,,A*61

$GPRMC,135328.60,A,4437.78788,N,01056.91319,E,8.863,255.85,140422,,,A*60

$GPRMC,135328.70,A,4437.78780,N,01056.91289,E,8.811,255.39,140422,,,A*63

$GPRMC,135328.80,A,4437.78774,N,01056.91262,E,8.174,255.76,140422,,,A*63

$GPRMC,135328.90,A,4437.78831,N,01056.91240,E,7.769,264.45,140422,,,A*6B

$GPRMC,135329.00,A,4437.78828,N,01056.91209,E,8.198,266.74,140422,,,A*61

$GPGGA,135329.00,4437.78828,N,01056.91209,E,1,09,0.87,64.5,M,46.0,M,,*68

$GPRMC,135329.10,A,4437.78821,N,01056.91178,E,8.206,267.30,140422,,,A*69

$GPRMC,135329.20,A,4437.78809,N,01056.91155,E,7.636,266.38,140422,,,A*6E

$GPRMC,135329.30,A,4437.78800,N,01056.91129,E,6.961,267.83,140422,,,A*60

$GPRMC,135329.40,A,4437.78790,N,01056.91104,E,6.753,268.88,140422,,,A*65

$GPRMC,135329.50,A,4437.78778,N,01056.91084,E,6.290,268.96,140422,,,A*6E

$GPRMC,135329.60,A,4437.78794,N,01056.91070,E,5.419,278.15,140422,,,A*6A

$GPRMC,135329.70,A,4437.78778,N,01056.91053,E,5.331,276.48,140422,,,A*63

$GPRMC,135329.80,A,4437.78764,N,01056.91036,E,5.044,273.80,140422,,,A*62

$GPRMC,135329.90,A,4437.78754,N,01056.91011,E,5.064,274.78,140422,,,A*67

$GPRMC,135330.00,A,4437.78742,N,01056.90992,E,4.817,274.22,140422,,,A*60

$GPGGA,135330.00,4437.78742,N,01056.90992,E,1,10,0.85,67.7,M,46.0,M,,*60

$GPRMC,135330.10,A,4437.78736,N,01056.90970,E,4.836,276.94,140422,,,A*62

$GPRMC,135330.20,A,4437.78728,N,01056.90953,E,4.584,279.50,140422,,,A*6C

$GPRMC,135330.30,A,4437.78714,N,01056.90939,E,4.118,280.36,140422,,,A*69

$GPRMC,135330.40,A,4437.78699,N,01056.90927,E,3.844,280.31,140422,,,A*65

$GPRMC,135330.50,A,4437.78682,N,01056.90918,E,3.176,280.60,140422,,,A*6E

$GPRMC,135330.60,A,4437.78667,N,01056.90910,E,2.540,279.81,140422,,,A*67

$GPRMC,135330.70,A,4437.78654,N,01056.90900,E,2.316,276.74,140422,,,A*67

$GPRMC,135330.80,A,4437.78640,N,01056.90888,E,2.149,272.16,140422,,,A*64

$GPRMC,135330.90,A,4437.78631,N,01056.90877,E,1.843,273.97,140422,,,A*6B

$GPRMC,135331.00,A,4437.78618,N,01056.90875,E,1.154,271.37,140422,,,A*6D

$GPGGA,135331.00,4437.78618,N,01056.90875,E,1,10,1.04,68.8,M,46.0,M,,*6F

$GPRMC,135331.10,A,4437.78599,N,01056.90877,E,1.117,,140422,,,A*7D

$GPRMC,135331.20,A,4437.78584,N,01056.90875,E,0.534,,140422,,,A*74

$GPRMC,135331.30,A,4437.78573,N,01056.90868,E,0.248,,140422,,,A*7D

$GPRMC,135331.40,A,4437.78565,N,01056.90861,E,0.064,,140422,,,A*78

$GPRMC,135331.50,A,4437.78555,N,01056.90851,E,0.537,,140422,,,A*7A

$GPRMC,135331.60,A,4437.78543,N,01056.90837,E,1.334,284.15,140422,,,A*6E

$GPRMC,135331.70,A,4437.78524,N,01056.90831,E,1.644,270.10,140422,,,A*64

$GPRMC,135331.80,A,4437.78501,N,01056.90827,E,2.455,242.78,140422,,,A*65

$GPRMC,135331.90,A,4437.78487,N,01056.90821,E,1.738,237.15,140422,,,A*6F

$GPRMC,135332.00,A,4437.78475,N,01056.90813,E,1.383,234.20,140422,,,A*68

$GPGGA,135332.00,4437.78475,N,01056.90813,E,1,10,0.88,68.5,M,46.0,M,,*6D

$GPRMC,135332.10,A,4437.78463,N,01056.90801,E,1.616,236.01,140422,,,A*65

$GPRMC,135332.20,A,4437.78446,N,01056.90793,E,0.812,,140422,,,A*76

$GPRMC,135332.30,A,4437.78392,N,01056.90801,E,4.902,183.34,140422,,,A*6A

$GPRMC,135332.40,A,4437.78367,N,01056.90791,E,4.716,189.00,140422,,,A*67

$GPRMC,135332.50,A,4437.78351,N,01056.90777,E,4.130,194.48,140422,,,A*69

$GPRMC,135332.60,A,4437.78335,N,01056.90764,E,4.233,201.63,140422,,,A*6C

$GPRMC,135332.70,A,4437.78320,N,01056.90749,E,3.999,208.01,140422,,,A*67

$GPRMC,135332.80,A,4437.78309,N,01056.90734,E,3.734,212.70,140422,,,A*6D

$GPRMC,135332.90,A,4437.78296,N,01056.90721,E,4.274,215.28,140422,,,A*63

$GPRMC,135333.00,A,4437.78281,N,01056.90708,E,4.868,215.72,140422,,,A*6E

$GPGGA,135333.00,4437.78281,N,01056.90708,E,1,10,0.88,67.6,M,46.0,M,,*68

$GPRMC,135333.10,A,4437.78269,N,01056.90687,E,4.785,219.85,140422,,,A*67

$GPRMC,135333.20,A,4437.78256,N,01056.90673,E,4.572,222.90,140422,,,A*65

$GPRMC,135333.30,A,4437.78247,N,01056.90653,E,4.810,227.22,140422,,,A*63

$GPRMC,135333.40,A,4437.78252,N,01056.90643,E,4.206,233.93,140422,,,A*63

$GPRMC,135333.50,A,4437.78241,N,01056.90623,E,4.643,239.77,140422,,,A*63

$GPRMC,135333.60,A,4437.78223,N,01056.90607,E,4.898,240.54,140422,,,A*65

$GPRMC,135333.70,A,4437.78185,N,01056.90606,E,5.437,225.17,140422,,,A*66

$GPRMC,135333.80,A,4437.78160,N,01056.90594,E,5.349,219.36,140422,,,A*68

$GPRMC,135333.90,A,4437.78145,N,01056.90581,E,5.136,218.21,140422,,,A*67

$GPRMC,135334.00,A,4437.78133,N,01056.90561,E,5.269,221.36,140422,,,A*63

$GPGGA,135334.00,4437.78133,N,01056.90561,E,1,10,0.88,67.9,M,46.0,M,,*67

$GPRMC,135334.10,A,4437.78121,N,01056.90542,E,5.390,225.24,140422,,,A*60

$GPRMC,135334.20,A,4437.78112,N,01056.90522,E,5.576,228.90,140422,,,A*69

$GPRMC,135334.30,A,4437.78100,N,01056.90505,E,5.226,231.11,140422,,,A*6D

$GPRMC,135334.40,A,4437.78087,N,01056.90486,E,5.669,231.84,140422,,,A*6D

$GPRMC,135334.50,A,4437.78070,N,01056.90471,E,5.781,231.97,140422,,,A*69

$GPRMC,135334.60,A,4437.78052,N,01056.90465,E,5.121,229.47,140422,,,A*67

$GPRMC,135334.70,A,4437.78041,N,01056.90451,E,5.270,229.19,140422,,,A*6F

$GPRMC,135334.80,A,4437.78042,N,01056.90456,E,4.141,229.90,140422,,,A*65

$GPRMC,135334.90,A,4437.78031,N,01056.90443,E,4.754,231.45,140422,,,A*67

$GPRMC,135335.00,A,4437.78019,N,01056.90430,E,4.843,231.07,140422,,,A*6E

$GPGGA,135335.00,4437.78019,N,01056.90430,E,1,09,0.87,69.6,M,46.0,M,,*6C

$GPRMC,135335.10,A,4437.78019,N,01056.90415,E,4.816,238.34,140422,,,A*61

$GPRMC,135335.20,A,4437.78009,N,01056.90401,E,5.017,238.09,140422,,,A*60

$GPRMC,135335.30,A,4437.77995,N,01056.90394,E,4.741,230.68,140422,,,A*63

$GPRMC,135335.40,A,4437.77985,N,01056.90377,E,4.845,229.81,140422,,,A*6C

$GPRMC,135335.50,A,4437.77973,N,01056.90364,E,5.156,228.17,140422,,,A*62

$GPRMC,135335.60,A,4437.77960,N,01056.90352,E,5.185,226.55,140422,,,A*60

$GPRMC,135335.70,A,4437.77948,N,01056.90340,E,4.495,225.68,140422,,,A*60

$GPRMC,135335.80,A,4437.77937,N,01056.90329,E,4.816,224.46,140422,,,A*62

$GPRMC,135335.90,A,4437.77928,N,01056.90315,E,4.889,226.20,140422,,,A*66

$GPRMC,135336.00,A,4437.77917,N,01056.90305,E,4.495,226.11,140422,,,A*62

$GPGGA,135336.00,4437.77917,N,01056.90305,E,1,09,0.87,72.1,M,46.0,M,,*6B

$GPRMC,135336.10,A,4437.77905,N,01056.90290,E,4.764,227.23,140422,,,A*60

$GPRMC,135336.20,A,4437.77892,N,01056.90279,E,4.829,226.14,140422,,,A*68

$GPRMC,135336.30,A,4437.77884,N,01056.90266,E,4.675,227.72,140422,,,A*66

$GPRMC,135336.40,A,4437.77875,N,01056.90254,E,4.415,228.32,140422,,,A*61

$GPRMC,135336.50,A,4437.77867,N,01056.90244,E,4.661,227.36,140422,,,A*68

$GPRMC,135336.60,A,4437.77859,N,01056.90235,E,4.516,226.51,140422,,,A*63

$GPRMC,135336.70,A,4437.77853,N,01056.90223,E,4.230,229.28,140422,,,A*6D

$GPRMC,135336.80,A,4437.77857,N,01056.90219,E,3.467,232.33,140422,,,A*6C

$GPRMC,135336.90,A,4437.77861,N,01056.90216,E,2.960,237.62,140422,,,A*6D

$GPRMC,135337.00,A,4437.77856,N,01056.90204,E,3.306,244.67,140422,,,A*68

$GPGGA,135337.00,4437.77856,N,01056.90204,E,1,10,0.85,75.8,M,46.0,M,,*6A

$GPRMC,135337.10,A,4437.77849,N,01056.90193,E,3.728,242.15,140422,,,A*61

$GPRMC,135337.20,A,4437.77838,N,01056.90185,E,3.801,236.99,140422,,,A*60

$GPRMC,135337.30,A,4437.77830,N,01056.90172,E,3.408,239.07,140422,,,A*6C

$GPRMC,135337.40,A,4437.77822,N,01056.90157,E,3.782,239.45,140422,,,A*68

$GPRMC,135337.50,A,4437.77810,N,01056.90147,E,3.860,235.79,140422,,,A*69

$GPRMC,135337.60,A,4437.77800,N,01056.90133,E,3.744,236.72,140422,,,A*69

$GPRMC,135337.70,A,4437.77787,N,01056.90128,E,3.689,229.50,140422,,,A*6C

$GPRMC,135337.80,A,4437.77777,N,01056.90105,E,4.205,233.73,140422,,,A*6E

$GPRMC,135337.90,A,4437.77767,N,01056.90085,E,4.378,238.17,140422,,,A*65

$GPRMC,135338.00,A,4437.77754,N,01056.90065,E,4.766,240.17,140422,,,A*69

$GPGGA,135338.00,4437.77754,N,01056.90065,E,1,10,0.89,78.7,M,46.0,M,,*63

$GPRMC,135338.10,A,4437.77743,N,01056.90044,E,4.836,242.03,140422,,,A*60

$GPRMC,135338.20,A,4437.77733,N,01056.90021,E,5.040,245.25,140422,,,A*6C

$GPRMC,135338.30,A,4437.77714,N,01056.90016,E,4.476,237.09,140422,,,A*67

$GPRMC,135338.40,A,4437.77697,N,01056.90004,E,4.504,230.36,140422,,,A*66

$GPRMC,135338.50,A,4437.77691,N,01056.89989,E,4.286,233.11,140422,,,A*6E

$GPRMC,135338.60,A,4437.77679,N,01056.89971,E,4.709,234.71,140422,,,A*6F

$GPRMC,135338.70,A,4437.77669,N,01056.89951,E,5.023,236.43,140422,,,A*60

$GPRMC,135338.80,A,4437.77661,N,01056.89928,E,5.062,241.47,140422,,,A*68

$GPRMC,135338.90,A,4437.77655,N,01056.89904,E,5.489,246.53,140422,,,A*63

$GPRMC,135339.00,A,4437.77649,N,01056.89876,E,6.047,249.33,140422,,,A*6E

$GPGGA,135339.00,4437.77649,N,01056.89876,E,1,10,0.85,81.2,M,46.0,M,,*62

$GPRMC,135339.10,A,4437.77645,N,01056.89847,E,6.242,252.69,140422,,,A*63

$GPRMC,135339.20,A,4437.77642,N,01056.89819,E,6.380,256.21,140422,,,A*6B

$GPRMC,135339.30,A,4437.77637,N,01056.89795,E,6.412,258.49,140422,,,A*6F

$GPRMC,135339.40,A,4437.77632,N,01056.89771,E,6.563,258.58,140422,,,A*60

$GPRMC,135339.50,A,4437.77627,N,01056.89747,E,6.403,258.83,140422,,,A*61

