

$GPRMC,140832.70,A,4437.78839,N,01057.00154,E,0.327,,140422,,,A*76

$GPRMC,140832.80,A,4437.78838,N,01057.00153,E,0.278,,140422,,,A*74

$GPRMC,140832.90,A,4437.78836,N,01057.00151,E,0.123,,140422,,,A*74

$GPRMC,140833.00,A,4437.78835,N,01057.00150,E,0.049,,140422,,,A*73

$GPRMC,140833.10,A,4437.78834,N,01057.00149,E,0.057,,140422,,,A*74

$GPRMC,140833.20,A,4437.78832,N,01057.00147,E,0.086,,140422,,,A*73

$GPRMC,140833.30,A,4437.78830,N,01057.00146,E,0.041,,140422,,,A*7A

$GPRMC,140833.40,A,4437.78827,N,01057.00144,E,0.038,,140422,,,A*77

$GPRMC,140833.50,A,4437.78826,N,01057.00143,E,0.141,,140422,,,A*7F

$GPRMC,140833.60,A,4437.78826,N,01057.00144,E,0.356,,140422,,,A*7F

$GPGGA,140833.60,4437.78826,N,01057.00144,E,1,08,1.44,40.2,M,46.0,M,,*6F

$GPRMC,140833.70,A,4437.78828,N,01057.00146,E,0.846,345.96,140422,,,A*6B

$GPRMC,140833.80,A,4437.78829,N,01057.00148,E,0.917,17.06,140422,,,A*53

$GPRMC,140833.90,A,4437.78830,N,01057.00154,E,1.267,45.04,140422,,,A*5F

$GPRMC,140834.00,A,4437.78833,N,01057.00157,E,1.427,46.53,140422,,,A*52

$GPRMC,140834.10,A,4437.78837,N,01057.00161,E,1.970,38.98,140422,,,A*53

$GPRMC,140834.20,A,4437.78839,N,01057.00166,E,2.544,27.59,140422,,,A*52

$GPRMC,140834.30,A,4437.78845,N,01057.00175,E,3.161,28.91,140422,,,A*53

$GPRMC,140834.40,A,4437.78849,N,01057.00184,E,2.849,38.08,140422,,,A*55

$GPRMC,140834.50,A,4437.78855,N,01057.00188,E,3.090,33.03,140422,,,A*58

$GPRMC,140834.60,A,4437.78865,N,01057.00199,E,3.745,34.40,140422,,,A*57

$GPGGA,140834.60,4437.78865,N,01057.00199,E,1,08,1.44,40.3,M,46.0,M,,*6E

$GPRMC,140834.70,A,4437.78873,N,01057.00206,E,3.752,33.92,140422,,,A*5A

$GPRMC,140834.80,A,4437.78883,N,01057.00218,E,4.013,37.10,140422,,,A*5E

$GPRMC,140834.90,A,4437.78894,N,01057.00230,E,4.805,35.26,140422,,,A*5B

$GPRMC,140835.00,A,4437.78903,N,01057.00241,E,4.811,35.03,140422,,,A*58

$GPRMC,140835.10,A,4437.78915,N,01057.00254,E,4.996,36.92,140422,,,A*5F

$GPRMC,140835.20,A,4437.78925,N,01057.00264,E,4.941,36.25,140422,,,A*5A

$GPRMC,140835.30,A,4437.78935,N,01057.00277,E,5.104,36.16,140422,,,A*50

$GPRMC,140835.40,A,4437.78948,N,01057.00289,E,5.255,35.01,140422,,,A*5E

$GPRMC,140835.50,A,4437.78958,N,01057.00303,E,5.135,37.16,140422,,,A*5C

$GPRMC,140835.60,A,4437.78970,N,01057.00315,E,5.349,35.84,140422,,,A*52

$GPGGA,140835.60,4437.78970,N,01057.00315,E,1,08,1.44,40.2,M,46.0,M,,*6D

$GPRMC,140835.70,A,4437.78982,N,01057.00325,E,5.461,31.84,140422,,,A*54

$GPRMC,140835.80,A,4437.78994,N,01057.00342,E,5.881,35.14,140422,,,A*52

$GPRMC,140835.90,A,4437.79007,N,01057.00355,E,5.867,34.69,140422,,,A*54

$GPRMC,140836.00,A,4437.79018,N,01057.00369,E,5.892,34.84,140422,,,A*56

$GPRMC,140836.10,A,4437.79032,N,01057.00382,E,5.991,34.44,140422,,,A*54

$GPRMC,140836.30,A,4437.79058,N,01057.00413,E,6.435,36.73,140422,,,A*53

$GPRMC,140836.40,A,4437.79072,N,01057.00428,E,6.535,36.39,140422,,,A*5B

$GPRMC,140836.50,A,4437.79083,N,01057.00448,E,6.521,40.97,140422,,,A*52

$GPRMC,140836.60,A,4437.79098,N,01057.00462,E,6.866,35.78,140422,,,A*5E

$GPRMC,140836.70,A,4437.79113,N,01057.00478,E,6.618,37.10,140422,,,A*5D

$GPGGA,140836.70,4437.79113,N,01057.00478,E,1,09,1.13,40.1,M,46.0,M,,*6F

$GPRMC,140836.80,A,4437.79124,N,01057.00496,E,6.653,39.77,140422,,,A*56

$GPRMC,140836.90,A,4437.79139,N,01057.00514,E,6.801,39.61,140422,,,A*5E

$GPRMC,140837.00,A,4437.79153,N,01057.00532,E,6.876,40.31,140422,,,A*55

$GPRMC,140837.10,A,4437.79164,N,01057.00550,E,6.893,40.68,140422,,,A*53

$GPRMC,140837.30,A,4437.79193,N,01057.00589,E,7.031,44.44,140422,,,A*56

$GPRMC,140837.40,A,4437.79207,N,01057.00607,E,7.308,42.08,140422,,,A*5D

$GPRMC,140837.50,A,4437.79222,N,01057.00628,E,7.479,42.32,140422,,,A*5E

$GPRMC,140837.60,A,4437.79236,N,01057.00650,E,7.625,44.47,140422,,,A*58

$GPRMC,140837.70,A,4437.79253,N,01057.00669,E,7.792,40.99,140422,,,A*5A

$GPRMC,140837.80,A,4437.79268,N,01057.00689,E,7.741,41.02,140422,,,A*5E

$GPGGA,140837.80,4437.79268,N,01057.00689,E,1,09,1.13,40.0,M,46.0,M,,*63

$GPRMC,140837.90,A,4437.79285,N,01057.00709,E,7.894,40.85,140422,,,A*5C

$GPRMC,140838.00,A,4437.79298,N,01057.00730,E,7.866,41.58,140422,,,A*50

$GPRMC,140838.10,A,4437.79314,N,01057.00752,E,7.936,42.84,140422,,,A*56

$GPRMC,140838.30,A,4437.79348,N,01057.00789,E,7.901,38.25,140422,,,A*59

$GPRMC,140838.40,A,4437.79365,N,01057.00809,E,7.969,37.13,140422,,,A*52

$GPRMC,140838.50,A,4437.79384,N,01057.00833,E,8.162,39.05,140422,,,A*50

$GPRMC,140838.60,A,4437.79405,N,01057.00854,E,8.864,36.57,140422,,,A*5B

$GPRMC,140838.70,A,4437.79423,N,01057.00877,E,8.778,37.62,140422,,,A*5A

$GPRMC,140838.80,A,4437.79440,N,01057.00899,E,8.380,39.50,140422,,,A*5C

$GPRMC,140838.90,A,4437.79459,N,01057.00920,E,8.677,37.67,140422,,,A*51

$GPGGA,140838.90,4437.79459,N,01057.00920,E,1,09,0.87,39.7,M,46.0,M,,*60

$GPRMC,140839.00,A,4437.79476,N,01057.00942,E,8.688,37.95,140422,,,A*5D

$GPRMC,140839.10,A,4437.79494,N,01057.00963,E,8.766,37.60,140422,,,A*58

$GPRMC,140839.20,A,4437.79512,N,01057.00983,E,8.463,37.09,140422,,,A*53

$GPRMC,140839.30,A,4437.79530,N,01057.01005,E,8.957,37.11,140422,,,A*57

$GPRMC,140839.40,A,4437.79549,N,01057.01020,E,8.531,34.21,140422,,,A*55

$GPRMC,140839.50,A,4437.79569,N,01057.01041,E,8.566,34.76,140422,,,A*51

$GPRMC,140839.60,A,4437.79587,N,01057.01055,E,8.015,32.67,140422,,,A*50

$GPRMC,140839.70,A,4437.79603,N,01057.01073,E,7.762,34.53,140422,,,A*53

$GPRMC,140839.80,A,4437.79624,N,01057.01089,E,8.456,31.02,140422,,,A*56

$GPRMC,140839.90,A,4437.79642,N,01057.01105,E,8.012,29.71,140422,,,A*5B

$GPGGA,140839.90,4437.79642,N,01057.01105,E,1,09,1.13,39.6,M,46.0,M,,*6A

$GPRMC,140840.00,A,4437.79660,N,01057.01117,E,7.167,28.22,140422,,,A*54

$GPRMC,140840.10,A,4437.79664,N,01057.01123,E,4.849,28.12,140422,,,A*53

$GPRMC,140840.30,A,4437.79696,N,01057.01136,E,6.129,20.62,140422,,,A*5A

$GPRMC,140840.40,A,4437.79713,N,01057.01144,E,6.350,15.93,140422,,,A*50

$GPRMC,140840.50,A,4437.79733,N,01057.01154,E,7.083,15.38,140422,,,A*5F

$GPRMC,140840.60,A,4437.79754,N,01057.01158,E,7.073,10.05,140422,,,A*55

$GPRMC,140840.70,A,4437.79771,N,01057.01165,E,7.044,11.43,140422,,,A*5A

$GPRMC,140840.80,A,4437.79790,N,01057.01169,E,6.872,8.64,140422,,,A*67

$GPRMC,140840.90,A,4437.79811,N,01057.01171,E,7.470,5.00,140422,,,A*69

$GPRMC,140841.00,A,4437.79831,N,01057.01169,E,7.190,359.49,140422,,,A*66

$GPGGA,140841.00,4437.79831,N,01057.01169,E,1,09,0.87,39.5,M,46.0,M,,*63

$GPRMC,140841.10,A,4437.79852,N,01057.01167,E,7.395,356.21,140422,,,A*6A

$GPRMC,140841.20,A,4437.79875,N,01057.01163,E,7.576,351.60,140422,,,A*61

$GPRMC,140841.30,A,4437.79897,N,01057.01159,E,7.584,349.87,140422,,,A*68

$GPRMC,140841.40,A,4437.79918,N,01057.01153,E,7.781,348.00,140422,,,A*6A

$GPRMC,140841.50,A,4437.79941,N,01057.01146,E,7.654,345.11,140422,,,A*67

$GPRMC,140841.60,A,4437.79963,N,01057.01138,E,7.879,342.26,140422,,,A*6F

$GPRMC,140841.70,A,4437.79986,N,01057.01128,E,8.165,339.97,140422,,,A*69

$GPRMC,140841.80,A,4437.80006,N,01057.01117,E,7.770,336.74,140422,,,A*62

$GPRMC,140841.90,A,4437.80028,N,01057.01102,E,8.098,332.47,140422,,,A*61

$GPRMC,140842.00,A,4437.80050,N,01057.01087,E,8.088,329.54,140422,,,A*61

$GPGGA,140842.00,4437.80050,N,01057.01087,E,1,09,0.87,38.8,M,46.0,M,,*64

$GPRMC,140842.10,A,4437.80071,N,01057.01072,E,8.267,328.55,140422,,,A*6A

$GPRMC,140842.20,A,4437.80093,N,01057.01055,E,8.495,326.86,140422,,,A*6B

$GPRMC,140842.30,A,4437.80113,N,01057.01039,E,8.209,325.05,140422,,,A*62

$GPRMC,140842.40,A,4437.80130,N,01057.01020,E,8.108,321.13,140422,,,A*6D

$GPRMC,140842.50,A,4437.80149,N,01057.01002,E,8.179,321.84,140422,,,A*6A

$GPRMC,140842.60,A,4437.80167,N,01057.00981,E,8.405,319.46,140422,,,A*6D

$GPRMC,140842.70,A,4437.80185,N,01057.00961,E,8.555,319.62,140422,,,A*6C

$GPRMC,140842.80,A,4437.80204,N,01057.00939,E,8.811,318.78,140422,,,A*63

$GPRMC,140842.90,A,4437.80222,N,01057.00918,E,8.739,317.61,140422,,,A*67

$GPRMC,140843.00,A,4437.80240,N,01057.00896,E,8.673,315.83,140422,,,A*6D

$GPGGA,140843.00,4437.80240,N,01057.00896,E,1,09,0.87,38.4,M,46.0,M,,*63

$GPRMC,140843.10,A,4437.80261,N,01057.00871,E,9.295,315.77,140422,,,A*60

$GPRMC,140843.20,A,4437.80280,N,01057.00848,E,8.933,315.57,140422,,,A*62

$GPRMC,140843.30,A,4437.80299,N,01057.00824,E,8.904,314.72,140422,,,A*63

$GPRMC,140843.40,A,4437.80318,N,01057.00799,E,9.132,313.44,140422,,,A*6B

$GPRMC,140843.50,A,4437.80335,N,01057.00774,E,9.286,312.65,140422,,,A*68

$GPRMC,140843.60,A,4437.80354,N,01057.00750,E,9.267,314.12,140422,,,A*63

$GPRMC,140843.70,A,4437.80372,N,01057.00725,E,9.395,313.98,140422,,,A*6D

$GPRMC,140843.80,A,4437.80390,N,01057.00698,E,9.487,312.03,140422,,,A*6E

$GPRMC,140843.90,A,4437.80407,N,01057.00672,E,9.374,311.32,140422,,,A*68

$GPRMC,140844.00,A,4437.80425,N,01057.00646,E,9.371,311.79,140422,,,A*6B

$GPGGA,140844.00,4437.80425,N,01057.00646,E,1,09,0.87,37.9,M,46.0,M,,*60

$GPRMC,140844.10,A,4437.80443,N,01057.00621,E,9.649,311.87,140422,,,A*64

$GPRMC,140844.20,A,4437.80463,N,01057.00594,E,9.730,312.55,140422,,,A*6B

$GPRMC,140844.30,A,4437.80482,N,01057.00567,E,9.733,311.80,140422,,,A*61

$GPRMC,140844.40,A,4437.80499,N,01057.00540,E,9.784,311.08,140422,,,A*65

$GPRMC,140844.50,A,4437.80519,N,01057.00513,E,9.993,312.91,140422,,,A*60

$GPRMC,140844.60,A,4437.80538,N,01057.00487,E,9.615,312.24,140422,,,A*63

$GPRMC,140844.70,A,4437.80557,N,01057.00458,E,9.939,310.58,140422,,,A*61

$GPRMC,140844.80,A,4437.80577,N,01057.00430,E,9.998,311.50,140422,,,A*60

$GPRMC,140844.90,A,4437.80596,N,01057.00402,E,10.176,310.85,140422,,,A*56

$GPRMC,140845.00,A,4437.80616,N,01057.00372,E,10.216,310.46,140422,,,A*5F

$GPGGA,140845.00,4437.80616,N,01057.00372,E,1,09,0.87,37.4,M,46.0,M,,*6C

$GPRMC,140845.10,A,4437.80636,N,01057.00342,E,10.237,309.70,140422,,,A*51

$GPRMC,140845.20,A,4437.80656,N,01057.00313,E,10.452,310.52,140422,,,A*5D

$GPRMC,140845.30,A,4437.80675,N,01057.00283,E,10.217,309.29,140422,,,A*56

$GPRMC,140845.40,A,4437.80695,N,01057.00254,E,10.284,309.90,140422,,,A*5D

$GPRMC,140845.50,A,4437.80715,N,01057.00222,E,10.809,308.92,140422,,,A*58

$GPRMC,140845.60,A,4437.80734,N,01057.00190,E,10.587,307.56,140422,,,A*5E

$GPRMC,140845.70,A,4437.80753,N,01057.00159,E,10.701,307.97,140422,,,A*5A

$GPRMC,140845.80,A,4437.80773,N,01057.00127,E,10.710,308.16,140422,,,A*58

$GPRMC,140845.90,A,4437.80793,N,01057.00096,E,10.657,308.59,140422,,,A*55

$GPRMC,140846.00,A,4437.80813,N,01057.00063,E,11.039,307.81,140422,,,A*57

$GPGGA,140846.00,4437.80813,N,01057.00063,E,1,09,0.87,36.7,M,46.0,M,,*65

$GPRMC,140846.10,A,4437.80831,N,01057.00031,E,10.719,307.60,140422,,,A*5A

$GPRMC,140846.20,A,4437.80852,N,01056.99999,E,10.905,309.71,140422,,,A*5B

$GPRMC,140846.30,A,4437.80871,N,01056.99965,E,11.063,307.62,140422,,,A*5C

$GPRMC,140846.40,A,4437.80889,N,01056.99933,E,10.961,307.64,140422,,,A*53

$GPRMC,140846.50,A,4437.80909,N,01056.99899,E,11.175,308.69,140422,,,A*54

$GPRMC,140846.60,A,4437.80927,N,01056.99866,E,11.106,308.59,140422,,,A*5C

$GPRMC,140846.70,A,4437.80946,N,01056.99833,E,11.048,307.70,140422,,,A*55

$GPRMC,140846.80,A,4437.80965,N,01056.99799,E,11.379,307.97,140422,,,A*5C

$GPRMC,140846.90,A,4437.80985,N,01056.99766,E,11.398,308.70,140422,,,A*5A

$GPRMC,140847.00,A,4437.81003,N,01056.99733,E,11.131,307.77,140422,,,A*5D

$GPGGA,140847.00,4437.81003,N,01056.99733,E,1,09,0.87,36.4,M,46.0,M,,*6C

$GPRMC,140847.10,A,4437.81024,N,01056.99700,E,11.595,309.23,140422,,,A*5C

$GPRMC,140847.20,A,4437.81043,N,01056.99667,E,11.233,308.81,140422,,,A*5C

$GPRMC,140847.30,A,4437.81063,N,01056.99632,E,11.506,308.48,140422,,,A*5B

$GPRMC,140847.40,A,4437.81082,N,01056.99600,E,11.252,309.16,140422,,,A*5E

$GPRMC,140847.50,A,4437.81102,N,01056.99564,E,11.807,308.29,140422,,,A*50

$GPRMC,140847.60,A,4437.81123,N,01056.99532,E,11.346,309.86,140422,,,A*59

$GPRMC,140847.70,A,4437.81144,N,01056.99497,E,11.758,308.85,140422,,,A*5E

$GPRMC,140847.80,A,4437.81165,N,01056.99462,E,11.660,309.22,140422,,,A*5E

$GPRMC,140847.90,A,4437.81186,N,01056.99429,E,11.690,309.00,140422,,,A*52

$GPRMC,140848.00,A,4437.81208,N,01056.99392,E,12.008,309.23,140422,,,A*53

$GPGGA,140848.00,4437.81208,N,01056.99392,E,1,09,0.87,36.1,M,46.0,M,,*60

$GPRMC,140848.10,A,4437.81227,N,01056.99358,E,11.949,308.17,140422,,,A*50

$GPRMC,140848.20,A,4437.81248,N,01056.99322,E,11.928,307.91,140422,,,A*51

$GPRMC,140848.30,A,4437.81271,N,01056.99286,E,12.069,309.08,140422,,,A*54

$GPRMC,140848.40,A,4437.81292,N,01056.99252,E,11.739,309.24,140422,,,A*58

$GPRMC,140848.50,A,4437.81312,N,01056.99217,E,11.930,308.13,140422,,,A*53

$GPRMC,140848.60,A,4437.81333,N,01056.99182,E,12.138,308.98,140422,,,A*5C

$GPRMC,140848.70,A,4437.81356,N,01056.99146,E,12.101,310.41,140422,,,A*51

$GPRMC,140848.80,A,4437.81377,N,01056.99111,E,12.173,309.07,140422,,,A*50

$GPRMC,140848.90,A,4437.81401,N,01056.99075,E,12.273,309.90,140422,,,A*59

$GPRMC,140849.00,A,4437.81422,N,01056.99041,E,12.028,309.81,140422,,,A*5B

$GPGGA,140849.00,4437.81422,N,01056.99041,E,1,09,0.87,35.9,M,46.0,M,,*69

$GPRMC,140849.10,A,4437.81443,N,01056.99005,E,12.291,309.42,140422,,,A*52

$GPRMC,140849.20,A,4437.81466,N,01056.98969,E,12.228,309.64,140422,,,A*52

$GPRMC,140849.30,A,4437.81488,N,01056.98933,E,12.306,310.21,140422,,,A*58

$GPRMC,140849.40,A,4437.81511,N,01056.98899,E,12.359,311.26,140422,,,A*53

$GPRMC,140849.50,A,4437.81533,N,01056.98861,E,12.362,310.26,140422,,,A*5C

$GPRMC,140849.60,A,4437.81556,N,01056.98824,E,12.604,310.82,140422,,,A*56

$GPRMC,140849.70,A,4437.81578,N,01056.98789,E,12.470,310.49,140422,,,A*55

$GPRMC,140849.80,A,4437.81600,N,01056.98753,E,12.632,310.54,140422,,,A*59

$GPRMC,140849.90,A,4437.81621,N,01056.98715,E,12.584,310.22,140422,,,A*56

$GPRMC,140850.00,A,4437.81644,N,01056.98676,E,12.941,309.23,140422,,,A*5C

$GPGGA,140850.00,4437.81644,N,01056.98676,E,1,09,1.13,35.9,M,46.0,M,,*6C

$GPRMC,140850.10,A,4437.81666,N,01056.98639,E,12.720,309.04,140422,,,A*5A

$GPRMC,140850.20,A,4437.81688,N,01056.98600,E,12.904,308.18,140422,,,A*57

$GPRMC,140850.30,A,4437.81713,N,01056.98565,E,12.629,311.74,140422,,,A*57

$GPRMC,140850.40,A,4437.81735,N,01056.98526,E,12.837,309.86,140422,,,A*56

$GPRMC,140850.50,A,4437.81757,N,01056.98486,E,13.036,308.79,140422,,,A*51

$GPRMC,140850.60,A,4437.81778,N,01056.98450,E,12.914,308.51,140422,,,A*56

$GPRMC,140850.70,A,4437.81802,N,01056.98413,E,12.752,309.94,140422,,,A*56

$GPRMC,140850.80,A,4437.81825,N,01056.98376,E,12.673,310.32,140422,,,A*5E

$GPRMC,140850.90,A,4437.81846,N,01056.98336,E,13.056,308.26,140422,,,A*52

$GPRMC,140851.00,A,4437.81870,N,01056.98297,E,13.165,309.58,140422,,,A*5C

$GPGGA,140851.00,4437.81870,N,01056.98297,E,1,08,1.07,35.8,M,46.0,M,,*6A

$GPRMC,140851.10,A,4437.81891,N,01056.98258,E,13.014,307.79,140422,,,A*5B

$GPRMC,140851.20,A,4437.81915,N,01056.98221,E,12.916,309.79,140422,,,A*5F

$GPRMC,140851.30,A,4437.81940,N,01056.98184,E,13.038,311.23,140422,,,A*50

$GPRMC,140851.40,A,4437.81962,N,01056.98142,E,13.227,308.48,140422,,,A*54

$GPRMC,140851.50,A,4437.81987,N,01056.98106,E,13.124,311.32,140422,,,A*5B

$GPRMC,140851.60,A,4437.82009,N,01056.98065,E,13.270,308.42,140422,,,A*5D

$GPRMC,140851.70,A,4437.82032,N,01056.98030,E,12.650,309.72,140422,,,A*51

$GPRMC,140851.80,A,4437.82057,N,01056.97986,E,13.339,309.31,140422,,,A*5A

$GPRMC,140851.90,A,4437.82079,N,01056.97947,E,12.959,308.56,140422,,,A*57

$GPRMC,140852.00,A,4437.82101,N,01056.97908,E,13.114,308.08,140422,,,A*53

$GPGGA,140852.00,4437.82101,N,01056.97908,E,1,07,1.14,35.7,M,46.0,M,,*65

$GPRMC,140852.10,A,4437.82123,N,01056.97868,E,13.175,307.79,140422,,,A*5B

$GPRMC,140852.20,A,4437.82146,N,01056.97828,E,13.382,307.95,140422,,,A*57

$GPRMC,140852.30,A,4437.82171,N,01056.97790,E,13.236,310.43,140422,,,A*5D

$GPRMC,140852.40,A,4437.82192,N,01056.97749,E,13.330,307.36,140422,,,A*50

$GPRMC,140852.50,A,4437.82215,N,01056.97709,E,13.354,308.36,140422,,,A*54

$GPRMC,140852.60,A,4437.82238,N,01056.97669,E,13.304,307.88,140422,,,A*50

$GPRMC,140852.70,A,4437.82261,N,01056.97628,E,13.392,307.76,140422,,,A*56

$GPRMC,140852.80,A,4437.82283,N,01056.97588,E,13.257,306.95,140422,,,A*58

$GPRMC,140852.90,A,4437.82305,N,01056.97548,E,13.205,307.45,140422,,,A*51

$GPRMC,140853.00,A,4437.82327,N,01056.97511,E,12.747,307.45,140422,,,A*57

$GPGGA,140853.00,4437.82327,N,01056.97511,E,1,07,1.14,35.7,M,46.0,M,,*66

$GPRMC,140853.10,A,4437.82346,N,01056.97471,E,12.654,305.29,140422,,,A*5D

$GPRMC,140853.20,A,4437.82366,N,01056.97434,E,12.136,306.14,140422,,,A*53

$GPRMC,140853.30,A,4437.82386,N,01056.97396,E,12.259,305.31,140422,,,A*5D

$GPRMC,140853.40,A,4437.82405,N,01056.97359,E,11.872,305.26,140422,,,A*53

$GPRMC,140853.50,A,4437.82423,N,01056.97316,E,11.863,303.23,140422,,,A*5E

$GPRMC,140853.60,A,4437.82439,N,01056.97277,E,11.616,299.46,140422,,,A*5D

$GPRMC,140853.70,A,4437.82454,N,01056.97242,E,11.328,298.92,140422,,,A*51

$GPRMC,140853.80,A,4437.82466,N,01056.97198,E,11.429,294.33,140422,,,A*5A

$GPRMC,140853.90,A,4437.82478,N,01056.97162,E,10.724,292.75,140422,,,A*5A

$GPRMC,140854.00,A,4437.82489,N,01056.97122,E,10.985,291.08,140422,,,A*52

$GPGGA,140854.00,4437.82489,N,01056.97122,E,1,08,1.07,35.5,M,46.0,M,,*69

$GPRMC,140854.10,A,4437.82498,N,01056.97085,E,10.526,287.79,140422,,,A*5B

$GPRMC,140854.20,A,4437.82506,N,01056.97047,E,10.598,285.69,140422,,,A*56

$GPRMC,140854.30,A,4437.82512,N,01056.97010,E,10.220,282.84,140422,,,A*50

$GPRMC,140854.40,A,4437.82517,N,01056.96976,E,9.960,279.64,140422,,,A*67

$GPRMC,140854.50,A,4437.82520,N,01056.96946,E,9.356,276.69,140422,,,A*6C

$GPRMC,140854.60,A,4437.82522,N,01056.96908,E,9.458,274.59,140422,,,A*6F

$GPRMC,140854.70,A,4437.82523,N,01056.96872,E,9.552,271.88,140422,,,A*61

$GPRMC,140854.80,A,4437.82522,N,01056.96836,E,9.146,268.81,140422,,,A*6F

$GPRMC,140854.90,A,4437.82519,N,01056.96802,E,8.932,265.77,140422,,,A*6F

$GPRMC,140855.00,A,4437.82517,N,01056.96771,E,8.494,263.35,140422,,,A*63

$GPGGA,140855.00,4437.82517,N,01056.96771,E,1,09,1.07,35.6,M,46.0,M,,*6D

$GPRMC,140855.10,A,4437.82512,N,01056.96735,E,8.579,260.26,140422,,,A*64

$GPRMC,140855.20,A,4437.82506,N,01056.96706,E,8.379,255.74,140422,,,A*65

$GPRMC,140855.30,A,4437.82500,N,01056.96675,E,7.949,254.61,140422,,,A*64

$GPRMC,140855.40,A,4437.82493,N,01056.96645,E,7.967,252.72,140422,,,A*63

$GPRMC,140855.50,A,4437.82484,N,01056.96616,E,8.082,248.31,140422,,,A*63

$GPRMC,140855.60,A,4437.82476,N,01056.96589,E,7.812,246.15,140422,,,A*6E

$GPRMC,140855.70,A,4437.82467,N,01056.96562,E,7.693,245.21,140422,,,A*69

$GPRMC,140855.80,A,4437.82459,N,01056.96538,E,7.343,243.88,140422,,,A*69

$GPRMC,140855.90,A,4437.82449,N,01056.96517,E,6.790,241.00,140422,,,A*6D

$GPRMC,140856.00,A,4437.82440,N,01056.96497,E,6.707,238.73,140422,,,A*63

$GPGGA,140856.00,4437.82440,N,01056.96497,E,1,08,0.95,35.2,M,46.0,M,,*69

$GPRMC,140856.10,A,4437.82431,N,01056.96478,E,6.478,237.35,140422,,,A*63

$GPRMC,140856.20,A,4437.82422,N,01056.96458,E,6.303,236.60,140422,,,A*6A

$GPRMC,140856.30,A,4437.82411,N,01056.96443,E,5.819,231.44,140422,,,A*63

$GPRMC,140856.40,A,4437.82402,N,01056.96427,E,5.478,228.90,140422,,,A*6E

$GPRMC,140856.50,A,4437.82392,N,01056.96411,E,5.458,227.41,140422,,,A*65

$GPRMC,140856.60,A,4437.82383,N,01056.96399,E,5.233,223.82,140422,,,A*61

$GPRMC,140856.70,A,4437.82377,N,01056.96385,E,4.679,225.24,140422,,,A*67

$GPRMC,140856.80,A,4437.82368,N,01056.96372,E,4.559,224.55,140422,,,A*68

$GPRMC,140856.90,A,4437.82358,N,01056.96362,E,4.528,221.10,140422,,,A*69

$GPRMC,140857.00,A,4437.82348,N,01056.96350,E,5.073,220.15,140422,,,A*6F

$GPGGA,140857.00,4437.82348,N,01056.96350,E,1,09,0.95,35.2,M,46.0,M,,*6A

$GPRMC,140857.10,A,4437.82338,N,01056.96345,E,4.430,215.49,140422,,,A*60

$GPRMC,140857.20,A,4437.82328,N,01056.96344,E,4.107,207.01,140422,,,A*6D

$GPRMC,140857.30,A,4437.82319,N,01056.96330,E,5.254,211.05,140422,,,A*6A

$GPRMC,140857.40,A,4437.82311,N,01056.96321,E,4.605,212.05,140422,,,A*67

$GPRMC,140857.50,A,4437.82299,N,01056.96318,E,4.481,203.59,140422,,,A*6A

$GPRMC,140857.60,A,4437.82288,N,01056.96312,E,4.398,201.31,140422,,,A*60

$GPRMC,140857.70,A,4437.82277,N,01056.96306,E,4.842,199.81,140422,,,A*61

$GPRMC,140857.80,A,4437.82266,N,01056.96299,E,4.727,199.62,140422,,,A*68

$GPRMC,140857.90,A,4437.82252,N,01056.96293,E,4.874,197.13,140422,,,A*65

$GPRMC,140858.00,A,4437.82238,N,01056.96287,E,5.084,197.87,140422,,,A*61

$GPGGA,140858.00,4437.82238,N,01056.96287,E,1,08,0.95,35.5,M,46.0,M,,*6E

$GPRMC,140858.10,A,4437.82223,N,01056.96281,E,5.221,196.82,140422,,,A*65

$GPRMC,140858.20,A,4437.82212,N,01056.96275,E,5.189,196.43,140422,,,A*63

$GPRMC,140858.30,A,4437.82201,N,01056.96266,E,5.281,200.32,140422,,,A*63

$GPRMC,140858.40,A,4437.82190,N,01056.96260,E,5.122,200.65,140422,,,A*61

$GPRMC,140858.50,A,4437.82181,N,01056.96253,E,5.077,202.21,140422,,,A*63

$GPRMC,140858.60,A,4437.82162,N,01056.96241,E,6.073,203.75,140422,,,A*69

$GPRMC,140858.80,A,4437.82127,N,01056.96221,E,6.514,202.92,140422,,,A*6C

$GPRMC,140858.90,A,4437.82111,N,01056.96208,E,6.318,204.10,140422,,,A*65

$GPRMC,140859.00,A,4437.82095,N,01056.96196,E,6.365,205.32,140422,,,A*6F

$GPRMC,140859.10,A,4437.82078,N,01056.96183,E,6.579,206.99,140422,,,A*60

$GPGGA,140859.10,4437.82078,N,01056.96183,E,1,07,1.27,35.9,M,46.0,M,,*64

$GPRMC,140859.20,A,4437.82062,N,01056.96170,E,6.497,208.69,140422,,,A*64

$GPRMC,140859.30,A,4437.82045,N,01056.96154,E,6.866,210.47,140422,,,A*61

$GPRMC,140859.40,A,4437.82028,N,01056.96139,E,6.968,211.19,140422,,,A*63

$GPRMC,140859.50,A,4437.82014,N,01056.96125,E,6.523,212.33,140422,,,A*68

$GPRMC,140859.60,A,4437.81997,N,01056.96109,E,7.032,213.70,140422,,,A*66

$GPRMC,140859.70,A,4437.81973,N,01056.96092,E,7.710,212.18,140422,,,A*66

$GPRMC,140859.80,A,4437.81960,N,01056.96075,E,7.196,214.03,140422,,,A*66

$GPRMC,140859.90,A,4437.81940,N,01056.96057,E,7.657,214.25,140422,,,A*6B

$GPRMC,140900.00,A,4437.81925,N,01056.96039,E,7.621,215.39,140422,,,A*69

$GPRMC,140900.10,A,4437.81909,N,01056.96019,E,7.590,216.74,140422,,,A*67

$GPGGA,140900.10,4437.81909,N,01056.96019,E,1,07,1.27,35.6,M,46.0,M,,*68

$GPRMC,140900.20,A,4437.81892,N,01056.96000,E,7.664,216.99,140422,,,A*64

$GPRMC,140900.30,A,4437.81873,N,01056.95983,E,7.887,215.99,140422,,,A*6B

$GPRMC,140900.40,A,4437.81854,N,01056.95964,E,8.157,216.16,140422,,,A*6F

$GPRMC,140900.50,A,4437.81839,N,01056.95944,E,7.966,217.82,140422,,,A*6E

$GPRMC,140900.60,A,4437.81827,N,01056.95933,E,7.552,214.68,140422,,,A*6E

$GPRMC,140900.70,A,4437.81811,N,01056.95916,E,7.686,215.29,140422,,,A*63

$GPRMC,140900.80,A,4437.81796,N,01056.95896,E,7.906,216.91,140422,,,A*62

$GPRMC,140900.90,A,4437.81776,N,01056.95878,E,7.946,216.61,140422,,,A*66

$GPRMC,140901.00,A,4437.81758,N,01056.95856,E,8.241,218.27,140422,,,A*61

$GPRMC,140901.10,A,4437.81739,N,01056.95836,E,8.177,217.97,140422,,,A*63

$GPGGA,140901.10,4437.81739,N,01056.95836,E,1,07,1.27,35.8,M,46.0,M,,*6C

$GPRMC,140901.20,A,4437.81721,N,01056.95814,E,8.564,219.28,140422,,,A*65

$GPRMC,140901.30,A,4437.81703,N,01056.95795,E,8.334,218.46,140422,,,A*68

$GPRMC,140901.40,A,4437.81682,N,01056.95773,E,8.416,218.82,140422,,,A*60

$GPRMC,140901.50,A,4437.81664,N,01056.95752,E,8.753,219.96,140422,,,A*6C

$GPRMC,140901.60,A,4437.81645,N,01056.95731,E,8.716,219.31,140422,,,A*65

$GPRMC,140901.70,A,4437.81627,N,01056.95710,E,8.748,219.24,140422,,,A*6C

$GPRMC,140901.80,A,4437.81608,N,01056.95688,E,8.794,219.20,140422,,,A*6B

$GPRMC,140901.90,A,4437.81589,N,01056.95664,E,9.038,220.48,140422,,,A*66

$GPRMC,140902.00,A,4437.81567,N,01056.95642,E,9.112,218.45,140422,,,A*67

$GPRMC,140902.10,A,4437.81551,N,01056.95620,E,8.961,219.12,140422,,,A*69

$GPGGA,140902.10,4437.81551,N,01056.95620,E,1,08,1.05,35.8,M,46.0,M,,*65

$GPRMC,140902.20,A,4437.81529,N,01056.95598,E,9.156,217.64,140422,,,A*67

$GPRMC,140902.30,A,4437.81510,N,01056.95574,E,9.311,218.87,140422,,,A*6D

$GPRMC,140902.40,A,4437.81489,N,01056.95553,E,9.279,218.21,140422,,,A*6D

$GPRMC,140902.50,A,4437.81466,N,01056.95530,E,9.570,217.35,140422,,,A*6C

$GPRMC,140902.60,A,4437.81447,N,01056.95508,E,9.442,217.42,140422,,,A*67

$GPRMC,140902.70,A,4437.81424,N,01056.95486,E,9.694,216.12,140422,,,A*69

$GPRMC,140902.80,A,4437.81401,N,01056.95464,E,9.485,215.98,140422,,,A*6E

$GPRMC,140902.90,A,4437.81380,N,01056.95441,E,9.793,216.40,140422,,,A*64

$GPRMC,140903.00,A,4437.81359,N,01056.95418,E,9.787,217.11,140422,,,A*64

$GPRMC,140903.10,A,4437.81335,N,01056.95396,E,9.891,215.49,140422,,,A*69

$GPGGA,140903.10,4437.81335,N,01056.95396,E,1,08,1.05,35.7,M,46.0,M,,*67

$GPRMC,140903.30,A,4437.81289,N,01056.95350,E,10.158,215.19,140422,,,A*56

$GPRMC,140903.40,A,4437.81267,N,01056.95326,E,10.001,215.44,140422,,,A*55

$GPRMC,140903.50,A,4437.81243,N,01056.95301,E,10.184,216.00,140422,,,A*58

$GPRMC,140903.60,A,4437.81226,N,01056.95277,E,10.139,217.38,140422,,,A*54

$GPRMC,140903.70,A,4437.81207,N,01056.95255,E,9.824,217.50,140422,,,A*65

$GPRMC,140903.80,A,4437.81191,N,01056.95232,E,9.631,218.14,140422,,,A*62

$GPRMC,140903.90,A,4437.81169,N,01056.95207,E,10.015,219.40,140422,,,A*5A

$GPRMC,140904.00,A,4437.81146,N,01056.95185,E,9.965,218.47,140422,,,A*60

$GPRMC,140904.10,A,4437.81125,N,01056.95161,E,9.951,218.75,140422,,,A*68

$GPRMC,140904.20,A,4437.81103,N,01056.95136,E,10.213,218.75,140422,,,A*58

$GPGGA,140904.20,4437.81103,N,01056.95136,E,1,07,1.05,35.9,M,46.0,M,,*6D

$GPRMC,140904.30,A,4437.81080,N,01056.95112,E,10.115,218.42,140422,,,A*54

$GPRMC,140904.40,A,4437.81057,N,01056.95087,E,10.382,218.04,140422,,,A*5A

$GPRMC,140904.50,A,4437.81034,N,01056.95063,E,10.169,217.61,140422,,,A*5F

$GPRMC,140904.60,A,4437.81014,N,01056.95036,E,10.382,218.97,140422,,,A*5F

$GPRMC,140904.70,A,4437.80991,N,01056.95012,E,10.433,218.24,140422,,,A*58

$GPRMC,140904.80,A,4437.80967,N,01056.94987,E,10.243,218.03,140422,,,A*5E

$GPRMC,140904.90,A,4437.80944,N,01056.94962,E,10.537,217.60,140422,,,A*5B

$GPRMC,140905.00,A,4437.80922,N,01056.94937,E,10.418,217.89,140422,,,A*58

$GPRMC,140905.10,A,4437.80897,N,01056.94913,E,10.642,216.96,140422,,,A*52

$GPRMC,140905.20,A,4437.80871,N,01056.94888,E,10.729,216.65,140422,,,A*5A

$GPGGA,140905.20,4437.80871,N,01056.94888,E,1,08,0.97,35.9,M,46.0,M,,*69

$GPRMC,140905.30,A,4437.80847,N,01056.94862,E,10.820,217.14,140422,,,A*5B

$GPRMC,140905.40,A,4437.80824,N,01056.94836,E,10.790,216.96,140422,,,A*57

$GPRMC,140905.50,A,4437.80800,N,01056.94810,E,10.709,217.29,140422,,,A*51

$GPRMC,140905.60,A,4437.80778,N,01056.94784,E,10.681,217.12,140422,,,A*59

$GPRMC,140905.70,A,4437.80754,N,01056.94759,E,10.884,216.77,140422,,,A*5F

$GPRMC,140905.80,A,4437.80726,N,01056.94733,E,10.967,216.76,140422,,,A*54

$GPRMC,140905.90,A,4437.80700,N,01056.94708,E,10.915,215.90,140422,,,A*57

$GPRMC,140906.00,A,4437.80675,N,01056.94683,E,11.110,215.67,140422,,,A*58

$GPRMC,140906.10,A,4437.80653,N,01056.94657,E,11.133,216.60,140422,,,A*51

$GPRMC,140906.20,A,4437.80626,N,01056.94631,E,11.134,216.24,140422,,,A*57

$GPGGA,140906.20,4437.80626,N,01056.94631,E,1,08,0.97,35.9,M,46.0,M,,*6A

$GPRMC,140906.30,A,4437.80600,N,01056.94604,E,11.152,216.95,140422,,,A*5E

$GPRMC,140906.40,A,4437.80573,N,01056.94578,E,11.259,216.56,140422,,,A*51

$GPRMC,140906.50,A,4437.80548,N,01056.94552,E,11.342,217.13,140422,,,A*5B

$GPRMC,140906.60,A,4437.80522,N,01056.94525,E,11.181,217.05,140422,,,A*5E

$GPRMC,140906.70,A,4437.80494,N,01056.94500,E,11.435,216.10,140422,,,A*5B

$GPRMC,140906.80,A,4437.80469,N,01056.94474,E,11.176,216.56,140422,,,A*54

$GPRMC,140906.90,A,4437.80444,N,01056.94446,E,11.476,217.52,140422,,,A*5B

$GPRMC,140907.00,A,4437.80418,N,01056.94419,E,11.379,217.81,140422,,,A*56

$GPRMC,140907.10,A,4437.80390,N,01056.94393,E,11.663,216.49,140422,,,A*5E

$GPRMC,140907.20,A,4437.80365,N,01056.94366,E,11.329,217.21,140422,,,A*59

$GPGGA,140907.20,4437.80365,N,01056.94366,E,1,08,0.97,35.7,M,46.0,M,,*60

$GPRMC,140907.30,A,4437.80338,N,01056.94340,E,11.479,216.56,140422,,,A*57

$GPRMC,140907.40,A,4437.80313,N,01056.94312,E,11.659,217.36,140422,,,A*59

$GPRMC,140907.50,A,4437.80287,N,01056.94285,E,11.514,216.86,140422,,,A*5B

$GPRMC,140907.60,A,4437.80260,N,01056.94258,E,11.805,216.50,140422,,,A*57

$GPRMC,140907.70,A,4437.80234,N,01056.94229,E,11.842,217.20,140422,,,A*54

$GPRMC,140907.80,A,4437.80210,N,01056.94202,E,11.549,217.95,140422,,,A*5C

$GPRMC,140907.90,A,4437.80190,N,01056.94173,E,11.366,219.64,140422,,,A*58

$GPRMC,140908.00,A,4437.80169,N,01056.94144,E,11.617,220.82,140422,,,A*5D

$GPRMC,140908.10,A,4437.80147,N,01056.94117,E,11.284,221.01,140422,,,A*52

$GPRMC,140908.20,A,4437.80123,N,01056.94089,E,11.516,220.43,140422,,,A*5E

$GPGGA,140908.20,4437.80123,N,01056.94089,E,1,07,1.31,36.0,M,46.0,M,,*6B

$GPRMC,140908.30,A,4437.80098,N,01056.94060,E,11.587,219.72,140422,,,A*59

$GPRMC,140908.40,A,4437.80071,N,01056.94032,E,11.663,218.94,140422,,,A*5E

$GPRMC,140908.50,A,4437.80046,N,01056.94002,E,11.670,218.54,140422,,,A*56

$GPRMC,140908.60,A,4437.80020,N,01056.93974,E,11.709,218.39,140422,,,A*5E

$GPRMC,140908.70,A,4437.79994,N,01056.93944,E,11.890,218.50,140422,,,A*5C

$GPRMC,140908.80,A,4437.79968,N,01056.93917,E,11.825,218.11,140422,,,A*5D

$GPRMC,140908.90,A,4437.79944,N,01056.93887,E,11.795,218.93,140422,,,A*54

$GPRMC,140909.00,A,4437.79918,N,01056.93857,E,11.950,219.19,140422,,,A*5C

$GPRMC,140909.10,A,4437.79894,N,01056.93829,E,11.731,219.06,140422,,,A*56

$GPRMC,140909.20,A,4437.79867,N,01056.93798,E,11.981,219.54,140422,,,A*5E

$GPGGA,140909.20,4437.79867,N,01056.93798,E,1,07,1.78,36.2,M,46.0,M,,*6A

$GPRMC,140909.30,A,4437.79843,N,01056.93769,E,11.848,219.90,140422,,,A*5B

$GPRMC,140909.40,A,4437.79816,N,01056.93739,E,12.011,219.51,140422,,,A*53

$GPRMC,140909.50,A,4437.79790,N,01056.93710,E,11.969,219.25,140422,,,A*5E

$GPRMC,140909.60,A,4437.79766,N,01056.93680,E,11.811,219.73,140422,,,A*51

$GPRMC,140909.70,A,4437.79738,N,01056.93655,E,12.035,217.96,140422,,,A*5B

$GPRMC,140909.80,A,4437.79706,N,01056.93628,E,12.113,216.24,140422,,,A*5E

$GPRMC,140909.90,A,4437.79682,N,01056.93600,E,11.822,217.16,140422,,,A*50

$GPRMC,140910.00,A,4437.79650,N,01056.93571,E,12.333,215.76,140422,,,A*57

$GPRMC,140910.10,A,4437.79621,N,01056.93544,E,12.248,215.38,140422,,,A*51

$GPRMC,140910.20,A,4437.79590,N,01056.93518,E,12.300,213.86,140422,,,A*5C

$GPGGA,140910.20,4437.79590,N,01056.93518,E,1,07,1.78,36.2,M,46.0,M,,*6D

$GPRMC,140910.30,A,4437.79563,N,01056.93491,E,12.088,214.94,140422,,,A*56

$GPRMC,140910.40,A,4437.79533,N,01056.93465,E,12.355,214.21,140422,,,A*52

$GPRMC,140910.50,A,4437.79504,N,01056.93436,E,12.462,214.99,140422,,,A*51

$GPRMC,140910.60,A,4437.79474,N,01056.93412,E,12.356,213.26,140422,,,A*51

$GPRMC,140910.70,A,4437.79451,N,01056.93378,E,12.480,217.89,140422,,,A*51

$GPRMC,140910.80,A,4437.79421,N,01056.93352,E,12.576,216.04,140422,,,A*5D

$GPRMC,140910.90,A,4437.79390,N,01056.93323,E,12.577,215.30,140422,,,A*52

$GPRMC,140911.00,A,4437.79357,N,01056.93299,E,12.770,212.62,140422,,,A*54

$GPRMC,140911.10,A,4437.79323,N,01056.93272,E,12.851,211.52,140422,,,A*5F

$GPRMC,140911.20,A,4437.79290,N,01056.93246,E,12.880,210.73,140422,,,A*5C

$GPGGA,140911.20,4437.79290,N,01056.93246,E,1,05,2.27,36.0,M,46.0,M,,*6E

$GPRMC,140911.30,A,4437.79259,N,01056.93218,E,13.025,210.89,140422,,,A*50

$GPRMC,140911.40,A,4437.79227,N,01056.93192,E,13.063,210.87,140422,,,A*53

$GPRMC,140911.50,A,4437.79197,N,01056.93163,E,12.834,211.49,140422,,,A*5C

$GPRMC,140911.60,A,4437.79167,N,01056.93136,E,13.114,212.10,140422,,,A*55

$GPRMC,140911.70,A,4437.79135,N,01056.93107,E,13.180,212.38,140422,,,A*56

$GPRMC,140911.80,A,4437.79105,N,01056.93078,E,12.998,212.88,140422,,,A*58

$GPRMC,140911.90,A,4437.79074,N,01056.93050,E,13.016,213.04,140422,,,A*5F

$GPRMC,140912.00,A,4437.79043,N,01056.93023,E,13.117,212.88,140422,,,A*50

$GPRMC,140912.10,A,4437.78994,N,01056.93020,E,13.435,206.50,140422,,,A*55

$GPRMC,140912.20,A,4437.78975,N,01056.92975,E,13.216,211.02,140422,,,A*57

$GPGGA,140912.20,4437.78975,N,01056.92975,E,1,05,2.27,35.8,M,46.0,M,,*6D

$GPRMC,140912.30,A,4437.78943,N,01056.92953,E,13.180,211.34,140422,,,A*5E

$GPRMC,140912.40,A,4437.78913,N,01056.92923,E,13.252,212.36,140422,,,A*56

$GPRMC,140912.50,A,4437.78883,N,01056.92890,E,13.375,214.23,140422,,,A*50

$GPRMC,140912.60,A,4437.78856,N,01056.92859,E,13.027,215.93,140422,,,A*50

$GPRMC,140912.70,A,4437.78823,N,01056.92830,E,13.170,215.19,140422,,,A*5D

$GPRMC,140912.80,A,4437.78792,N,01056.92800,E,13.133,214.53,140422,,,A*5C

$GPRMC,140912.90,A,4437.78762,N,01056.92770,E,13.425,215.12,140422,,,A*5C

$GPRMC,140913.00,A,4437.78733,N,01056.92739,E,13.173,215.46,140422,,,A*5A

$GPRMC,140913.10,A,4437.78704,N,01056.92706,E,13.477,216.22,140422,,,A*53

$GPRMC,140913.20,A,4437.78678,N,01056.92674,E,13.218,217.27,140422,,,A*55

$GPGGA,140913.20,4437.78678,N,01056.92674,E,1,05,2.27,35.8,M,46.0,M,,*60

$GPRMC,140913.30,A,4437.78652,N,01056.92640,E,13.199,218.32,140422,,,A*5A

$GPRMC,140913.40,A,4437.78631,N,01056.92611,E,13.087,219.36,140422,,,A*57

$GPRMC,140913.50,A,4437.78606,N,01056.92583,E,12.942,219.07,140422,,,A*59

$GPRMC,140913.60,A,4437.78577,N,01056.92549,E,12.909,219.09,140422,,,A*58

$GPRMC,140913.70,A,4437.78547,N,01056.92520,E,13.048,217.42,140422,,,A*59

$GPRMC,140913.80,A,4437.78518,N,01056.92492,E,12.844,216.41,140422,,,A*53

$GPRMC,140913.90,A,4437.78492,N,01056.92456,E,13.084,218.57,140422,,,A*55

$GPRMC,140914.00,A,4437.78460,N,01056.92430,E,12.997,216.17,140422,,,A*56

$GPRMC,140914.10,A,4437.78432,N,01056.92399,E,13.121,216.62,140422,,,A*52

$GPRMC,140914.20,A,4437.78406,N,01056.92372,E,12.903,216.42,140422,,,A*58

$GPGGA,140914.20,4437.78406,N,01056.92372,E,1,07,1.31,36.2,M,46.0,M,,*60

$GPRMC,140914.30,A,4437.78379,N,01056.92344,E,12.884,216.16,140422,,,A*5C

$GPRMC,140914.40,A,4437.78351,N,01056.92317,E,12.800,215.46,140422,,,A*5D

$GPRMC,140914.50,A,4437.78326,N,01056.92283,E,12.811,217.71,140422,,,A*56

$GPRMC,140914.60,A,4437.78294,N,01056.92254,E,12.880,216.08,140422,,,A*50

$GPRMC,140914.70,A,4437.78261,N,01056.92221,E,13.012,215.07,140422,,,A*57

$GPRMC,140914.80,A,4437.78231,N,01056.92192,E,12.946,214.79,140422,,,A*57

$GPRMC,140914.90,A,4437.78205,N,01056.92161,E,13.147,215.59,140422,,,A*56

$GPRMC,140915.00,A,4437.78180,N,01056.92129,E,13.007,216.90,140422,,,A*5F

$GPRMC,140915.10,A,4437.78156,N,01056.92097,E,12.827,218.51,140422,,,A*59

$GPRMC,140915.20,A,4437.78130,N,01056.92066,E,12.929,219.03,140422,,,A*5D

$GPGGA,140915.20,4437.78130,N,01056.92066,E,1,07,1.31,36.6,M,46.0,M,,*63

$GPRMC,140915.30,A,4437.78105,N,01056.92031,E,12.754,220.10,140422,,,A*54

$GPRMC,140915.40,A,4437.78066,N,01056.92010,E,12.951,216.03,140422,,,A*58

$GPRMC,140915.50,A,4437.78038,N,01056.91982,E,12.880,215.08,140422,,,A*56

$GPRMC,140915.60,A,4437.78014,N,01056.91949,E,12.682,216.16,140422,,,A*5C

$GPRMC,140915.70,A,4437.77993,N,01056.91913,E,12.779,218.24,140422,,,A*51

$GPRMC,140915.80,A,4437.77974,N,01056.91874,E,12.868,220.91,140422,,,A*5D

$GPRMC,140915.90,A,4437.77956,N,01056.91833,E,12.825,224.01,140422,,,A*5B

$GPRMC,140916.00,A,4437.77942,N,01056.91799,E,12.700,225.54,140422,,,A*52

$GPRMC,140916.10,A,4437.77918,N,01056.91761,E,12.928,226.37,140422,,,A*59

$GPRMC,140916.20,A,4437.77897,N,01056.91722,E,12.657,227.40,140422,,,A*5D

$GPGGA,140916.20,4437.77897,N,01056.91722,E,1,07,1.31,37.4,M,46.0,M,,*6C

$GPRMC,140916.30,A,4437.77873,N,01056.91684,E,12.741,227.93,140422,,,A*53

$GPRMC,140916.40,A,4437.77849,N,01056.91648,E,12.900,227.41,140422,,,A*59

$GPRMC,140916.50,A,4437.77828,N,01056.91603,E,12.705,228.81,140422,,,A*58

$GPRMC,140916.60,A,4437.77810,N,01056.91562,E,12.814,230.02,140422,,,A*59

$GPRMC,140916.70,A,4437.77793,N,01056.91519,E,12.981,231.09,140422,,,A*57

$GPRMC,140916.80,A,4437.77773,N,01056.91478,E,12.896,231.87,140422,,,A*51

$GPRMC,140916.90,A,4437.77752,N,01056.91440,E,12.829,231.77,140422,,,A*53

$GPRMC,140917.00,A,4437.77740,N,01056.91388,E,13.102,233.91,140422,,,A*50

$GPRMC,140917.10,A,4437.77709,N,01056.91362,E,12.735,231.42,140422,,,A*57

$GPRMC,140917.20,A,4437.77688,N,01056.91324,E,12.543,230.87,140422,,,A*55

$GPGGA,140917.20,4437.77688,N,01056.91324,E,1,07,1.31,38.3,M,46.0,M,,*67

$GPRMC,140917.30,A,4437.77657,N,01056.91304,E,12.093,227.26,140422,,,A*51

$GPRMC,140917.40,A,4437.77636,N,01056.91269,E,12.301,226.13,140422,,,A*54

$GPRMC,140917.50,A,4437.77611,N,01056.91239,E,12.054,224.92,140422,,,A*5D

$GPRMC,140917.60,A,4437.77587,N,01056.91203,E,11.944,225.04,140422,,,A*5E

$GPRMC,140917.70,A,4437.77568,N,01056.91165,E,11.859,226.47,140422,,,A*54

$GPRMC,140917.80,A,4437.77548,N,01056.91126,E,11.973,228.15,140422,,,A*5E

$GPRMC,140917.90,A,4437.77534,N,01056.91088,E,11.877,229.89,140422,,,A*50

$GPRMC,140918.00,A,4437.77520,N,01056.91045,E,11.944,232.24,140422,,,A*5E

$GPRMC,140918.10,A,4437.77507,N,01056.91007,E,11.740,233.74,140422,,,A*52

$GPRMC,140918.20,A,4437.77493,N,01056.90973,E,11.315,234.40,140422,,,A*52

$GPGGA,140918.20,4437.77493,N,01056.90973,E,1,08,0.98,39.5,M,46.0,M,,*63

$GPRMC,140918.30,A,4437.77478,N,01056.90941,E,10.773,235.22,140422,,,A*57

$GPRMC,140918.40,A,4437.77463,N,01056.90915,E,10.255,235.16,140422,,,A*5D

$GPRMC,140918.50,A,4437.77448,N,01056.90891,E,9.686,234.53,140422,,,A*6A

$GPRMC,140918.60,A,4437.77432,N,01056.90865,E,9.447,233.63,140422,,,A*64

$GPRMC,140918.70,A,4437.77413,N,01056.90840,E,9.256,232.41,140422,,,A*66

$GPRMC,140918.80,A,4437.77395,N,01056.90813,E,8.826,232.53,140422,,,A*69

$GPRMC,140918.90,A,4437.77357,N,01056.90810,E,8.253,226.51,140422,,,A*6A

$GPRMC,140919.00,A,4437.77329,N,01056.90799,E,7.884,222.10,140422,,,A*6B

$GPRMC,140919.10,A,4437.77312,N,01056.90778,E,7.693,221.27,140422,,,A*62

$GPRMC,140919.20,A,4437.77293,N,01056.90759,E,7.134,221.61,140422,,,A*62

$GPGGA,140919.20,4437.77293,N,01056.90759,E,1,06,1.77,40.0,M,46.0,M,,*67

$GPRMC,140919.30,A,4437.77283,N,01056.90734,E,7.029,225.16,140422,,,A*60

$GPRMC,140919.40,A,4437.77275,N,01056.90708,E,6.879,231.07,140422,,,A*68

$GPRMC,140919.50,A,4437.77265,N,01056.90686,E,6.719,234.54,140422,,,A*65

$GPRMC,140919.60,A,4437.77255,N,01056.90668,E,6.255,235.75,140422,,,A*6A

$GPRMC,140919.70,A,4437.77245,N,01056.90649,E,5.892,237.09,140422,,,A*62

$GPRMC,140919.80,A,4437.77238,N,01056.90634,E,5.517,238.20,140422,,,A*69

$GPRMC,140919.90,A,4437.77229,N,01056.90619,E,4.996,240.75,140422,,,A*6C

$GPRMC,140920.00,A,4437.77226,N,01056.90607,E,4.742,243.56,140422,,,A*6A

$GPRMC,140920.10,A,4437.77234,N,01056.90582,E,6.197,247.18,140422,,,A*64

$GPRMC,140920.20,A,4437.77236,N,01056.90559,E,6.184,252.50,140422,,,A*69

$GPGGA,140920.20,4437.77236,N,01056.90559,E,1,07,1.31,41.6,M,46.0,M,,*64

$GPRMC,140920.30,A,4437.77232,N,01056.90539,E,5.825,256.10,140422,,,A*6B

$GPRMC,140920.40,A,4437.77226,N,01056.90522,E,5.868,255.87,140422,,,A*67

$GPRMC,140920.50,A,4437.77214,N,01056.90508,E,5.223,253.71,140422,,,A*65

$GPRMC,140920.60,A,4437.77192,N,01056.90500,E,4.691,245.32,140422,,,A*6F

$GPRMC,140920.70,A,4437.77192,N,01056.90505,E,3.385,243.31,140422,,,A*69

$GPRMC,140920.80,A,4437.77187,N,01056.90504,E,3.252,240.56,140422,,,A*6A

$GPRMC,140920.90,A,4437.77177,N,01056.90508,E,3.322,231.46,140422,,,A*69

$GPRMC,140921.00,A,4437.77161,N,01056.90500,E,3.915,218.09,140422,,,A*60

$GPRMC,140921.10,A,4437.77160,N,01056.90482,E,3.614,232.30,140422,,,A*67

$GPRMC,140921.20,A,4437.77155,N,01056.90456,E,4.821,246.30,140422,,,A*67

$GPGGA,140921.20,4437.77155,N,01056.90456,E,1,08,0.92,43.3,M,46.0,M,,*6D

$GPRMC,140921.30,A,4437.77152,N,01056.90436,E,5.208,253.82,140422,,,A*6A

$GPRMC,140921.40,A,4437.77147,N,01056.90414,E,5.459,257.25,140422,,,A*62

$GPRMC,140921.50,A,4437.77131,N,01056.90414,E,4.616,249.98,140422,,,A*63

$GPRMC,140921.60,A,4437.77127,N,01056.90415,E,3.407,245.05,140422,,,A*6B

$GPRMC,140921.70,A,4437.77116,N,01056.90415,E,3.117,236.49,140422,,,A*60

$GPRMC,140921.80,A,4437.77103,N,01056.90410,E,3.549,223.32,140422,,,A*69

$GPRMC,140921.90,A,4437.77089,N,01056.90406,E,3.620,214.18,140422,,,A*6C

$GPRMC,140922.00,A,4437.77072,N,01056.90402,E,4.245,205.62,140422,,,A*6B

$GPRMC,140922.10,A,4437.77055,N,01056.90394,E,4.567,202.24,140422,,,A*65

$GPRMC,140922.20,A,4437.77038,N,01056.90385,E,4.689,201.11,140422,,,A*6B

$GPGGA,140922.20,4437.77038,N,01056.90385,E,1,08,0.92,45.0,M,46.0,M,,*68

$GPRMC,140922.30,A,4437.77020,N,01056.90378,E,4.815,199.96,140422,,,A*67

$GPRMC,140922.40,A,4437.77003,N,01056.90370,E,4.843,198.52,140422,,,A*63

$GPRMC,140922.50,A,4437.76987,N,01056.90357,E,5.095,199.55,140422,,,A*67

$GPRMC,140922.60,A,4437.76972,N,01056.90343,E,5.343,202.42,140422,,,A*64

$GPRMC,140922.70,A,4437.76966,N,01056.90332,E,4.279,212.16,140422,,,A*6F

$GPRMC,140922.80,A,4437.76964,N,01056.90310,E,4.990,235.36,140422,,,A*69

$GPRMC,140922.90,A,4437.76957,N,01056.90282,E,5.825,241.89,140422,,,A*6B

$GPRMC,140923.00,A,4437.76951,N,01056.90254,E,5.994,248.43,140422,,,A*6A

$GPRMC,140923.10,A,4437.76943,N,01056.90227,E,6.452,251.14,140422,,,A*62

$GPRMC,140923.20,A,4437.76937,N,01056.90197,E,6.879,252.94,140422,,,A*64

$GPGGA,140923.20,4437.76937,N,01056.90197,E,1,07,1.31,46.5,M,46.0,M,,*6E

$GPRMC,140923.30,A,4437.76932,N,01056.90165,E,7.178,255.12,140422,,,A*6D

$GPRMC,140923.40,A,4437.76926,N,01056.90129,E,7.655,257.17,140422,,,A*68

$GPRMC,140923.50,A,4437.76920,N,01056.90099,E,7.778,257.50,140422,,,A*68

$GPRMC,140923.60,A,4437.76911,N,01056.90072,E,7.702,256.82,140422,,,A*6F

$GPRMC,140923.70,A,4437.76904,N,01056.90043,E,7.656,257.08,140422,,,A*6B

$GPRMC,140923.80,A,4437.76864,N,01056.90071,E,6.073,244.01,140422,,,A*69

$GPRMC,140923.90,A,4437.76845,N,01056.90063,E,5.955,228.44,140422,,,A*6D

$GPRMC,140924.00,A,4437.76824,N,01056.90054,E,6.207,219.11,140422,,,A*6D

$GPRMC,140924.10,A,4437.76811,N,01056.90041,E,5.789,217.54,140422,,,A*61

$GPRMC,140924.20,A,4437.76799,N,01056.90028,E,5.490,219.10,140422,,,A*67

$GPGGA,140924.20,4437.76799,N,01056.90028,E,1,07,1.31,47.6,M,46.0,M,,*64

$GPRMC,140924.30,A,4437.76793,N,01056.90018,E,5.336,224.40,140422,,,A*6F

$GPRMC,140924.40,A,4437.76790,N,01056.90005,E,4.949,231.46,140422,,,A*66

$GPRMC,140924.50,A,4437.76785,N,01056.89993,E,4.905,235.25,140422,,,A*64

$GPRMC,140924.60,A,4437.76775,N,01056.89976,E,5.286,235.17,140422,,,A*63

$GPRMC,140924.70,A,4437.76763,N,01056.89961,E,5.461,231.91,140422,,,A*66

$GPRMC,140924.80,A,4437.76749,N,01056.89948,E,5.469,227.60,140422,,,A*6B

$GPRMC,140924.90,A,4437.76736,N,01056.89938,E,5.292,224.36,140422,,,A*67

$GPRMC,140925.00,A,4437.76723,N,01056.89926,E,5.016,222.16,140422,,,A*6E

$GPRMC,140925.10,A,4437.76712,N,01056.89913,E,5.130,221.67,140422,,,A*6B

$GPRMC,140925.20,A,4437.76702,N,01056.89901,E,4.751,222.66,140422,,,A*68

$GPGGA,140925.20,4437.76702,N,01056.89901,E,1,07,1.31,49.9,M,46.0,M,,*6C

$GPRMC,140925.30,A,4437.76699,N,01056.89902,E,3.511,221.84,140422,,,A*67

$GPRMC,140925.40,A,4437.76688,N,01056.89886,E,4.367,224.38,140422,,,A*6F

$GPRMC,140925.50,A,4437.76679,N,01056.89876,E,4.589,222.98,140422,,,A*65

$GPRMC,140925.60,A,4437.76670,N,01056.89867,E,4.414,221.88,140422,,,A*68

$GPRMC,140925.70,A,4437.76660,N,01056.89855,E,4.082,222.41,140422,,,A*64

$GPRMC,140925.80,A,4437.76649,N,01056.89842,E,4.493,221.38,140422,,,A*6F

$GPRMC,140925.90,A,4437.76642,N,01056.89824,E,4.824,226.19,140422,,,A*61

$GPRMC,140926.00,A,4437.76631,N,01056.89811,E,4.706,226.12,140422,,,A*6D

$GPRMC,140926.10,A,4437.76619,N,01056.89799,E,4.773,223.62,140422,,,A*69

$GPRMC,140926.20,A,4437.76606,N,01056.89795,E,4.790,217.96,140422,,,A*69

$GPGGA,140926.20,4437.76606,N,01056.89795,E,1,07,1.31,52.4,M,46.0,M,,*6E

$GPRMC,140926.30,A,4437.76611,N,01056.89786,E,3.860,226.76,140422,,,A*67

$GPRMC,140926.40,A,4437.76607,N,01056.89768,E,4.355,233.11,140422,,,A*68

$GPRMC,140926.50,A,4437.76594,N,01056.89756,E,4.409,231.38,140422,,,A*6A

$GPRMC,140926.60,A,4437.76583,N,01056.89741,E,4.755,228.42,140422,,,A*66

$GPRMC,140926.70,A,4437.76567,N,01056.89719,E,5.127,227.43,140422,,,A*6C

$GPRMC,140926.80,A,4437.76547,N,01056.89709,E,5.311,217.47,140422,,,A*60

$GPRMC,140926.90,A,4437.76530,N,01056.89685,E,5.640,217.95,140422,,,A*6A

$GPRMC,140927.00,A,4437.76513,N,01056.89664,E,5.950,218.02,140422,,,A*63

$GPRMC,140927.10,A,4437.76496,N,01056.89638,E,6.378,220.15,140422,,,A*69

$GPRMC,140927.20,A,4437.76478,N,01056.89613,E,6.458,221.65,140422,,,A*60

$GPGGA,140927.20,4437.76478,N,01056.89613,E,1,08,1.07,54.0,M,46.0,M,,*63

$GPRMC,140927.30,A,4437.76467,N,01056.89585,E,6.650,225.99,140422,,,A*6E

$GPRMC,140927.40,A,4437.76454,N,01056.89551,E,7.335,231.25,140422,,,A*65

$GPRMC,140927.50,A,4437.76442,N,01056.89519,E,7.777,234.42,140422,,,A*69

$GPRMC,140927.60,A,4437.76430,N,01056.89486,E,7.735,237.30,140422,,,A*68

$GPRMC,140927.70,A,4437.76418,N,01056.89455,E,7.860,238.78,140422,,,A*61

$GPRMC,140927.80,A,4437.76405,N,01056.89424,E,7.976,239.18,140422,,,A*65

$GPRMC,140927.90,A,4437.76386,N,01056.89400,E,7.834,236.06,140422,,,A*69

$GPRMC,140928.00,A,4437.76369,N,01056.89372,E,7.904,233.70,140422,,,A*6A

$GPRMC,140928.10,A,4437.76352,N,01056.89341,E,8.168,232.88,140422,,,A*68

$GPRMC,140928.20,A,4437.76338,N,01056.89313,E,8.185,232.88,140422,,,A*63

$GPGGA,140928.20,4437.76338,N,01056.89313,E,1,09,0.95,55.2,M,46.0,M,,*62

$GPRMC,140928.30,A,4437.76326,N,01056.89283,E,8.205,233.78,140422,,,A*60

$GPRMC,140928.40,A,4437.76311,N,01056.89254,E,8.297,234.25,140422,,,A*6D

$GPRMC,140928.50,A,4437.76297,N,01056.89222,E,8.477,234.93,140422,,,A*67

$GPRMC,140928.60,A,4437.76283,N,01056.89187,E,8.476,236.14,140422,,,A*61

$GPRMC,140928.70,A,4437.76271,N,01056.89151,E,8.659,237.84,140422,,,A*61

$GPRMC,140928.80,A,4437.76256,N,01056.89123,E,8.679,237.85,140422,,,A*6D

$GPRMC,140928.90,A,4437.76241,N,01056.89093,E,8.612,237.47,140422,,,A*63

$GPRMC,140929.00,A,4437.76230,N,01056.89058,E,8.674,238.18,140422,,,A*6F

$GPRMC,140929.10,A,4437.76215,N,01056.89020,E,9.018,239.05,140422,,,A*66

$GPRMC,140929.20,A,4437.76198,N,01056.88988,E,9.015,239.01,140422,,,A*60

$GPGGA,140929.20,4437.76198,N,01056.88988,E,1,09,0.98,56.3,M,46.0,M,,*6D

$GPRMC,140929.30,A,4437.76164,N,01056.88986,E,8.024,231.76,140422,,,A*67

$GPRMC,140929.40,A,4437.76146,N,01056.88959,E,8.249,229.11,140422,,,A*63

$GPRMC,140929.50,A,4437.76122,N,01056.88941,E,8.200,225.51,140422,,,A*6C

$GPRMC,140929.60,A,4437.76097,N,01056.88925,E,7.974,221.26,140422,,,A*61

$GPRMC,140929.70,A,4437.76076,N,01056.88904,E,8.186,219.23,140422,,,A*68

$GPRMC,140929.80,A,4437.76054,N,01056.88881,E,8.311,218.56,140422,,,A*64

$GPRMC,140929.90,A,4437.76030,N,01056.88860,E,8.524,217.97,140422,,,A*6A

$GPRMC,140930.00,A,4437.76005,N,01056.88839,E,8.703,217.59,140422,,,A*64

$GPRMC,140930.10,A,4437.75978,N,01056.88821,E,8.876,215.77,140422,,,A*6F

$GPRMC,140930.20,A,4437.75948,N,01056.88805,E,8.957,213.53,140422,,,A*6B

$GPGGA,140930.20,4437.75948,N,01056.88805,E,1,08,0.98,56.2,M,46.0,M,,*67

$GPRMC,140930.30,A,4437.75922,N,01056.88788,E,8.861,211.61,140422,,,A*6B

$GPRMC,140930.40,A,4437.75899,N,01056.88772,E,8.849,210.14,140422,,,A*61

$GPRMC,140930.60,A,4437.75852,N,01056.88736,E,9.056,209.65,140422,,,A*6D

$GPRMC,140930.80,A,4437.75807,N,01056.88692,E,9.241,211.16,140422,,,A*65

$GPRMC,140930.90,A,4437.75790,N,01056.88657,E,9.322,215.14,140422,,,A*6E

$GPRMC,140931.00,A,4437.75764,N,01056.88628,E,9.646,217.48,140422,,,A*69

$GPRMC,140931.10,A,4437.75739,N,01056.88598,E,9.761,219.25,140422,,,A*69

$GPRMC,140931.20,A,4437.75718,N,01056.88564,E,9.942,221.50,140422,,,A*6C

$GPRMC,140931.30,A,4437.75697,N,01056.88528,E,10.018,223.90,140422,,,A*53

$GPRMC,140931.40,A,4437.75667,N,01056.88502,E,10.068,224.28,140422,,,A*50

$GPGGA,140931.40,4437.75667,N,01056.88502,E,1,07,1.31,56.1,M,46.0,M,,*66

$GPRMC,140931.50,A,4437.75633,N,01056.88479,E,10.175,223.09,140422,,,A*54

$GPRMC,140931.60,A,4437.75602,N,01056.88456,E,10.042,221.67,140422,,,A*57

$GPRMC,140931.70,A,4437.75578,N,01056.88427,E,10.181,221.11,140422,,,A*51

$GPRMC,140931.80,A,4437.75550,N,01056.88401,E,10.209,220.18,140422,,,A*5B

$GPRMC,140931.90,A,4437.75527,N,01056.88373,E,10.098,220.01,140422,,,A*5A

$GPRMC,140932.00,A,4437.75504,N,01056.88345,E,10.124,220.30,140422,,,A*50

$GPRMC,140932.10,A,4437.75483,N,01056.88312,E,10.152,221.68,140422,,,A*50

$GPRMC,140932.20,A,4437.75464,N,01056.88278,E,10.220,223.20,140422,,,A*5F

$GPRMC,140932.30,A,4437.75443,N,01056.88247,E,10.162,224.44,140422,,,A*57

$GPRMC,140932.40,A,4437.75380,N,01056.88254,E,10.495,217.29,140422,,,A*5C

$GPGGA,140932.40,4437.75380,N,01056.88254,E,1,07,1.77,55.4,M,46.0,M,,*69

$GPRMC,140932.50,A,4437.75353,N,01056.88227,E,10.206,216.44,140422,,,A*51

$GPRMC,140932.60,A,4437.75327,N,01056.88196,E,10.235,217.89,140422,,,A*58

$GPRMC,140932.70,A,4437.75299,N,01056.88168,E,10.515,219.34,140422,,,A*51

$GPRMC,140932.80,A,4437.75265,N,01056.88141,E,10.726,220.04,140422,,,A*5D

$GPRMC,140932.90,A,4437.75230,N,01056.88118,E,10.684,219.75,140422,,,A*55

$GPRMC,140933.00,A,4437.75193,N,01056.88097,E,10.737,218.76,140422,,,A*5A

$GPRMC,140933.10,A,4437.75158,N,01056.88076,E,10.948,217.49,140422,,,A*56

$GPRMC,140933.20,A,4437.75121,N,01056.88058,E,10.828,216.09,140422,,,A*55

$GPRMC,140933.30,A,4437.75088,N,01056.88035,E,10.909,215.54,140422,,,A*54

$GPRMC,140933.40,A,4437.75056,N,01056.88005,E,11.048,215.92,140422,,,A*54

$GPGGA,140933.40,4437.75056,N,01056.88005,E,1,07,1.77,54.2,M,46.0,M,,*61

$GPRMC,140933.50,A,4437.75028,N,01056.87972,E,10.945,217.93,140422,,,A*5C

$GPRMC,140933.60,A,4437.75001,N,01056.87939,E,11.209,219.10,140422,,,A*5C

$GPRMC,140933.70,A,4437.74975,N,01056.87904,E,11.091,220.92,140422,,,A*5B

$GPRMC,140933.80,A,4437.74949,N,01056.87871,E,11.185,221.69,140422,,,A*59

$GPRMC,140933.90,A,4437.74921,N,01056.87839,E,11.190,222.81,140422,,,A*5B

$GPRMC,140934.00,A,4437.74894,N,01056.87805,E,11.420,224.13,140422,,,A*56

$GPRMC,140934.10,A,4437.74863,N,01056.87776,E,11.491,224.04,140422,,,A*58

$GPRMC,140934.20,A,4437.74838,N,01056.87741,E,11.358,225.03,140422,,,A*55

$GPRMC,140934.30,A,4437.74816,N,01056.87704,E,11.371,226.02,140422,,,A*50

$GPRMC,140934.40,A,4437.74792,N,01056.87668,E,11.525,225.96,140422,,,A*56

$GPGGA,140934.40,4437.74792,N,01056.87668,E,1,07,1.34,53.8,M,46.0,M,,*60

$GPRMC,140934.50,A,4437.74769,N,01056.87633,E,11.435,225.91,140422,,,A*5A

$GPRMC,140934.60,A,4437.74746,N,01056.87597,E,11.502,225.65,140422,,,A*57

$GPRMC,140934.70,A,4437.74720,N,01056.87564,E,11.417,224.21,140422,,,A*5E

$GPRMC,140934.80,A,4437.74696,N,01056.87529,E,11.323,223.44,140422,,,A*50

$GPRMC,140934.90,A,4437.74675,N,01056.87490,E,11.332,224.31,140422,,,A*5A

$GPRMC,140935.00,A,4437.74651,N,01056.87452,E,11.294,223.87,140422,,,A*5D

$GPRMC,140935.10,A,4437.74626,N,01056.87414,E,11.332,224.16,140422,,,A*5C

$GPRMC,140935.20,A,4437.74600,N,01056.87378,E,11.357,224.32,140422,,,A*53

$GPRMC,140935.30,A,4437.74573,N,01056.87343,E,11.321,223.62,140422,,,A*5E

$GPRMC,140935.40,A,4437.74548,N,01056.87305,E,11.377,224.14,140422,,,A*56

$GPGGA,140935.40,4437.74548,N,01056.87305,E,1,09,0.98,53.6,M,46.0,M,,*6D

$GPRMC,140935.60,A,4437.74497,N,01056.87240,E,11.688,223.26,140422,,,A*54

$GPRMC,140935.70,A,4437.74466,N,01056.87206,E,11.806,222.48,140422,,,A*58

$GPRMC,140935.80,A,4437.74433,N,01056.87177,E,11.841,221.18,140422,,,A*57

$GPRMC,140935.90,A,4437.74404,N,01056.87151,E,10.894,220.55,140422,,,A*57

$GPRMC,140936.00,A,4437.74367,N,01056.87126,E,11.631,219.21,140422,,,A*56

$GPRMC,140936.10,A,4437.74337,N,01056.87099,E,11.459,219.54,140422,,,A*59

$GPRMC,140936.30,A,4437.74284,N,01056.87048,E,11.337,219.01,140422,,,A*51

$GPRMC,140936.40,A,4437.74247,N,01056.87023,E,11.413,218.78,140422,,,A*5A

$GPRMC,140936.50,A,4437.74207,N,01056.86999,E,11.730,217.66,140422,,,A*54

$GPRMC,140936.60,A,4437.74174,N,01056.86976,E,11.592,217.85,140422,,,A*56

$GPGGA,140936.60,4437.74174,N,01056.86976,E,1,08,1.31,52.8,M,46.0,M,,*64

$GPRMC,140936.70,A,4437.74139,N,01056.86944,E,11.968,218.87,140422,,,A*5B

$GPRMC,140936.80,A,4437.74108,N,01056.86912,E,12.093,219.29,140422,,,A*5E

$GPRMC,140936.90,A,4437.74071,N,01056.86881,E,12.124,219.15,140422,,,A*59

$GPRMC,140937.00,A,4437.74036,N,01056.86854,E,12.158,218.93,140422,,,A*5E

$GPRMC,140937.10,A,4437.73999,N,01056.86825,E,12.290,219.32,140422,,,A*5F

$GPRMC,140937.20,A,4437.73962,N,01056.86797,E,12.264,218.47,140422,,,A*56

$GPRMC,140937.30,A,4437.73926,N,01056.86765,E,12.441,218.89,140422,,,A*59

$GPRMC,140937.40,A,4437.73890,N,01056.86734,E,12.451,218.92,140422,,,A*5D

$GPRMC,140937.50,A,4437.73857,N,01056.86703,E,12.440,220.56,140422,,,A*50

$GPRMC,140937.60,A,4437.73821,N,01056.86673,E,12.443,219.77,140422,,,A*5E

$GPGGA,140937.60,4437.73821,N,01056.86673,E,1,08,0.98,51.1,M,46.0,M,,*69

$GPRMC,140937.70,A,4437.73788,N,01056.86642,E,12.692,221.22,140422,,,A*54

$GPRMC,140937.80,A,4437.73752,N,01056.86614,E,12.450,219.13,140422,,,A*5A

$GPRMC,140937.90,A,4437.73714,N,01056.86585,E,12.746,220.22,140422,,,A*5E

$GPRMC,140938.00,A,4437.73680,N,01056.86554,E,12.630,220.20,140422,,,A*5A

$GPRMC,140938.10,A,4437.73645,N,01056.86521,E,12.797,220.23,140422,,,A*5F

$GPRMC,140938.20,A,4437.73611,N,01056.86490,E,12.622,220.22,140422,,,A*58

$GPRMC,140938.30,A,4437.73576,N,01056.86458,E,12.657,219.40,140422,,,A*53

$GPRMC,140938.40,A,4437.73543,N,01056.86427,E,12.866,220.28,140422,,,A*52

$GPRMC,140938.50,A,4437.73507,N,01056.86398,E,12.809,219.89,140422,,,A*58

$GPRMC,140938.60,A,4437.73473,N,01056.86370,E,12.612,219.99,140422,,,A*5A

$GPGGA,140938.60,4437.73473,N,01056.86370,E,1,08,1.28,49.7,M,46.0,M,,*6E

$GPRMC,140938.70,A,4437.73436,N,01056.86340,E,12.841,218.52,140422,,,A*57

$GPRMC,140938.80,A,4437.73399,N,01056.86310,E,12.908,218.28,140422,,,A*5E

$GPRMC,140938.90,A,4437.73362,N,01056.86282,E,12.824,216.65,140422,,,A*59

$GPRMC,140939.00,A,4437.73324,N,01056.86255,E,13.081,216.19,140422,,,A*54

$GPRMC,140939.10,A,4437.73287,N,01056.86233,E,12.768,214.65,140422,,,A*55

$GPRMC,140939.20,A,4437.73249,N,01056.86209,E,12.968,214.06,140422,,,A*56

$GPRMC,140939.30,A,4437.73212,N,01056.86186,E,12.722,212.97,140422,,,A*53

$GPRMC,140939.40,A,4437.73173,N,01056.86165,E,13.061,209.45,140422,,,A*59

$GPRMC,140939.50,A,4437.73137,N,01056.86143,E,12.802,209.05,140422,,,A*54

$GPRMC,140939.60,A,4437.73105,N,01056.86124,E,12.571,207.00,140422,,,A*55

$GPGGA,140939.60,4437.73105,N,01056.86124,E,1,09,0.95,48.6,M,46.0,M,,*6E

$GPRMC,140939.70,A,4437.73067,N,01056.86106,E,12.694,205.65,140422,,,A*58

$GPRMC,140939.80,A,4437.73028,N,01056.86092,E,12.511,202.52,140422,,,A*5D

$GPRMC,140939.90,A,4437.72988,N,01056.86079,E,12.629,200.67,140422,,,A*57

$GPRMC,140940.00,A,4437.72953,N,01056.86065,E,12.018,199.30,140422,,,A*5E

$GPRMC,140940.10,A,4437.72917,N,01056.86054,E,11.963,197.29,140422,,,A*5D

$GPRMC,140940.20,A,4437.72882,N,01056.86043,E,11.852,195.81,140422,,,A*56

$GPRMC,140940.30,A,4437.72848,N,01056.86035,E,11.750,193.32,140422,,,A*53

$GPRMC,140940.40,A,4437.72814,N,01056.86026,E,11.766,192.52,140422,,,A*5D

$GPRMC,140940.50,A,4437.72781,N,01056.86019,E,11.359,191.01,140422,,,A*5E

$GPRMC,140940.60,A,4437.72748,N,01056.86013,E,11.061,188.61,140422,,,A*54

$GPGGA,140940.60,4437.72748,N,01056.86013,E,1,08,1.28,48.0,M,46.0,M,,*6B

$GPRMC,140940.70,A,4437.72715,N,01056.86011,E,11.197,185.74,140422,,,A*5E

$GPRMC,140940.80,A,4437.72683,N,01056.86008,E,10.960,184.06,140422,,,A*52

$GPRMC,140940.90,A,4437.72650,N,01056.86010,E,10.656,180.14,140422,,,A*59

$GPRMC,140941.00,A,4437.72618,N,01056.86012,E,10.733,178.62,140422,,,A*5B

$GPRMC,140941.10,A,4437.72586,N,01056.86016,E,10.640,175.29,140422,,,A*5D

$GPRMC,140941.20,A,4437.72558,N,01056.86020,E,9.946,173.56,140422,,,A*67

$GPRMC,140941.30,A,4437.72530,N,01056.86023,E,9.826,172.82,140422,,,A*64

$GPRMC,140941.40,A,4437.72503,N,01056.86032,E,9.673,169.12,140422,,,A*6E

$GPRMC,140941.50,A,4437.72477,N,01056.86040,E,9.258,166.55,140422,,,A*69

$GPRMC,140941.60,A,4437.72449,N,01056.86050,E,9.401,164.60,140422,,,A*68

$GPGGA,140941.60,4437.72449,N,01056.86050,E,1,07,2.02,47.6,M,46.0,M,,*62

$GPRMC,140941.70,A,4437.72421,N,01056.86060,E,9.553,161.25,140422,,,A*66

$GPRMC,140941.80,A,4437.72397,N,01056.86070,E,9.083,159.53,140422,,,A*60

$GPRMC,140941.90,A,4437.72371,N,01056.86086,E,9.545,154.86,140422,,,A*6A

$GPRMC,140942.00,A,4437.72345,N,01056.86100,E,9.714,152.97,140422,,,A*68

$GPRMC,140942.10,A,4437.72321,N,01056.86116,E,9.682,149.70,140422,,,A*61

$GPRMC,140942.20,A,4437.72301,N,01056.86137,E,9.692,146.41,140422,,,A*6F

$GPRMC,140942.30,A,4437.72278,N,01056.86157,E,9.977,145.18,140422,,,A*6C

$GPRMC,140942.40,A,4437.72258,N,01056.86178,E,9.836,143.60,140422,,,A*69

$GPRMC,140942.50,A,4437.72242,N,01056.86201,E,9.542,140.76,140422,,,A*64

$GPRMC,140942.60,A,4437.72224,N,01056.86225,E,9.528,138.10,140422,,,A*62

$GPGGA,140942.60,4437.72224,N,01056.86225,E,1,09,1.05,47.3,M,46.0,M,,*63

$GPRMC,140942.70,A,4437.72203,N,01056.86252,E,10.040,135.81,140422,,,A*50

$GPRMC,140942.80,A,4437.72185,N,01056.86276,E,9.814,134.76,140422,,,A*6C

$GPRMC,140942.90,A,4437.72165,N,01056.86303,E,10.102,133.03,140422,,,A*53

$GPRMC,140943.00,A,4437.72144,N,01056.86332,E,10.576,131.81,140422,,,A*55

$GPRMC,140943.10,A,4437.72131,N,01056.86359,E,9.524,129.13,140422,,,A*66

$GPRMC,140943.20,A,4437.72114,N,01056.86390,E,10.141,126.12,140422,,,A*56

$GPRMC,140943.30,A,4437.72092,N,01056.86417,E,9.998,126.83,140422,,,A*6C

$GPRMC,140943.40,A,4437.72076,N,01056.86449,E,10.454,124.51,140422,,,A*52

$GPRMC,140943.50,A,4437.72058,N,01056.86478,E,10.413,124.38,140422,,,A*51

$GPRMC,140943.60,A,4437.72042,N,01056.86506,E,9.669,124.01,140422,,,A*6C

$GPGGA,140943.60,4437.72042,N,01056.86506,E,1,09,0.87,47.1,M,46.0,M,,*6F

$GPRMC,140943.70,A,4437.72022,N,01056.86538,E,10.631,123.21,140422,,,A*56

$GPRMC,140943.80,A,4437.72003,N,01056.86566,E,9.933,123.77,140422,,,A*67

$GPRMC,140943.90,A,4437.71984,N,01056.86594,E,9.750,124.35,140422,,,A*64

$GPRMC,140944.00,A,4437.71966,N,01056.86623,E,9.806,124.03,140422,,,A*60

$GPRMC,140944.10,A,4437.71944,N,01056.86653,E,10.379,125.24,140422,,,A*59

$GPRMC,140944.20,A,4437.71924,N,01056.86682,E,10.420,125.58,140422,,,A*50

$GPRMC,140944.30,A,4437.71904,N,01056.86713,E,10.281,124.95,140422,,,A*57

$GPRMC,140944.40,A,4437.71883,N,01056.86744,E,10.196,124.35,140422,,,A*53

$GPRMC,140944.50,A,4437.71861,N,01056.86773,E,10.169,124.68,140422,,,A*52

$GPRMC,140944.60,A,4437.71840,N,01056.86805,E,10.485,124.75,140422,,,A*57

$GPGGA,140944.60,4437.71840,N,01056.86805,E,1,09,0.95,46.9,M,46.0,M,,*65

$GPRMC,140944.70,A,4437.71818,N,01056.86837,E,10.537,125.46,140422,,,A*53

$GPRMC,140944.80,A,4437.71795,N,01056.86870,E,11.032,126.11,140422,,,A*55

$GPRMC,140944.90,A,4437.71773,N,01056.86903,E,10.830,126.50,140422,,,A*57

$GPRMC,140945.00,A,4437.71752,N,01056.86937,E,11.013,125.93,140422,,,A*5F

$GPRMC,140945.10,A,4437.71729,N,01056.86968,E,10.919,126.70,140422,,,A*54

$GPRMC,140945.20,A,4437.71707,N,01056.87000,E,10.841,127.38,140422,,,A*5C

$GPRMC,140945.30,A,4437.71687,N,01056.87032,E,11.074,126.39,140422,,,A*5A

$GPRMC,140945.40,A,4437.71665,N,01056.87064,E,11.086,126.86,140422,,,A*5B

$GPRMC,140945.50,A,4437.71641,N,01056.87095,E,10.978,127.54,140422,,,A*55

$GPRMC,140945.60,A,4437.71615,N,01056.87126,E,10.954,128.52,140422,,,A*59

$GPGGA,140945.60,4437.71615,N,01056.87126,E,1,08,0.95,46.1,M,46.0,M,,*6A

$GPRMC,140945.70,A,4437.71594,N,01056.87163,E,11.470,127.28,140422,,,A*5B

$GPRMC,140945.80,A,4437.71573,N,01056.87196,E,11.261,127.42,140422,,,A*5D

$GPRMC,140945.90,A,4437.71549,N,01056.87231,E,11.241,127.28,140422,,,A*55

$GPRMC,140946.00,A,4437.71528,N,01056.87265,E,11.359,127.04,140422,,,A*5F

$GPRMC,140946.10,A,4437.71506,N,01056.87300,E,11.539,127.15,140422,,,A*50

$GPRMC,140946.20,A,4437.71483,N,01056.87334,E,11.488,127.28,140422,,,A*5D

$GPRMC,140946.30,A,4437.71459,N,01056.87370,E,11.463,126.71,140422,,,A*53

$GPRMC,140946.40,A,4437.71433,N,01056.87406,E,11.676,127.71,140422,,,A*59

$GPRMC,140946.50,A,4437.71407,N,01056.87441,E,11.551,127.60,140422,,,A*5A

$GPRMC,140946.60,A,4437.71383,N,01056.87475,E,11.741,127.59,140422,,,A*5C

$GPGGA,140946.60,4437.71383,N,01056.87475,E,1,09,0.98,45.3,M,46.0,M,,*6D

$GPRMC,140946.70,A,4437.71358,N,01056.87509,E,11.666,128.24,140422,,,A*50

$GPRMC,140946.80,A,4437.71333,N,01056.87544,E,11.630,127.82,140422,,,A*5B

$GPRMC,140946.90,A,4437.71309,N,01056.87581,E,11.554,126.87,140422,,,A*5F

$GPRMC,140947.00,A,4437.71287,N,01056.87615,E,11.474,126.32,140422,,,A*53

