

$GPRMC,135612.40,A,4437.78813,N,01057.00224,E,0.070,,140422,,,A*76

$GPGGA,135612.40,4437.78813,N,01057.00224,E,1,09,1.07,34.9,M,46.0,M,,*6F

$GPRMC,135612.50,A,4437.78810,N,01057.00227,E,0.067,,140422,,,A*71

$GPRMC,135612.60,A,4437.78807,N,01057.00230,E,0.070,,140422,,,A*74

$GPRMC,135612.70,A,4437.78804,N,01057.00233,E,0.064,,140422,,,A*70

$GPRMC,135612.80,A,4437.78800,N,01057.00236,E,0.086,,140422,,,A*72

$GPRMC,135612.90,A,4437.78798,N,01057.00239,E,0.111,,140422,,,A*7D

$GPRMC,135613.00,A,4437.78794,N,01057.00244,E,0.104,,140422,,,A*77

$GPRMC,135613.10,A,4437.78792,N,01057.00247,E,0.085,,140422,,,A*7B

$GPRMC,135613.20,A,4437.78791,N,01057.00250,E,0.098,,140422,,,A*71

$GPRMC,135613.30,A,4437.78789,N,01057.00252,E,0.050,,140422,,,A*7F

$GPRMC,135613.40,A,4437.78787,N,01057.00253,E,0.156,,140422,,,A*70

$GPGGA,135613.40,4437.78787,N,01057.00253,E,1,09,1.07,34.7,M,46.0,M,,*62

$GPRMC,135613.50,A,4437.78784,N,01057.00255,E,0.160,,140422,,,A*71

$GPRMC,135613.60,A,4437.78783,N,01057.00256,E,0.103,,140422,,,A*73

$GPRMC,135613.70,A,4437.78781,N,01057.00257,E,0.047,,140422,,,A*70

$GPRMC,135613.80,A,4437.78779,N,01057.00259,E,0.177,,140422,,,A*74

$GPRMC,135613.90,A,4437.78776,N,01057.00260,E,0.036,,140422,,,A*74

$GPRMC,135614.00,A,4437.78775,N,01057.00262,E,0.022,,140422,,,A*7E

$GPRMC,135614.10,A,4437.78772,N,01057.00262,E,0.090,,140422,,,A*71

$GPRMC,135614.20,A,4437.78771,N,01057.00264,E,0.039,,140422,,,A*74

$GPRMC,135614.30,A,4437.78769,N,01057.00265,E,0.129,,140422,,,A*7D

$GPRMC,135614.40,A,4437.78765,N,01057.00268,E,0.035,,140422,,,A*77

$GPGGA,135614.40,4437.78765,N,01057.00268,E,1,09,1.07,34.6,M,46.0,M,,*60

$GPRMC,135614.50,A,4437.78763,N,01057.00270,E,0.077,,140422,,,A*7F

$GPRMC,135614.60,A,4437.78760,N,01057.00270,E,0.112,,140422,,,A*7D

$GPRMC,135614.70,A,4437.78758,N,01057.00272,E,0.097,,140422,,,A*79

$GPRMC,135614.80,A,4437.78756,N,01057.00273,E,0.092,,140422,,,A*7C

$GPRMC,135614.90,A,4437.78754,N,01057.00275,E,0.049,,140422,,,A*7F

$GPRMC,135615.00,A,4437.78752,N,01057.00278,E,0.214,,140422,,,A*76

$GPRMC,135615.10,A,4437.78750,N,01057.00280,E,0.234,,140422,,,A*70

$GPRMC,135615.20,A,4437.78748,N,01057.00282,E,0.099,,140422,,,A*7D

$GPRMC,135615.30,A,4437.78747,N,01057.00283,E,0.122,,140422,,,A*73

$GPRMC,135615.40,A,4437.78745,N,01057.00285,E,0.093,,140422,,,A*7B

$GPGGA,135615.40,4437.78745,N,01057.00285,E,1,09,1.07,34.6,M,46.0,M,,*60

$GPRMC,135615.50,A,4437.78743,N,01057.00287,E,0.179,,140422,,,A*7B

$GPRMC,135615.60,A,4437.78742,N,01057.00289,E,0.299,,140422,,,A*7A

$GPRMC,135615.70,A,4437.78741,N,01057.00290,E,0.217,,140422,,,A*76

$GPRMC,135615.80,A,4437.78741,N,01057.00291,E,0.103,,140422,,,A*7E

$GPRMC,135615.90,A,4437.78740,N,01057.00292,E,0.207,,140422,,,A*7A

$GPRMC,135616.00,A,4437.78740,N,01057.00293,E,0.268,,140422,,,A*78

$GPRMC,135616.10,A,4437.78740,N,01057.00294,E,0.201,,140422,,,A*71

$GPRMC,135616.20,A,4437.78741,N,01057.00295,E,0.451,306.60,140422,,,A*6C

$GPRMC,135616.30,A,4437.78741,N,01057.00298,E,0.543,358.83,140422,,,A*64

$GPRMC,135616.40,A,4437.78743,N,01057.00301,E,0.829,23.57,140422,,,A*57

$GPGGA,135616.40,4437.78743,N,01057.00301,E,1,09,0.87,34.6,M,46.0,M,,*61

$GPRMC,135616.50,A,4437.78745,N,01057.00306,E,1.135,35.39,140422,,,A*5D

$GPRMC,135616.60,A,4437.78747,N,01057.00310,E,0.935,44.35,140422,,,A*58

$GPRMC,135616.70,A,4437.78746,N,01057.00314,E,1.131,62.12,140422,,,A*50

$GPRMC,135616.80,A,4437.78753,N,01057.00318,E,2.321,34.78,140422,,,A*58

$GPRMC,135616.90,A,4437.78756,N,01057.00318,E,2.733,25.19,140422,,,A*5C

$GPRMC,135617.00,A,4437.78761,N,01057.00322,E,2.940,20.88,140422,,,A*5E

$GPRMC,135617.10,A,4437.78767,N,01057.00332,E,3.445,26.25,140422,,,A*50

$GPRMC,135617.20,A,4437.78774,N,01057.00340,E,3.753,30.82,140422,,,A*5A

$GPRMC,135617.30,A,4437.78781,N,01057.00349,E,3.897,34.04,140422,,,A*55

$GPRMC,135617.40,A,4437.78787,N,01057.00360,E,3.833,38.96,140422,,,A*56

$GPGGA,135617.40,4437.78787,N,01057.00360,E,1,09,0.87,34.9,M,46.0,M,,*60

$GPRMC,135617.50,A,4437.78793,N,01057.00372,E,4.003,42.81,140422,,,A*56

$GPRMC,135617.60,A,4437.78800,N,01057.00381,E,3.952,42.48,140422,,,A*53

$GPRMC,135617.70,A,4437.78807,N,01057.00385,E,3.808,36.52,140422,,,A*57

$GPRMC,135617.80,A,4437.78812,N,01057.00399,E,4.047,40.21,140422,,,A*50

$GPRMC,135617.90,A,4437.78818,N,01057.00410,E,4.208,42.97,140422,,,A*5B

$GPRMC,135618.00,A,4437.78826,N,01057.00420,E,4.399,41.01,140422,,,A*56

$GPRMC,135618.10,A,4437.78835,N,01057.00435,E,4.846,42.65,140422,,,A*59

$GPRMC,135618.20,A,4437.78843,N,01057.00446,E,4.660,43.81,140422,,,A*5E

$GPRMC,135618.30,A,4437.78852,N,01057.00453,E,4.529,40.46,140422,,,A*5D

$GPRMC,135618.40,A,4437.78862,N,01057.00466,E,4.887,39.28,140422,,,A*50

$GPGGA,135618.40,4437.78862,N,01057.00466,E,1,09,0.87,35.7,M,46.0,M,,*65

$GPRMC,135618.60,A,4437.78881,N,01057.00486,E,4.452,38.58,140422,,,A*53

$GPRMC,135618.70,A,4437.78889,N,01057.00498,E,4.733,38.44,140422,,,A*5C

$GPRMC,135618.80,A,4437.78898,N,01057.00510,E,4.679,39.79,140422,,,A*52

$GPRMC,135618.90,A,4437.78889,N,01057.00513,E,3.438,38.80,140422,,,A*57

$GPRMC,135619.00,A,4437.78886,N,01057.00523,E,3.246,40.04,140422,,,A*5F

$GPRMC,135619.10,A,4437.78885,N,01057.00529,E,3.035,37.50,140422,,,A*50

$GPRMC,135619.30,A,4437.78900,N,01057.00549,E,4.321,38.23,140422,,,A*52

$GPRMC,135619.40,A,4437.78910,N,01057.00553,E,3.998,34.39,140422,,,A*57

$GPRMC,135619.50,A,4437.78916,N,01057.00570,E,4.304,39.29,140422,,,A*55

$GPRMC,135619.60,A,4437.78925,N,01057.00579,E,4.540,38.23,140422,,,A*52

$GPGGA,135619.60,4437.78925,N,01057.00579,E,1,09,0.87,38.3,M,46.0,M,,*62

$GPRMC,135619.70,A,4437.78931,N,01057.00594,E,4.647,42.04,140422,,,A*59

$GPRMC,135619.80,A,4437.78943,N,01057.00609,E,4.995,44.26,140422,,,A*52

$GPRMC,135619.90,A,4437.78958,N,01057.00623,E,5.763,42.71,140422,,,A*53

$GPRMC,135620.00,A,4437.78971,N,01057.00638,E,5.894,41.86,140422,,,A*5D

$GPRMC,135620.10,A,4437.78982,N,01057.00651,E,5.672,43.11,140422,,,A*55

$GPRMC,135620.30,A,4437.79002,N,01057.00678,E,5.211,43.06,140422,,,A*5B

$GPRMC,135620.40,A,4437.79017,N,01057.00696,E,5.902,46.37,140422,,,A*56

$GPRMC,135620.50,A,4437.79032,N,01057.00712,E,6.295,45.11,140422,,,A*5C

$GPRMC,135620.60,A,4437.79047,N,01057.00729,E,6.405,45.26,140422,,,A*5E

$GPRMC,135620.70,A,4437.79058,N,01057.00743,E,6.133,44.11,140422,,,A*58

$GPGGA,135620.70,4437.79058,N,01057.00743,E,1,09,0.87,39.3,M,46.0,M,,*61

$GPRMC,135620.80,A,4437.79068,N,01057.00762,E,6.352,45.82,140422,,,A*59

$GPRMC,135620.90,A,4437.79083,N,01057.00778,E,6.350,45.88,140422,,,A*5E

$GPRMC,135621.00,A,4437.79086,N,01057.00792,E,5.772,44.96,140422,,,A*5E

$GPRMC,135621.10,A,4437.79091,N,01057.00807,E,5.346,46.53,140422,,,A*52

$GPRMC,135621.20,A,4437.79097,N,01057.00825,E,5.584,49.45,140422,,,A*57

$GPRMC,135621.30,A,4437.79108,N,01057.00844,E,5.925,49.75,140422,,,A*52

$GPRMC,135621.40,A,4437.79119,N,01057.00861,E,5.871,50.50,140422,,,A*5D

$GPRMC,135621.50,A,4437.79139,N,01057.00877,E,6.450,46.13,140422,,,A*55

$GPRMC,135621.60,A,4437.79156,N,01057.00889,E,6.554,40.58,140422,,,A*52

$GPRMC,135621.70,A,4437.79167,N,01057.00901,E,6.144,38.69,140422,,,A*58

$GPGGA,135621.70,4437.79167,N,01057.00901,E,1,09,0.87,40.9,M,46.0,M,,*61

$GPRMC,135621.80,A,4437.79178,N,01057.00920,E,6.529,39.64,140422,,,A*59

$GPRMC,135621.90,A,4437.79191,N,01057.00936,E,6.392,40.15,140422,,,A*56

$GPRMC,135622.00,A,4437.79208,N,01057.00952,E,6.667,39.40,140422,,,A*5C

$GPRMC,135622.10,A,4437.79226,N,01057.00967,E,6.814,37.79,140422,,,A*59

$GPRMC,135622.20,A,4437.79243,N,01057.00980,E,6.815,35.69,140422,,,A*52

$GPRMC,135622.30,A,4437.79263,N,01057.00997,E,7.129,34.93,140422,,,A*54

$GPRMC,135622.40,A,4437.79283,N,01057.01010,E,7.116,32.78,140422,,,A*55

$GPRMC,135622.50,A,4437.79304,N,01057.01032,E,7.587,34.59,140422,,,A*53

$GPRMC,135622.70,A,4437.79345,N,01057.01068,E,8.022,35.28,140422,,,A*59

$GPRMC,135622.80,A,4437.79361,N,01057.01073,E,6.646,32.26,140422,,,A*59

$GPGGA,135622.80,4437.79361,N,01057.01073,E,1,09,0.87,41.4,M,46.0,M,,*68

$GPRMC,135622.90,A,4437.79381,N,01057.01090,E,6.889,33.06,140422,,,A*55

$GPRMC,135623.00,A,4437.79406,N,01057.01098,E,6.950,26.94,140422,,,A*57

$GPRMC,135623.10,A,4437.79428,N,01057.01112,E,7.374,24.87,140422,,,A*54

$GPRMC,135623.20,A,4437.79445,N,01057.01124,E,7.205,23.99,140422,,,A*56

$GPRMC,135623.30,A,4437.79462,N,01057.01133,E,7.104,22.07,140422,,,A*50

$GPRMC,135623.40,A,4437.79470,N,01057.01146,E,6.848,23.88,140422,,,A*50

$GPRMC,135623.50,A,4437.79485,N,01057.01156,E,6.635,22.14,140422,,,A*5A

$GPRMC,135623.60,A,4437.79495,N,01057.01165,E,6.685,19.42,140422,,,A*58

$GPRMC,135623.70,A,4437.79518,N,01057.01172,E,7.529,14.85,140422,,,A*59

$GPRMC,135623.80,A,4437.79543,N,01057.01174,E,7.477,7.53,140422,,,A*6D

$GPGGA,135623.80,4437.79543,N,01057.01174,E,1,09,1.14,42.4,M,46.0,M,,*61

$GPRMC,135623.90,A,4437.79572,N,01057.01177,E,7.813,2.83,140422,,,A*6B

$GPRMC,135624.00,A,4437.79598,N,01057.01175,E,7.833,357.63,140422,,,A*6C

$GPRMC,135624.10,A,4437.79625,N,01057.01171,E,7.989,352.60,140422,,,A*6A

$GPRMC,135624.30,A,4437.79674,N,01057.01155,E,8.342,344.98,140422,,,A*68

$GPRMC,135624.40,A,4437.79703,N,01057.01145,E,8.493,342.17,140422,,,A*65

$GPRMC,135624.60,A,4437.79753,N,01057.01122,E,8.777,338.41,140422,,,A*64

$GPRMC,135624.70,A,4437.79780,N,01057.01107,E,9.139,334.13,140422,,,A*6A

$GPRMC,135624.80,A,4437.79805,N,01057.01093,E,9.033,331.52,140422,,,A*60

$GPRMC,135624.90,A,4437.79829,N,01057.01078,E,8.954,328.64,140422,,,A*6E

$GPRMC,135625.00,A,4437.79852,N,01057.01059,E,9.081,325.26,140422,,,A*62

$GPGGA,135625.00,4437.79852,N,01057.01059,E,1,09,0.87,41.4,M,46.0,M,,*64

$GPRMC,135625.10,A,4437.79873,N,01057.01043,E,9.008,323.95,140422,,,A*64

$GPRMC,135625.30,A,4437.79916,N,01057.01002,E,8.989,320.91,140422,,,A*67

$GPRMC,135625.40,A,4437.79936,N,01057.00982,E,8.787,318.45,140422,,,A*60

$GPRMC,135625.50,A,4437.79962,N,01057.00959,E,9.404,318.95,140422,,,A*62

$GPRMC,135625.60,A,4437.79986,N,01057.00933,E,9.521,316.06,140422,,,A*65

$GPRMC,135625.70,A,4437.80004,N,01057.00909,E,9.243,313.52,140422,,,A*6F

$GPRMC,135625.80,A,4437.80027,N,01057.00883,E,9.681,313.55,140422,,,A*6F

$GPRMC,135625.90,A,4437.80048,N,01057.00855,E,9.927,312.62,140422,,,A*6A

$GPRMC,135626.00,A,4437.80065,N,01057.00834,E,9.271,310.46,140422,,,A*64

$GPRMC,135626.10,A,4437.80086,N,01057.00806,E,9.566,310.36,140422,,,A*6F

$GPGGA,135626.10,4437.80086,N,01057.00806,E,1,08,0.92,40.7,M,46.0,M,,*65

$GPRMC,135626.20,A,4437.80108,N,01057.00780,E,9.627,311.11,140422,,,A*68

$GPRMC,135626.30,A,4437.80126,N,01057.00753,E,9.791,310.12,140422,,,A*65

$GPRMC,135626.40,A,4437.80143,N,01057.00724,E,9.738,307.86,140422,,,A*69

$GPRMC,135626.50,A,4437.80164,N,01057.00695,E,9.934,309.00,140422,,,A*64

$GPRMC,135626.60,A,4437.80183,N,01057.00667,E,9.884,309.50,140422,,,A*6C

$GPRMC,135626.70,A,4437.80200,N,01057.00638,E,10.033,307.49,140422,,,A*55

$GPRMC,135626.80,A,4437.80221,N,01057.00610,E,10.050,309.36,140422,,,A*50

$GPRMC,135626.90,A,4437.80239,N,01057.00580,E,10.206,307.36,140422,,,A*5D

$GPRMC,135627.00,A,4437.80259,N,01057.00551,E,10.203,307.63,140422,,,A*5A

$GPRMC,135627.10,A,4437.80281,N,01057.00521,E,10.206,307.53,140422,,,A*5F

$GPGGA,135627.10,4437.80281,N,01057.00521,E,1,08,0.92,40.2,M,46.0,M,,*6C

$GPRMC,135627.20,A,4437.80303,N,01057.00492,E,10.522,308.68,140422,,,A*58

$GPRMC,135627.30,A,4437.80324,N,01057.00463,E,10.133,307.80,140422,,,A*5F

$GPRMC,135627.40,A,4437.80346,N,01057.00434,E,10.484,310.16,140422,,,A*5E

$GPRMC,135627.50,A,4437.80368,N,01057.00403,E,10.541,308.47,140422,,,A*52

$GPRMC,135627.60,A,4437.80389,N,01057.00373,E,10.376,308.59,140422,,,A*53

$GPRMC,135627.70,A,4437.80413,N,01057.00342,E,10.900,309.69,140422,,,A*5D

$GPRMC,135627.80,A,4437.80434,N,01057.00313,E,10.481,309.22,140422,,,A*58

$GPRMC,135627.90,A,4437.80457,N,01057.00283,E,10.601,310.17,140422,,,A*50

$GPRMC,135628.00,A,4437.80480,N,01057.00250,E,10.829,308.40,140422,,,A*5D

$GPRMC,135628.10,A,4437.80502,N,01057.00220,E,10.515,308.92,140422,,,A*5D

$GPGGA,135628.10,4437.80502,N,01057.00220,E,1,08,0.92,39.2,M,46.0,M,,*67

$GPRMC,135628.20,A,4437.80525,N,01057.00188,E,10.942,309.32,140422,,,A*5F

$GPRMC,135628.30,A,4437.80547,N,01057.00156,E,10.916,309.03,140422,,,A*5A

$GPRMC,135628.40,A,4437.80569,N,01057.00125,E,10.795,309.01,140422,,,A*52

$GPRMC,135628.50,A,4437.80592,N,01057.00093,E,10.922,308.26,140422,,,A*5D

$GPRMC,135628.60,A,4437.80614,N,01057.00063,E,10.651,308.50,140422,,,A*56

$GPRMC,135628.70,A,4437.80636,N,01057.00031,E,10.786,307.76,140422,,,A*50

$GPRMC,135628.90,A,4437.80673,N,01056.99967,E,10.707,306.53,140422,,,A*5B

$GPRMC,135629.00,A,4437.80690,N,01056.99934,E,10.956,305.17,140422,,,A*51

$GPRMC,135629.10,A,4437.80709,N,01056.99905,E,10.653,307.72,140422,,,A*58

$GPRMC,135629.20,A,4437.80728,N,01056.99870,E,10.870,306.40,140422,,,A*54

$GPGGA,135629.20,4437.80728,N,01056.99870,E,1,09,0.87,38.6,M,46.0,M,,*61

$GPRMC,135629.30,A,4437.80746,N,01056.99835,E,11.134,305.72,140422,,,A*56

$GPRMC,135629.40,A,4437.80765,N,01056.99801,E,11.332,307.30,140422,,,A*57

$GPRMC,135629.50,A,4437.80783,N,01056.99768,E,11.317,307.14,140422,,,A*5F

$GPRMC,135629.60,A,4437.80802,N,01056.99734,E,11.441,306.43,140422,,,A*54

$GPRMC,135629.70,A,4437.80822,N,01056.99701,E,11.617,307.05,140422,,,A*53

$GPRMC,135629.80,A,4437.80842,N,01056.99665,E,11.702,306.40,140422,,,A*5C

$GPRMC,135629.90,A,4437.80860,N,01056.99630,E,11.602,305.24,140422,,,A*5D

$GPRMC,135630.00,A,4437.80880,N,01056.99596,E,11.526,306.66,140422,,,A*5D

$GPRMC,135630.10,A,4437.80900,N,01056.99561,E,11.340,306.49,140422,,,A*56

$GPRMC,135630.20,A,4437.80920,N,01056.99528,E,11.300,307.17,140422,,,A*54

$GPGGA,135630.20,4437.80920,N,01056.99528,E,1,09,0.87,38.6,M,46.0,M,,*6F

$GPRMC,135630.30,A,4437.80941,N,01056.99491,E,11.726,306.10,140422,,,A*57

$GPRMC,135630.40,A,4437.80964,N,01056.99455,E,11.705,307.22,140422,,,A*5E

$GPRMC,135630.50,A,4437.80983,N,01056.99421,E,11.541,306.53,140422,,,A*50

$GPRMC,135630.60,A,4437.81004,N,01056.99384,E,11.710,306.20,140422,,,A*5E

$GPRMC,135630.70,A,4437.81026,N,01056.99348,E,11.845,307.27,140422,,,A*56

$GPRMC,135630.80,A,4437.81045,N,01056.99311,E,12.034,305.72,140422,,,A*5F

$GPRMC,135630.90,A,4437.81066,N,01056.99276,E,11.642,307.06,140422,,,A*5A

$GPRMC,135631.00,A,4437.81087,N,01056.99239,E,11.936,306.27,140422,,,A*58

$GPRMC,135631.10,A,4437.81108,N,01056.99205,E,11.753,307.05,140422,,,A*5C

$GPRMC,135631.20,A,4437.81129,N,01056.99165,E,12.059,305.88,140422,,,A*50

$GPGGA,135631.20,4437.81129,N,01056.99165,E,1,09,0.95,38.3,M,46.0,M,,*65

$GPRMC,135631.30,A,4437.81151,N,01056.99128,E,12.055,306.62,140422,,,A*5C

$GPRMC,135631.40,A,4437.81170,N,01056.99090,E,12.065,304.58,140422,,,A*52

$GPRMC,135631.50,A,4437.81192,N,01056.99052,E,12.334,306.89,140422,,,A*58

$GPRMC,135631.60,A,4437.81211,N,01056.99016,E,11.988,304.95,140422,,,A*52

$GPRMC,135631.70,A,4437.81231,N,01056.98976,E,12.186,306.21,140422,,,A*57

$GPRMC,135631.80,A,4437.81252,N,01056.98937,E,12.485,307.18,140422,,,A*55

$GPRMC,135631.90,A,4437.81270,N,01056.98899,E,12.224,305.89,140422,,,A*56

$GPRMC,135632.00,A,4437.81290,N,01056.98860,E,12.310,305.19,140422,,,A*5B

$GPRMC,135632.10,A,4437.81311,N,01056.98822,E,12.370,305.75,140422,,,A*58

$GPRMC,135632.20,A,4437.81331,N,01056.98780,E,12.561,304.07,140422,,,A*5C

$GPGGA,135632.20,4437.81331,N,01056.98780,E,1,09,1.27,38.0,M,46.0,M,,*6A

$GPRMC,135632.30,A,4437.81351,N,01056.98742,E,12.264,305.10,140422,,,A*50

$GPRMC,135632.40,A,4437.81372,N,01056.98702,E,12.558,304.74,140422,,,A*59

$GPRMC,135632.50,A,4437.81392,N,01056.98663,E,12.551,305.15,140422,,,A*5F

$GPRMC,135632.60,A,4437.81413,N,01056.98622,E,12.759,305.14,140422,,,A*5C

$GPRMC,135632.70,A,4437.81433,N,01056.98583,E,12.651,304.83,140422,,,A*51

$GPRMC,135632.80,A,4437.81454,N,01056.98543,E,12.652,305.43,140422,,,A*5D

$GPRMC,135632.90,A,4437.81475,N,01056.98503,E,12.905,304.87,140422,,,A*5F

$GPRMC,135633.00,A,4437.81495,N,01056.98462,E,12.660,304.57,140422,,,A*5E

$GPRMC,135633.10,A,4437.81515,N,01056.98423,E,12.628,304.32,140422,,,A*5C

$GPRMC,135633.20,A,4437.81536,N,01056.98382,E,12.806,305.06,140422,,,A*56

$GPGGA,135633.20,4437.81536,N,01056.98382,E,1,09,0.87,37.8,M,46.0,M,,*60

$GPRMC,135633.30,A,4437.81557,N,01056.98343,E,12.599,304.80,140422,,,A*59

$GPRMC,135633.40,A,4437.81577,N,01056.98303,E,12.617,304.37,140422,,,A*51

$GPRMC,135633.50,A,4437.81600,N,01056.98264,E,12.685,306.33,140422,,,A*5E

$GPRMC,135633.60,A,4437.81620,N,01056.98226,E,12.402,305.96,140422,,,A*58

$GPRMC,135633.70,A,4437.81643,N,01056.98187,E,12.681,307.11,140422,,,A*50

$GPRMC,135633.80,A,4437.81662,N,01056.98145,E,12.933,304.43,140422,,,A*50

$GPRMC,135633.90,A,4437.81685,N,01056.98108,E,12.791,307.05,140422,,,A*56

$GPRMC,135634.00,A,4437.81707,N,01056.98070,E,12.666,307.54,140422,,,A*50

$GPRMC,135634.10,A,4437.81728,N,01056.98028,E,12.991,305.75,140422,,,A*57

$GPRMC,135634.20,A,4437.81753,N,01056.97991,E,12.908,308.22,140422,,,A*53

$GPGGA,135634.20,4437.81753,N,01056.97991,E,1,09,0.87,37.6,M,46.0,M,,*6F

$GPRMC,135634.30,A,4437.81775,N,01056.97951,E,13.098,307.87,140422,,,A*5B

$GPRMC,135634.40,A,4437.81795,N,01056.97912,E,12.797,306.59,140422,,,A*5E

$GPRMC,135634.50,A,4437.81819,N,01056.97873,E,13.089,307.94,140422,,,A*5B

$GPRMC,135634.60,A,4437.81840,N,01056.97836,E,12.927,307.97,140422,,,A*5A

$GPRMC,135634.70,A,4437.81862,N,01056.97797,E,12.939,307.56,140422,,,A*5D

$GPRMC,135634.80,A,4437.81884,N,01056.97760,E,12.713,308.13,140422,,,A*5A

$GPRMC,135634.90,A,4437.81903,N,01056.97721,E,12.959,306.23,140422,,,A*5D

$GPRMC,135635.00,A,4437.81922,N,01056.97687,E,12.256,306.45,140422,,,A*5F

$GPRMC,135635.10,A,4437.81941,N,01056.97649,E,12.409,305.65,140422,,,A*54

$GPRMC,135635.20,A,4437.81962,N,01056.97613,E,12.305,306.38,140422,,,A*59

$GPGGA,135635.20,4437.81962,N,01056.97613,E,1,09,0.87,37.8,M,46.0,M,,*69

$GPRMC,135635.30,A,4437.81979,N,01056.97570,E,12.435,303.67,140422,,,A*5F

$GPRMC,135635.40,A,4437.82001,N,01056.97530,E,12.445,304.71,140422,,,A*5E

$GPRMC,135635.50,A,4437.82017,N,01056.97490,E,12.260,302.28,140422,,,A*58

$GPRMC,135635.60,A,4437.82035,N,01056.97449,E,12.363,301.70,140422,,,A*53

$GPRMC,135635.70,A,4437.82052,N,01056.97412,E,11.752,301.44,140422,,,A*5F

$GPRMC,135635.80,A,4437.82067,N,01056.97370,E,12.061,298.47,140422,,,A*53

$GPRMC,135635.90,A,4437.82085,N,01056.97331,E,11.777,299.65,140422,,,A*59

$GPRMC,135636.00,A,4437.82101,N,01056.97292,E,11.574,298.73,140422,,,A*51

$GPRMC,135636.10,A,4437.82115,N,01056.97254,E,11.397,297.72,140422,,,A*5A

$GPRMC,135636.20,A,4437.82127,N,01056.97214,E,11.015,295.40,140422,,,A*56

$GPGGA,135636.20,4437.82127,N,01056.97214,E,1,08,0.92,37.7,M,46.0,M,,*69

$GPRMC,135636.30,A,4437.82139,N,01056.97175,E,11.017,293.20,140422,,,A*5E

$GPRMC,135636.40,A,4437.82151,N,01056.97137,E,10.713,292.38,140422,,,A*5B

$GPRMC,135636.50,A,4437.82162,N,01056.97098,E,10.636,290.61,140422,,,A*56

$GPRMC,135636.60,A,4437.82169,N,01056.97068,E,10.059,288.60,140422,,,A*56

$GPRMC,135636.70,A,4437.82177,N,01056.97027,E,10.312,284.86,140422,,,A*5B

$GPRMC,135636.80,A,4437.82187,N,01056.96992,E,9.996,285.65,140422,,,A*6F

$GPRMC,135636.90,A,4437.82191,N,01056.96958,E,9.325,281.59,140422,,,A*66

$GPRMC,135637.00,A,4437.82197,N,01056.96923,E,9.282,280.60,140422,,,A*63

$GPRMC,135637.10,A,4437.82202,N,01056.96888,E,9.263,279.04,140422,,,A*66

$GPRMC,135637.20,A,4437.82206,N,01056.96848,E,9.018,276.92,140422,,,A*63

$GPGGA,135637.20,4437.82206,N,01056.96848,E,1,07,1.36,37.3,M,46.0,M,,*6E

$GPRMC,135637.30,A,4437.82212,N,01056.96810,E,8.682,277.82,140422,,,A*6E

$GPRMC,135637.40,A,4437.82214,N,01056.96776,E,8.715,275.74,140422,,,A*64

$GPRMC,135637.50,A,4437.82214,N,01056.96740,E,8.726,272.68,140422,,,A*6A

$GPRMC,135637.60,A,4437.82212,N,01056.96712,E,8.398,269.20,140422,,,A*6F

$GPRMC,135637.70,A,4437.82210,N,01056.96679,E,8.199,265.85,140422,,,A*60

$GPRMC,135637.80,A,4437.82206,N,01056.96650,E,7.841,263.60,140422,,,A*6D

$GPRMC,135637.90,A,4437.82202,N,01056.96623,E,7.808,261.41,140422,,,A*60

$GPRMC,135638.00,A,4437.82195,N,01056.96599,E,7.539,257.52,140422,,,A*61

$GPRMC,135638.10,A,4437.82189,N,01056.96572,E,7.516,255.10,140422,,,A*61

$GPRMC,135638.20,A,4437.82185,N,01056.96546,E,7.315,254.10,140422,,,A*6D

$GPGGA,135638.20,4437.82185,N,01056.96546,E,1,09,0.87,36.7,M,46.0,M,,*6A

$GPRMC,135638.30,A,4437.82181,N,01056.96522,E,6.748,253.35,140422,,,A*67

$GPRMC,135638.40,A,4437.82173,N,01056.96501,E,6.637,250.95,140422,,,A*6C

$GPRMC,135638.50,A,4437.82161,N,01056.96487,E,6.235,243.29,140422,,,A*62

$GPRMC,135638.60,A,4437.82149,N,01056.96472,E,6.032,236.98,140422,,,A*6C

$GPRMC,135638.70,A,4437.82141,N,01056.96457,E,5.761,232.98,140422,,,A*64

$GPRMC,135638.80,A,4437.82128,N,01056.96442,E,5.923,226.48,140422,,,A*60

$GPRMC,135638.90,A,4437.82115,N,01056.96434,E,5.361,216.70,140422,,,A*6A

$GPRMC,135639.00,A,4437.82107,N,01056.96429,E,4.553,211.23,140422,,,A*6A

$GPRMC,135639.10,A,4437.82101,N,01056.96420,E,4.076,212.41,140422,,,A*61

$GPRMC,135639.20,A,4437.82095,N,01056.96414,E,3.866,212.75,140422,,,A*60

$GPGGA,135639.20,4437.82095,N,01056.96414,E,1,09,0.87,36.7,M,46.0,M,,*6D

$GPRMC,135639.30,A,4437.82084,N,01056.96407,E,4.302,207.86,140422,,,A*65

$GPRMC,135639.40,A,4437.82072,N,01056.96403,E,4.594,203.68,140422,,,A*62

$GPRMC,135639.50,A,4437.82056,N,01056.96400,E,5.544,199.13,140422,,,A*66

$GPRMC,135639.60,A,4437.82051,N,01056.96390,E,4.563,203.08,140422,,,A*62

$GPRMC,135639.70,A,4437.82042,N,01056.96381,E,4.884,206.75,140422,,,A*6A

$GPRMC,135639.80,A,4437.82033,N,01056.96375,E,4.683,206.62,140422,,,A*67

$GPRMC,135639.90,A,4437.82021,N,01056.96371,E,4.777,201.74,140422,,,A*6B

$GPRMC,135640.00,A,4437.82016,N,01056.96362,E,4.322,203.73,140422,,,A*6B

$GPRMC,135640.10,A,4437.82026,N,01056.96371,E,1.709,204.47,140422,,,A*63

$GPRMC,135640.20,A,4437.82032,N,01056.96373,E,1.050,209.31,140422,,,A*60

$GPGGA,135640.20,4437.82032,N,01056.96373,E,1,09,0.94,38.3,M,46.0,M,,*60

$GPRMC,135640.30,A,4437.82035,N,01056.96369,E,1.792,231.67,140422,,,A*6C

$GPRMC,135640.40,A,4437.82034,N,01056.96365,E,1.999,231.30,140422,,,A*61

$GPRMC,135640.50,A,4437.82031,N,01056.96357,E,2.818,228.77,140422,,,A*64

$GPRMC,135640.60,A,4437.82027,N,01056.96350,E,3.073,226.28,140422,,,A*67

$GPRMC,135640.70,A,4437.82017,N,01056.96342,E,3.851,216.57,140422,,,A*65

$GPRMC,135640.80,A,4437.82008,N,01056.96336,E,4.037,211.78,140422,,,A*62

$GPRMC,135640.90,A,4437.82007,N,01056.96337,E,2.985,210.38,140422,,,A*6E

$GPRMC,135641.00,A,4437.82003,N,01056.96327,E,3.171,215.84,140422,,,A*63

$GPRMC,135641.10,A,4437.81999,N,01056.96317,E,3.323,221.57,140422,,,A*64

$GPRMC,135641.20,A,4437.81997,N,01056.96306,E,3.384,229.62,140422,,,A*6A

$GPGGA,135641.20,4437.81997,N,01056.96306,E,1,09,0.87,40.8,M,46.0,M,,*60

$GPRMC,135641.30,A,4437.81993,N,01056.96300,E,3.104,229.73,140422,,,A*63

$GPRMC,135641.40,A,4437.82000,N,01056.96297,E,2.386,240.07,140422,,,A*6E

$GPRMC,135641.50,A,4437.82000,N,01056.96286,E,3.078,248.48,140422,,,A*6F

$GPRMC,135641.60,A,4437.81996,N,01056.96277,E,3.372,244.18,140422,,,A*67

$GPRMC,135641.70,A,4437.81991,N,01056.96269,E,3.018,239.75,140422,,,A*60

$GPRMC,135641.80,A,4437.81982,N,01056.96246,E,4.638,241.38,140422,,,A*65

$GPRMC,135641.90,A,4437.81970,N,01056.96227,E,4.822,238.34,140422,,,A*69

$GPRMC,135642.00,A,4437.81962,N,01056.96212,E,4.627,235.80,140422,,,A*6F

$GPRMC,135642.10,A,4437.81953,N,01056.96197,E,4.742,232.09,140422,,,A*66

$GPRMC,135642.20,A,4437.81941,N,01056.96184,E,4.744,227.31,140422,,,A*6D

$GPGGA,135642.20,4437.81941,N,01056.96184,E,1,08,0.95,42.5,M,46.0,M,,*6D

$GPRMC,135642.30,A,4437.81931,N,01056.96166,E,5.118,227.46,140422,,,A*69

$GPRMC,135642.40,A,4437.81919,N,01056.96152,E,5.102,224.81,140422,,,A*60

$GPRMC,135642.50,A,4437.81903,N,01056.96131,E,5.725,224.83,140422,,,A*6E

$GPRMC,135642.60,A,4437.81888,N,01056.96110,E,5.861,224.95,140422,,,A*64

$GPRMC,135642.70,A,4437.81873,N,01056.96092,E,5.959,222.32,140422,,,A*6B

$GPRMC,135642.80,A,4437.81860,N,01056.96072,E,5.662,223.19,140422,,,A*67

$GPRMC,135642.90,A,4437.81848,N,01056.96055,E,5.983,223.07,140422,,,A*66

$GPRMC,135643.00,A,4437.81835,N,01056.96042,E,5.855,219.67,140422,,,A*67

$GPRMC,135643.10,A,4437.81825,N,01056.96025,E,5.805,220.80,140422,,,A*60

$GPRMC,135643.20,A,4437.81811,N,01056.96008,E,6.038,220.42,140422,,,A*60

$GPGGA,135643.20,4437.81811,N,01056.96008,E,1,07,1.03,42.6,M,46.0,M,,*6F

$GPRMC,135643.30,A,4437.81799,N,01056.95991,E,6.044,221.04,140422,,,A*6C

$GPRMC,135643.40,A,4437.81783,N,01056.95974,E,6.555,219.96,140422,,,A*6E

$GPRMC,135643.50,A,4437.81770,N,01056.95954,E,6.705,221.29,140422,,,A*69

$GPRMC,135643.60,A,4437.81752,N,01056.95935,E,7.062,220.63,140422,,,A*65

$GPRMC,135643.70,A,4437.81739,N,01056.95920,E,6.948,219.06,140422,,,A*64

$GPRMC,135643.80,A,4437.81726,N,01056.95904,E,6.875,218.14,140422,,,A*6E

$GPRMC,135643.90,A,4437.81711,N,01056.95887,E,7.067,217.90,140422,,,A*68

$GPRMC,135644.00,A,4437.81696,N,01056.95868,E,7.330,218.76,140422,,,A*6F

$GPRMC,135644.10,A,4437.81682,N,01056.95848,E,7.244,220.06,140422,,,A*67

$GPRMC,135644.20,A,4437.81668,N,01056.95827,E,7.330,221.74,140422,,,A*6F

$GPGGA,135644.20,4437.81668,N,01056.95827,E,1,07,1.03,43.2,M,46.0,M,,*6B

$GPRMC,135644.30,A,4437.81653,N,01056.95807,E,7.320,222.28,140422,,,A*6F

$GPRMC,135644.40,A,4437.81636,N,01056.95787,E,7.628,221.78,140422,,,A*67

$GPRMC,135644.50,A,4437.81618,N,01056.95768,E,7.699,220.88,140422,,,A*6F

$GPRMC,135644.60,A,4437.81603,N,01056.95751,E,7.556,219.81,140422,,,A*6F

$GPRMC,135644.70,A,4437.81585,N,01056.95731,E,7.844,219.14,140422,,,A*67

$GPRMC,135644.80,A,4437.81567,N,01056.95713,E,7.862,217.46,140422,,,A*69

$GPRMC,135644.90,A,4437.81551,N,01056.95695,E,7.899,216.75,140422,,,A*67

$GPRMC,135645.00,A,4437.81532,N,01056.95677,E,7.970,216.17,140422,,,A*64

$GPRMC,135645.10,A,4437.81515,N,01056.95658,E,8.007,216.18,140422,,,A*64

$GPRMC,135645.20,A,4437.81499,N,01056.95639,E,8.050,216.78,140422,,,A*61

$GPGGA,135645.20,4437.81499,N,01056.95639,E,1,07,1.03,43.7,M,46.0,M,,*62

$GPRMC,135645.30,A,4437.81484,N,01056.95617,E,8.122,218.85,140422,,,A*68

$GPRMC,135645.40,A,4437.81459,N,01056.95602,E,8.143,215.24,140422,,,A*6A

$GPRMC,135645.50,A,4437.81440,N,01056.95581,E,8.199,215.67,140422,,,A*6B

$GPRMC,135645.60,A,4437.81421,N,01056.95561,E,8.392,215.79,140422,,,A*67

$GPRMC,135645.70,A,4437.81400,N,01056.95541,E,8.474,215.61,140422,,,A*61

$GPRMC,135645.80,A,4437.81378,N,01056.95521,E,8.683,215.07,140422,,,A*6A

$GPRMC,135645.90,A,4437.81358,N,01056.95501,E,8.668,215.25,140422,,,A*6E

$GPRMC,135646.00,A,4437.81336,N,01056.95481,E,8.755,214.81,140422,,,A*65

$GPRMC,135646.10,A,4437.81304,N,01056.95458,E,9.204,213.03,140422,,,A*6C

$GPRMC,135646.20,A,4437.81277,N,01056.95438,E,9.241,211.30,140422,,,A*6F

$GPGGA,135646.20,4437.81277,N,01056.95438,E,1,07,1.03,43.5,M,46.0,M,,*66

$GPRMC,135646.30,A,4437.81250,N,01056.95415,E,9.546,211.23,140422,,,A*66

$GPRMC,135646.40,A,4437.81223,N,01056.95393,E,9.614,211.06,140422,,,A*6F

$GPRMC,135646.50,A,4437.81196,N,01056.95370,E,9.733,211.24,140422,,,A*6A

$GPRMC,135646.60,A,4437.81173,N,01056.95348,E,9.759,211.90,140422,,,A*6A

$GPRMC,135646.70,A,4437.81149,N,01056.95318,E,9.787,216.17,140422,,,A*6C

$GPRMC,135646.80,A,4437.81129,N,01056.95297,E,9.720,216.29,140422,,,A*63

$GPRMC,135646.90,A,4437.81107,N,01056.95273,E,10.058,216.08,140422,,,A*57

$GPRMC,135647.00,A,4437.81086,N,01056.95249,E,9.962,216.27,140422,,,A*6B

$GPRMC,135647.10,A,4437.81064,N,01056.95225,E,9.941,216.21,140422,,,A*6B

$GPRMC,135647.20,A,4437.81042,N,01056.95199,E,10.002,217.12,140422,,,A*5F

$GPGGA,135647.20,4437.81042,N,01056.95199,E,1,07,1.03,43.0,M,46.0,M,,*68

$GPRMC,135647.30,A,4437.81018,N,01056.95173,E,9.999,217.28,140422,,,A*6F

$GPRMC,135647.40,A,4437.80995,N,01056.95149,E,10.044,216.74,140422,,,A*55

$GPRMC,135647.50,A,4437.80975,N,01056.95125,E,10.051,216.56,140422,,,A*54

$GPRMC,135647.60,A,4437.80952,N,01056.95099,E,10.183,217.12,140422,,,A*5B

$GPRMC,135647.70,A,4437.80929,N,01056.95074,E,10.156,217.21,140422,,,A*5D

$GPRMC,135647.80,A,4437.80907,N,01056.95050,E,10.178,216.92,140422,,,A*5D

$GPRMC,135647.90,A,4437.80884,N,01056.95022,E,10.393,218.04,140422,,,A*55

$GPRMC,135648.00,A,4437.80868,N,01056.94998,E,10.231,218.71,140422,,,A*53

$GPRMC,135648.10,A,4437.80847,N,01056.94972,E,10.436,218.87,140422,,,A*53

$GPRMC,135648.20,A,4437.80825,N,01056.94946,E,10.558,218.74,140422,,,A*56

$GPGGA,135648.20,4437.80825,N,01056.94946,E,1,08,0.95,43.0,M,46.0,M,,*65

$GPRMC,135648.30,A,4437.80799,N,01056.94920,E,10.558,218.10,140422,,,A*5D

$GPRMC,135648.40,A,4437.80770,N,01056.94893,E,10.798,217.18,140422,,,A*5D

$GPRMC,135648.50,A,4437.80747,N,01056.94869,E,10.581,216.30,140422,,,A*5C

$GPRMC,135648.60,A,4437.80725,N,01056.94843,E,10.587,216.46,140422,,,A*54

$GPRMC,135648.70,A,4437.80703,N,01056.94819,E,10.444,216.56,140422,,,A*51

$GPRMC,135648.80,A,4437.80681,N,01056.94792,E,10.516,217.60,140422,,,A*5B

$GPRMC,135648.90,A,4437.80656,N,01056.94766,E,10.625,217.33,140422,,,A*5E

$GPRMC,135649.00,A,4437.80630,N,01056.94741,E,10.699,216.14,140422,,,A*50

$GPRMC,135649.10,A,4437.80605,N,01056.94717,E,10.660,215.53,140422,,,A*52

$GPRMC,135649.20,A,4437.80579,N,01056.94693,E,10.915,214.75,140422,,,A*5C

$GPGGA,135649.20,4437.80579,N,01056.94693,E,1,08,0.95,42.8,M,46.0,M,,*6E

$GPRMC,135649.30,A,4437.80555,N,01056.94668,E,10.587,215.22,140422,,,A*53

$GPRMC,135649.40,A,4437.80529,N,01056.94644,E,10.623,215.23,140422,,,A*5D

$GPRMC,135649.50,A,4437.80503,N,01056.94618,E,10.807,214.87,140422,,,A*5A

$GPRMC,135649.60,A,4437.80480,N,01056.94592,E,10.648,216.28,140422,,,A*50

$GPRMC,135649.70,A,4437.80451,N,01056.94567,E,11.074,214.50,140422,,,A*52

$GPRMC,135649.80,A,4437.80427,N,01056.94543,E,10.776,214.61,140422,,,A*5C

$GPRMC,135649.90,A,4437.80403,N,01056.94518,E,10.901,214.94,140422,,,A*51

$GPRMC,135650.00,A,4437.80378,N,01056.94491,E,11.230,215.09,140422,,,A*56

$GPRMC,135650.10,A,4437.80356,N,01056.94465,E,11.120,215.66,140422,,,A*5B

$GPRMC,135650.20,A,4437.80331,N,01056.94438,E,11.297,215.30,140422,,,A*5D

$GPGGA,135650.20,4437.80331,N,01056.94438,E,1,08,1.17,42.7,M,46.0,M,,*6B

$GPRMC,135650.30,A,4437.80309,N,01056.94411,E,11.147,216.11,140422,,,A*52

$GPRMC,135650.40,A,4437.80286,N,01056.94384,E,11.174,216.00,140422,,,A*58

$GPRMC,135650.50,A,4437.80262,N,01056.94354,E,11.328,216.41,140422,,,A*50

$GPRMC,135650.60,A,4437.80235,N,01056.94326,E,11.603,215.15,140422,,,A*5A

$GPRMC,135650.70,A,4437.80212,N,01056.94298,E,11.399,215.97,140422,,,A*56

$GPRMC,135650.80,A,4437.80190,N,01056.94271,E,11.303,216.53,140422,,,A*5F

$GPRMC,135650.90,A,4437.80166,N,01056.94242,E,11.321,217.38,140422,,,A*5B

$GPRMC,135651.00,A,4437.80142,N,01056.94213,E,11.390,218.27,140422,,,A*5A

$GPRMC,135651.10,A,4437.80120,N,01056.94184,E,11.209,219.41,140422,,,A*52

$GPRMC,135651.20,A,4437.80098,N,01056.94156,E,11.198,219.69,140422,,,A*5D

$GPGGA,135651.20,4437.80098,N,01056.94156,E,1,08,0.95,42.7,M,46.0,M,,*6C

$GPRMC,135651.30,A,4437.80074,N,01056.94127,E,11.340,220.00,140422,,,A*5A

$GPRMC,135651.40,A,4437.80050,N,01056.94100,E,11.150,219.43,140422,,,A*50

$GPRMC,135651.50,A,4437.80029,N,01056.94073,E,11.118,219.88,140422,,,A*51

$GPRMC,135651.60,A,4437.80005,N,01056.94046,E,11.219,219.47,140422,,,A*5B

$GPRMC,135651.70,A,4437.79981,N,01056.94020,E,11.174,218.74,140422,,,A*50

$GPRMC,135651.80,A,4437.79953,N,01056.93991,E,11.489,217.98,140422,,,A*5E

$GPRMC,135651.90,A,4437.79928,N,01056.93965,E,11.570,216.81,140422,,,A*56

$GPRMC,135652.00,A,4437.79905,N,01056.93940,E,11.385,216.90,140422,,,A*58

$GPRMC,135652.10,A,4437.79877,N,01056.93914,E,11.483,215.25,140422,,,A*50

$GPRMC,135652.20,A,4437.79850,N,01056.93891,E,11.419,214.35,140422,,,A*59

$GPGGA,135652.20,4437.79850,N,01056.93891,E,1,08,1.25,42.7,M,46.0,M,,*6A

$GPRMC,135652.30,A,4437.79825,N,01056.93868,E,11.423,213.75,140422,,,A*56

$GPRMC,135652.40,A,4437.79798,N,01056.93844,E,11.416,213.47,140422,,,A*51

$GPRMC,135652.50,A,4437.79774,N,01056.93821,E,11.261,213.60,140422,,,A*52

$GPRMC,135652.60,A,4437.79749,N,01056.93799,E,11.306,213.33,140422,,,A*55

$GPRMC,135652.70,A,4437.79722,N,01056.93773,E,11.295,213.97,140422,,,A*58

$GPRMC,135652.80,A,4437.79695,N,01056.93747,E,11.378,214.57,140422,,,A*54

$GPRMC,135652.90,A,4437.79670,N,01056.93725,E,11.183,214.34,140422,,,A*59

$GPRMC,135653.00,A,4437.79646,N,01056.93701,E,11.256,214.47,140422,,,A*5D

$GPRMC,135653.10,A,4437.79621,N,01056.93675,E,11.184,215.24,140422,,,A*57

$GPRMC,135653.20,A,4437.79597,N,01056.93651,E,11.200,215.20,140422,,,A*57

$GPGGA,135653.20,4437.79597,N,01056.93651,E,1,07,1.00,43.1,M,46.0,M,,*60

$GPRMC,135653.30,A,4437.79573,N,01056.93629,E,11.169,214.83,140422,,,A*57

$GPRMC,135653.40,A,4437.79547,N,01056.93603,E,11.116,215.19,140422,,,A*55

$GPRMC,135653.50,A,4437.79522,N,01056.93580,E,11.132,215.14,140422,,,A*54

$GPRMC,135653.60,A,4437.79493,N,01056.93551,E,11.591,215.31,140422,,,A*5A

$GPRMC,135653.70,A,4437.79468,N,01056.93526,E,11.330,215.72,140422,,,A*55

$GPRMC,135653.80,A,4437.79442,N,01056.93504,E,11.402,214.40,140422,,,A*54

$GPRMC,135653.90,A,4437.79416,N,01056.93475,E,11.383,216.08,140422,,,A*53

$GPRMC,135654.00,A,4437.79393,N,01056.93450,E,11.379,217.18,140422,,,A*55

$GPRMC,135654.10,A,4437.79368,N,01056.93425,E,11.263,217.24,140422,,,A*57

$GPRMC,135654.20,A,4437.79343,N,01056.93399,E,11.141,217.42,140422,,,A*5E

$GPGGA,135654.20,4437.79343,N,01056.93399,E,1,07,1.00,43.4,M,46.0,M,,*6C

$GPRMC,135654.30,A,4437.79318,N,01056.93374,E,11.475,216.81,140422,,,A*5E

$GPRMC,135654.40,A,4437.79295,N,01056.93348,E,11.325,217.19,140422,,,A*50

$GPRMC,135654.50,A,4437.79272,N,01056.93320,E,11.131,218.27,140422,,,A*53

$GPRMC,135654.60,A,4437.79246,N,01056.93295,E,11.224,217.60,140422,,,A*53

$GPRMC,135654.70,A,4437.79222,N,01056.93272,E,11.210,216.83,140422,,,A*52

$GPRMC,135654.80,A,4437.79199,N,01056.93246,E,11.153,216.83,140422,,,A*5D

$GPRMC,135654.90,A,4437.79174,N,01056.93221,E,11.482,216.74,140422,,,A*5F

$GPRMC,135655.00,A,4437.79150,N,01056.93197,E,11.428,216.27,140422,,,A*59

$GPRMC,135655.10,A,4437.79126,N,01056.93172,E,11.563,216.29,140422,,,A*52

$GPRMC,135655.20,A,4437.79102,N,01056.93148,E,11.341,215.75,140422,,,A*52

$GPGGA,135655.20,4437.79102,N,01056.93148,E,1,07,1.00,44.3,M,46.0,M,,*64

$GPRMC,135655.30,A,4437.79080,N,01056.93122,E,11.252,216.30,140422,,,A*55

$GPRMC,135655.40,A,4437.79058,N,01056.93094,E,11.435,217.23,140422,,,A*5F

$GPRMC,135655.50,A,4437.79038,N,01056.93068,E,10.980,218.47,140422,,,A*54

$GPRMC,135655.60,A,4437.79016,N,01056.93044,E,10.781,218.41,140422,,,A*5C

$GPRMC,135655.70,A,4437.78989,N,01056.93016,E,11.318,217.82,140422,,,A*51

$GPRMC,135655.80,A,4437.78961,N,01056.92989,E,11.488,216.32,140422,,,A*52

$GPRMC,135655.90,A,4437.78938,N,01056.92960,E,11.178,217.93,140422,,,A*58

$GPRMC,135656.00,A,4437.78915,N,01056.92938,E,11.114,216.34,140422,,,A*56

$GPRMC,135656.10,A,4437.78890,N,01056.92913,E,11.186,216.09,140422,,,A*57

$GPRMC,135656.20,A,4437.78869,N,01056.92886,E,10.934,218.27,140422,,,A*5D

$GPGGA,135656.20,4437.78869,N,01056.92886,E,1,07,1.24,45.2,M,46.0,M,,*6E

$GPRMC,135656.30,A,4437.78845,N,01056.92863,E,10.813,217.45,140422,,,A*56

$GPRMC,135656.40,A,4437.78828,N,01056.92836,E,10.879,219.33,140422,,,A*59

$GPRMC,135656.50,A,4437.78808,N,01056.92808,E,10.763,220.99,140422,,,A*59

$GPRMC,135656.60,A,4437.78788,N,01056.92779,E,10.842,222.35,140422,,,A*5C

$GPRMC,135656.70,A,4437.78770,N,01056.92747,E,10.924,224.91,140422,,,A*5E

$GPRMC,135656.80,A,4437.78755,N,01056.92716,E,11.155,226.78,140422,,,A*58

$GPRMC,135656.90,A,4437.78772,N,01056.92692,E,10.719,233.89,140422,,,A*54

$GPRMC,135657.00,A,4437.78777,N,01056.92659,E,11.160,241.49,140422,,,A*5E

$GPRMC,135657.10,A,4437.78780,N,01056.92618,E,11.532,248.34,140422,,,A*52

$GPRMC,135657.20,A,4437.78775,N,01056.92577,E,11.769,250.40,140422,,,A*57

$GPGGA,135657.20,4437.78775,N,01056.92577,E,1,07,1.00,48.2,M,46.0,M,,*65

$GPRMC,135657.30,A,4437.78770,N,01056.92536,E,11.650,252.05,140422,,,A*5E

$GPRMC,135657.40,A,4437.78765,N,01056.92496,E,11.715,252.62,140422,,,A*57

$GPRMC,135657.50,A,4437.78761,N,01056.92455,E,11.819,253.12,140422,,,A*58

$GPRMC,135657.60,A,4437.78754,N,01056.92417,E,11.711,252.79,140422,,,A*50

$GPRMC,135657.70,A,4437.78744,N,01056.92378,E,11.471,252.08,140422,,,A*5D

$GPRMC,135657.80,A,4437.78734,N,01056.92338,E,11.517,251.11,140422,,,A*5B

$GPRMC,135657.90,A,4437.78725,N,01056.92299,E,11.445,250.37,140422,,,A*53

$GPRMC,135658.00,A,4437.78714,N,01056.92264,E,11.290,249.14,140422,,,A*52

$GPRMC,135658.10,A,4437.78704,N,01056.92226,E,11.241,248.35,140422,,,A*5A

$GPRMC,135658.20,A,4437.78691,N,01056.92193,E,10.931,247.24,140422,,,A*5B

$GPGGA,135658.20,4437.78691,N,01056.92193,E,1,07,1.00,51.1,M,46.0,M,,*64

$GPRMC,135658.30,A,4437.78677,N,01056.92157,E,11.027,245.67,140422,,,A*50

$GPRMC,135658.40,A,4437.78664,N,01056.92122,E,10.828,244.69,140422,,,A*5E

$GPRMC,135658.50,A,4437.78646,N,01056.92093,E,10.561,242.76,140422,,,A*5C

$GPRMC,135658.60,A,4437.78634,N,01056.92054,E,10.787,242.08,140422,,,A*52

$GPRMC,135658.70,A,4437.78619,N,01056.92021,E,10.601,241.31,140422,,,A*58

$GPRMC,135658.80,A,4437.78604,N,01056.91986,E,10.466,240.87,140422,,,A*53

$GPRMC,135658.90,A,4437.78590,N,01056.91950,E,10.598,240.48,140422,,,A*54

$GPRMC,135659.00,A,4437.78572,N,01056.91915,E,10.569,239.96,140422,,,A*52

$GPRMC,135659.10,A,4437.78561,N,01056.91873,E,10.644,241.02,140422,,,A*5E

$GPRMC,135659.20,A,4437.78546,N,01056.91843,E,10.552,240.31,140422,,,A*5E

$GPGGA,135659.20,4437.78546,N,01056.91843,E,1,09,0.94,53.3,M,46.0,M,,*69

$GPRMC,135659.30,A,4437.78523,N,01056.91822,E,10.313,237.21,140422,,,A*59

$GPRMC,135659.40,A,4437.78503,N,01056.91799,E,9.926,234.03,140422,,,A*64

$GPRMC,135659.50,A,4437.78483,N,01056.91773,E,9.846,231.25,140422,,,A*6E

$GPRMC,135659.60,A,4437.78463,N,01056.91748,E,9.733,228.91,140422,,,A*61

$GPRMC,135659.70,A,4437.78448,N,01056.91714,E,9.887,229.65,140422,,,A*6A

$GPRMC,135659.80,A,4437.78434,N,01056.91687,E,9.671,229.87,140422,,,A*6E

$GPRMC,135659.90,A,4437.78423,N,01056.91655,E,9.769,231.54,140422,,,A*69

$GPRMC,135700.00,A,4437.78417,N,01056.91622,E,9.825,233.83,140422,,,A*65

$GPRMC,135700.10,A,4437.78410,N,01056.91591,E,9.857,236.27,140422,,,A*66

$GPRMC,135700.20,A,4437.78398,N,01056.91560,E,10.001,237.58,140422,,,A*56

$GPGGA,135700.20,4437.78398,N,01056.91560,E,1,08,1.17,55.9,M,46.0,M,,*6A

$GPRMC,135700.30,A,4437.78379,N,01056.91531,E,9.783,237.40,140422,,,A*60

$GPRMC,135700.40,A,4437.78353,N,01056.91512,E,9.320,233.53,140422,,,A*65

$GPRMC,135700.50,A,4437.78332,N,01056.91483,E,9.441,231.57,140422,,,A*6C

$GPRMC,135700.60,A,4437.78312,N,01056.91455,E,9.531,230.44,140422,,,A*63

$GPRMC,135700.70,A,4437.78291,N,01056.91425,E,9.421,230.15,140422,,,A*6B

$GPRMC,135700.80,A,4437.78269,N,01056.91394,E,9.330,230.23,140422,,,A*6C

$GPRMC,135700.90,A,4437.78247,N,01056.91366,E,9.353,229.80,140422,,,A*68

$GPRMC,135701.00,A,4437.78224,N,01056.91342,E,9.064,228.73,140422,,,A*69

$GPRMC,135701.10,A,4437.78211,N,01056.91308,E,8.942,230.65,140422,,,A*62

$GPRMC,135701.20,A,4437.78193,N,01056.91283,E,8.625,231.22,140422,,,A*66

$GPGGA,135701.20,4437.78193,N,01056.91283,E,1,08,1.17,57.3,M,46.0,M,,*60

$GPRMC,135701.30,A,4437.78180,N,01056.91259,E,8.348,231.59,140422,,,A*60

$GPRMC,135701.40,A,4437.78160,N,01056.91235,E,8.079,231.47,140422,,,A*6D

$GPRMC,135701.50,A,4437.78131,N,01056.91213,E,7.812,229.57,140422,,,A*6E

$GPRMC,135701.60,A,4437.78110,N,01056.91193,E,7.586,228.21,140422,,,A*65

$GPRMC,135701.70,A,4437.78061,N,01056.91178,E,7.975,219.76,140422,,,A*66

$GPRMC,135701.80,A,4437.78020,N,01056.91162,E,8.180,213.72,140422,,,A*64

$GPRMC,135701.90,A,4437.77998,N,01056.91144,E,7.873,212.31,140422,,,A*68

$GPRMC,135702.00,A,4437.77973,N,01056.91128,E,7.497,212.05,140422,,,A*6C

$GPRMC,135702.10,A,4437.77956,N,01056.91101,E,7.130,216.05,140422,,,A*6D

$GPRMC,135702.20,A,4437.77946,N,01056.91078,E,6.807,221.15,140422,,,A*69

$GPGGA,135702.20,4437.77946,N,01056.91078,E,1,07,1.80,57.2,M,46.0,M,,*6A

$GPRMC,135702.30,A,4437.77936,N,01056.91056,E,6.518,225.30,140422,,,A*63

$GPRMC,135702.40,A,4437.77926,N,01056.91035,E,6.416,228.83,140422,,,A*6A

$GPRMC,135702.50,A,4437.77919,N,01056.91011,E,6.177,233.20,140422,,,A*60

$GPRMC,135702.60,A,4437.77909,N,01056.90992,E,6.082,234.94,140422,,,A*62

$GPRMC,135702.70,A,4437.77902,N,01056.90977,E,5.668,235.93,140422,,,A*64

$GPRMC,135702.80,A,4437.77894,N,01056.90956,E,5.215,238.28,140422,,,A*65

$GPRMC,135702.90,A,4437.77886,N,01056.90928,E,5.464,242.47,140422,,,A*6A

$GPRMC,135703.00,A,4437.77882,N,01056.90913,E,5.198,244.11,140422,,,A*6D

$GPRMC,135703.10,A,4437.77875,N,01056.90899,E,4.917,244.22,140422,,,A*69

$GPRMC,135703.20,A,4437.77864,N,01056.90888,E,4.669,241.92,140422,,,A*62

$GPGGA,135703.20,4437.77864,N,01056.90888,E,1,07,1.00,58.4,M,46.0,M,,*6D

$GPRMC,135703.30,A,4437.77862,N,01056.90882,E,4.121,240.54,140422,,,A*6F

$GPRMC,135703.40,A,4437.77858,N,01056.90883,E,3.589,237.45,140422,,,A*61

$GPRMC,135703.50,A,4437.77857,N,01056.90873,E,3.470,236.31,140422,,,A*65

$GPRMC,135703.60,A,4437.77862,N,01056.90856,E,3.419,241.24,140422,,,A*6C

$GPRMC,135703.70,A,4437.77864,N,01056.90841,E,3.354,247.49,140422,,,A*6E

$GPRMC,135703.80,A,4437.77861,N,01056.90831,E,3.677,246.96,140422,,,A*64

$GPRMC,135703.90,A,4437.77855,N,01056.90804,E,4.088,248.35,140422,,,A*62

$GPRMC,135704.00,A,4437.77850,N,01056.90779,E,4.040,252.21,140422,,,A*66

$GPRMC,135704.10,A,4437.77842,N,01056.90764,E,3.953,252.93,140422,,,A*6D

$GPRMC,135704.20,A,4437.77831,N,01056.90751,E,4.106,250.38,140422,,,A*60

$GPGGA,135704.20,4437.77831,N,01056.90751,E,1,08,1.02,60.1,M,46.0,M,,*62

$GPRMC,135704.30,A,4437.77821,N,01056.90739,E,3.982,248.24,140422,,,A*69

$GPRMC,135704.40,A,4437.77821,N,01056.90721,E,4.032,250.02,140422,,,A*6F

$GPRMC,135704.50,A,4437.77823,N,01056.90707,E,3.942,252.36,140422,,,A*64

$GPRMC,135704.60,A,4437.77822,N,01056.90690,E,4.097,254.46,140422,,,A*6E

$GPRMC,135704.70,A,4437.77811,N,01056.90674,E,4.165,254.03,140422,,,A*68

$GPRMC,135704.80,A,4437.77799,N,01056.90660,E,4.293,251.65,140422,,,A*62

$GPRMC,135704.90,A,4437.77783,N,01056.90651,E,4.127,247.63,140422,,,A*67

$GPRMC,135705.00,A,4437.77777,N,01056.90634,E,4.455,245.26,140422,,,A*64

$GPRMC,135705.10,A,4437.77772,N,01056.90619,E,4.421,245.83,140422,,,A*63

$GPRMC,135705.20,A,4437.77764,N,01056.90611,E,4.305,244.05,140422,,,A*61

$GPGGA,135705.20,4437.77764,N,01056.90611,E,1,08,1.02,61.6,M,46.0,M,,*6F

$GPRMC,135705.30,A,4437.77749,N,01056.90605,E,4.099,239.03,140422,,,A*60

$GPRMC,135705.40,A,4437.77726,N,01056.90601,E,4.098,231.01,140422,,,A*61

$GPRMC,135705.50,A,4437.77712,N,01056.90589,E,4.338,227.19,140422,,,A*63

$GPRMC,135705.60,A,4437.77697,N,01056.90581,E,4.391,224.56,140422,,,A*6F

$GPRMC,135705.70,A,4437.77676,N,01056.90569,E,4.414,222.88,140422,,,A*68

$GPRMC,135705.80,A,4437.77657,N,01056.90560,E,4.492,219.62,140422,,,A*6F

$GPRMC,135705.90,A,4437.77629,N,01056.90558,E,4.917,211.38,140422,,,A*6B

$GPRMC,135706.00,A,4437.77621,N,01056.90549,E,4.463,210.43,140422,,,A*6A

$GPRMC,135706.10,A,4437.77614,N,01056.90541,E,4.477,211.41,140422,,,A*63

$GPRMC,135706.20,A,4437.77588,N,01056.90539,E,4.880,207.53,140422,,,A*69

$GPGGA,135706.20,4437.77588,N,01056.90539,E,1,09,0.92,62.2,M,46.0,M,,*6B

$GPRMC,135706.30,A,4437.77562,N,01056.90542,E,5.105,202.57,140422,,,A*64

$GPRMC,135706.40,A,4437.77528,N,01056.90539,E,5.338,199.59,140422,,,A*62

$GPRMC,135706.50,A,4437.77500,N,01056.90532,E,5.424,198.20,140422,,,A*67

$GPRMC,135706.60,A,4437.77470,N,01056.90516,E,5.264,199.55,140422,,,A*65

$GPRMC,135706.70,A,4437.77436,N,01056.90500,E,5.467,202.92,140422,,,A*6E

$GPRMC,135706.80,A,4437.77430,N,01056.90499,E,4.713,206.88,140422,,,A*68

$GPRMC,135706.90,A,4437.77411,N,01056.90485,E,5.215,212.41,140422,,,A*65

$GPRMC,135707.00,A,4437.77394,N,01056.90470,E,5.266,216.68,140422,,,A*66

$GPRMC,135707.10,A,4437.77383,N,01056.90456,E,5.174,220.87,140422,,,A*61

$GPRMC,135707.20,A,4437.77371,N,01056.90440,E,5.297,222.80,140422,,,A*63

$GPGGA,135707.20,4437.77371,N,01056.90440,E,1,09,0.87,62.3,M,46.0,M,,*60

$GPRMC,135707.30,A,4437.77367,N,01056.90429,E,5.015,227.02,140422,,,A*6D

$GPRMC,135707.40,A,4437.77366,N,01056.90426,E,4.464,231.48,140422,,,A*6E

$GPRMC,135707.50,A,4437.77357,N,01056.90416,E,4.736,231.00,140422,,,A*66

$GPRMC,135707.60,A,4437.77361,N,01056.90426,E,3.317,231.38,140422,,,A*68

$GPRMC,135707.70,A,4437.77350,N,01056.90412,E,3.893,230.80,140422,,,A*69

$GPRMC,135707.80,A,4437.77338,N,01056.90396,E,4.378,229.72,140422,,,A*6F

$GPRMC,135707.90,A,4437.77326,N,01056.90381,E,4.341,228.92,140422,,,A*62

$GPRMC,135708.00,A,4437.77321,N,01056.90368,E,4.086,232.61,140422,,,A*6B

$GPRMC,135708.10,A,4437.77310,N,01056.90354,E,4.307,232.25,140422,,,A*6D

$GPRMC,135708.20,A,4437.77305,N,01056.90347,E,3.801,234.85,140422,,,A*6E

$GPGGA,135708.20,4437.77305,N,01056.90347,E,1,08,0.92,65.6,M,46.0,M,,*6B

$GPRMC,135708.30,A,4437.77299,N,01056.90336,E,3.936,237.84,140422,,,A*6A

$GPRMC,135708.40,A,4437.77294,N,01056.90326,E,3.843,240.18,140422,,,A*67

$GPRMC,135708.50,A,4437.77285,N,01056.90314,E,3.975,238.80,140422,,,A*6D

$GPRMC,135708.60,A,4437.77280,N,01056.90302,E,3.960,242.80,140422,,,A*65

$GPRMC,135708.70,A,4437.77275,N,01056.90282,E,4.494,248.58,140422,,,A*69

$GPRMC,135708.80,A,4437.77270,N,01056.90261,E,4.779,253.67,140422,,,A*68

$GPRMC,135708.90,A,4437.77265,N,01056.90240,E,4.901,256.61,140422,,,A*6C

$GPRMC,135709.00,A,4437.77262,N,01056.90216,E,5.188,259.37,140422,,,A*64

$GPRMC,135709.10,A,4437.77260,N,01056.90197,E,5.312,262.13,140422,,,A*62

$GPRMC,135709.20,A,4437.77262,N,01056.90196,E,4.233,267.87,140422,,,A*69

$GPGGA,135709.20,4437.77262,N,01056.90196,E,1,08,0.92,68.6,M,46.0,M,,*69

$GPRMC,135709.30,A,4437.77255,N,01056.90213,E,2.404,265.71,140422,,,A*6D

$GPRMC,135709.40,A,4437.77251,N,01056.90214,E,2.091,258.22,140422,,,A*69

$GPRMC,135709.50,A,4437.77246,N,01056.90212,E,2.023,249.46,140422,,,A*63

$GPRMC,135709.60,A,4437.77240,N,01056.90206,E,2.272,242.92,140422,,,A*67

$GPRMC,135709.70,A,4437.77231,N,01056.90194,E,2.933,237.68,140422,,,A*61

$GPRMC,135709.80,A,4437.77221,N,01056.90179,E,3.342,236.75,140422,,,A*6C

$GPRMC,135709.90,A,4437.77211,N,01056.90167,E,3.437,235.34,140422,,,A*62

$GPRMC,135710.00,A,4437.77203,N,01056.90151,E,3.752,235.40,140422,,,A*66

$GPRMC,135710.10,A,4437.77192,N,01056.90142,E,3.623,231.14,140422,,,A*6C

$GPRMC,135710.20,A,4437.77182,N,01056.90130,E,3.655,230.63,140422,,,A*6B

$GPGGA,135710.20,4437.77182,N,01056.90130,E,1,08,0.92,71.8,M,46.0,M,,*66

$GPRMC,135710.30,A,4437.77171,N,01056.90122,E,3.608,226.97,140422,,,A*61

$GPRMC,135710.40,A,4437.77160,N,01056.90110,E,3.780,226.91,140422,,,A*60

$GPRMC,135710.50,A,4437.77150,N,01056.90097,E,4.080,227.58,140422,,,A*68

$GPRMC,135710.60,A,4437.77140,N,01056.90083,E,4.116,229.69,140422,,,A*6D

$GPRMC,135710.70,A,4437.77133,N,01056.90064,E,4.248,234.30,140422,,,A*69

$GPRMC,135710.80,A,4437.77123,N,01056.90050,E,4.347,234.36,140422,,,A*68

$GPRMC,135710.90,A,4437.77113,N,01056.90028,E,4.651,236.28,140422,,,A*6A

$GPRMC,135711.00,A,4437.77107,N,01056.90003,E,4.991,240.03,140422,,,A*65

$GPRMC,135711.10,A,4437.77103,N,01056.89974,E,5.401,245.35,140422,,,A*64

$GPRMC,135711.20,A,4437.77098,N,01056.89943,E,5.839,249.59,140422,,,A*61

$GPGGA,135711.20,4437.77098,N,01056.89943,E,1,08,0.92,74.4,M,46.0,M,,*60

$GPRMC,135711.30,A,4437.77096,N,01056.89907,E,6.332,255.22,140422,,,A*6C

$GPRMC,135711.40,A,4437.77096,N,01056.89869,E,6.927,259.61,140422,,,A*67

$GPRMC,135711.50,A,4437.77094,N,01056.89834,E,7.164,262.15,140422,,,A*69

$GPRMC,135711.60,A,4437.77094,N,01056.89799,E,7.399,264.78,140422,,,A*6F

$GPRMC,135711.70,A,4437.77081,N,01056.89781,E,6.570,262.01,140422,,,A*6B

$GPRMC,135711.80,A,4437.77071,N,01056.89760,E,6.163,257.61,140422,,,A*62

$GPRMC,135711.90,A,4437.77056,N,01056.89742,E,5.754,252.26,140422,,,A*61

$GPRMC,135712.00,A,4437.77048,N,01056.89709,E,6.392,250.00,140422,,,A*60

$GPRMC,135712.10,A,4437.77042,N,01056.89681,E,6.392,250.62,140422,,,A*6E

$GPRMC,135712.20,A,4437.77034,N,01056.89646,E,6.892,251.99,140422,,,A*69

$GPGGA,135712.20,4437.77034,N,01056.89646,E,1,08,0.95,76.9,M,46.0,M,,*67

$GPRMC,135712.30,A,4437.77017,N,01056.89615,E,6.956,249.86,140422,,,A*61

$GPRMC,135712.40,A,4437.77004,N,01056.89581,E,7.010,249.16,140422,,,A*69

$GPRMC,135712.50,A,4437.76987,N,01056.89549,E,7.075,247.84,140422,,,A*69

$GPRMC,135712.60,A,4437.76973,N,01056.89520,E,7.073,245.90,140422,,,A*6F

$GPRMC,135712.70,A,4437.76962,N,01056.89485,E,7.308,245.89,140422,,,A*67

$GPRMC,135712.80,A,4437.76951,N,01056.89447,E,7.436,247.43,140422,,,A*68

$GPRMC,135712.90,A,4437.76936,N,01056.89411,E,7.605,247.56,140422,,,A*6D

$GPRMC,135713.00,A,4437.76919,N,01056.89377,E,7.660,246.71,140422,,,A*68

$GPRMC,135713.10,A,4437.76903,N,01056.89342,E,7.771,246.16,140422,,,A*64

$GPRMC,135713.20,A,4437.76882,N,01056.89313,E,7.716,243.59,140422,,,A*64

$GPGGA,135713.20,4437.76882,N,01056.89313,E,1,08,0.95,77.8,M,46.0,M,,*67

$GPRMC,135713.30,A,4437.76857,N,01056.89281,E,7.824,240.72,140422,,,A*63

$GPRMC,135713.40,A,4437.76832,N,01056.89252,E,7.768,237.82,140422,,,A*61

$GPRMC,135713.50,A,4437.76802,N,01056.89222,E,8.053,234.77,140422,,,A*6D

$GPRMC,135713.60,A,4437.76773,N,01056.89193,E,8.130,231.75,140422,,,A*6D

$GPRMC,135713.70,A,4437.76754,N,01056.89160,E,8.106,231.15,140422,,,A*66

$GPRMC,135713.80,A,4437.76738,N,01056.89124,E,8.291,232.21,140422,,,A*6A

$GPRMC,135713.90,A,4437.76718,N,01056.89090,E,8.362,232.87,140422,,,A*66

$GPRMC,135714.00,A,4437.76696,N,01056.89055,E,8.574,233.89,140422,,,A*68

$GPRMC,135714.10,A,4437.76668,N,01056.89020,E,8.755,234.59,140422,,,A*61

$GPRMC,135714.20,A,4437.76637,N,01056.88989,E,8.672,234.59,140422,,,A*67

$GPGGA,135714.20,4437.76637,N,01056.88989,E,1,08,0.95,77.2,M,46.0,M,,*62

$GPRMC,135714.30,A,4437.76602,N,01056.88959,E,8.903,233.65,140422,,,A*6C

$GPRMC,135714.40,A,4437.76564,N,01056.88929,E,9.013,232.72,140422,,,A*61

$GPRMC,135714.50,A,4437.76532,N,01056.88898,E,9.198,231.74,140422,,,A*6F

$GPRMC,135714.60,A,4437.76506,N,01056.88866,E,9.367,231.83,140422,,,A*60

$GPRMC,135714.70,A,4437.76476,N,01056.88833,E,9.457,232.26,140422,,,A*6F

$GPRMC,135714.80,A,4437.76435,N,01056.88808,E,9.645,230.31,140422,,,A*6A

$GPRMC,135714.90,A,4437.76386,N,01056.88785,E,9.968,227.30,140422,,,A*69

$GPRMC,135715.00,A,4437.76333,N,01056.88760,E,9.905,224.99,140422,,,A*6F

$GPRMC,135715.10,A,4437.76280,N,01056.88740,E,9.991,222.14,140422,,,A*6B

$GPRMC,135715.20,A,4437.76236,N,01056.88717,E,9.927,220.81,140422,,,A*64

$GPGGA,135715.20,4437.76236,N,01056.88717,E,1,08,1.07,74.3,M,46.0,M,,*67

$GPRMC,135715.30,A,4437.76196,N,01056.88693,E,9.887,220.86,140422,,,A*6D

$GPRMC,135715.40,A,4437.76158,N,01056.88666,E,9.952,221.01,140422,,,A*65

$GPRMC,135715.50,A,4437.76123,N,01056.88636,E,9.808,222.18,140422,,,A*68

$GPRMC,135715.60,A,4437.76084,N,01056.88609,E,9.679,223.13,140422,,,A*69

$GPRMC,135715.70,A,4437.76048,N,01056.88579,E,9.811,223.69,140422,,,A*61

$GPRMC,135715.80,A,4437.76011,N,01056.88547,E,10.229,223.61,140422,,,A*5E

$GPRMC,135715.90,A,4437.75975,N,01056.88518,E,10.208,223.06,140422,,,A*5F

$GPRMC,135716.00,A,4437.75933,N,01056.88490,E,10.678,221.80,140422,,,A*59

$GPRMC,135716.10,A,4437.75901,N,01056.88463,E,10.641,221.67,140422,,,A*56

$GPRMC,135716.20,A,4437.75870,N,01056.88431,E,10.393,223.11,140422,,,A*5C

$GPGGA,135716.20,4437.75870,N,01056.88431,E,1,07,1.80,72.2,M,46.0,M,,*6F

$GPRMC,135716.30,A,4437.75838,N,01056.88401,E,10.567,223.94,140422,,,A*52

$GPRMC,135716.40,A,4437.75801,N,01056.88375,E,10.550,224.20,140422,,,A*57

$GPRMC,135716.50,A,4437.75768,N,01056.88344,E,10.614,224.69,140422,,,A*5A

$GPRMC,135716.60,A,4437.75723,N,01056.88322,E,10.731,222.77,140422,,,A*59

$GPRMC,135716.70,A,4437.75683,N,01056.88297,E,11.009,220.43,140422,,,A*54

$GPRMC,135716.80,A,4437.75644,N,01056.88278,E,10.820,217.86,140422,,,A*5E

$GPRMC,135716.90,A,4437.75606,N,01056.88252,E,10.943,216.90,140422,,,A*53

$GPRMC,135717.00,A,4437.75566,N,01056.88226,E,10.879,216.76,140422,,,A*5D

$GPRMC,135717.10,A,4437.75534,N,01056.88199,E,10.926,216.07,140422,,,A*51

$GPRMC,135717.20,A,4437.75503,N,01056.88166,E,10.968,216.40,140422,,,A*5F

$GPGGA,135717.20,4437.75503,N,01056.88166,E,1,07,1.00,70.7,M,46.0,M,,*6F

$GPRMC,135717.30,A,4437.75475,N,01056.88136,E,10.707,216.51,140422,,,A*5C

$GPRMC,135717.40,A,4437.75449,N,01056.88101,E,10.574,217.25,140422,,,A*54

$GPRMC,135717.50,A,4437.75421,N,01056.88065,E,10.572,218.54,140422,,,A*57

$GPRMC,135717.60,A,4437.75397,N,01056.88026,E,10.662,220.18,140422,,,A*58

$GPRMC,135717.70,A,4437.75372,N,01056.87985,E,10.774,221.94,140422,,,A*5E

$GPRMC,135717.80,A,4437.75347,N,01056.87941,E,11.034,223.32,140422,,,A*53

$GPRMC,135717.90,A,4437.75326,N,01056.87897,E,11.128,224.53,140422,,,A*53

$GPRMC,135718.00,A,4437.75308,N,01056.87853,E,11.062,225.41,140422,,,A*5C

$GPRMC,135718.10,A,4437.75282,N,01056.87808,E,10.898,226.13,140422,,,A*58

$GPRMC,135718.20,A,4437.75255,N,01056.87765,E,10.773,225.38,140422,,,A*55

$GPGGA,135718.20,4437.75255,N,01056.87765,E,1,08,0.95,70.0,M,46.0,M,,*6B

$GPRMC,135718.30,A,4437.75232,N,01056.87718,E,10.704,225.96,140422,,,A*5B

$GPRMC,135718.40,A,4437.75206,N,01056.87675,E,10.516,226.22,140422,,,A*5C

$GPRMC,135718.50,A,4437.75166,N,01056.87643,E,10.147,223.79,140422,,,A*56

$GPRMC,135718.60,A,4437.75139,N,01056.87610,E,10.212,223.12,140422,,,A*57

$GPRMC,135718.70,A,4437.75104,N,01056.87579,E,10.468,221.50,140422,,,A*5B

$GPRMC,135718.80,A,4437.75070,N,01056.87552,E,10.517,220.53,140422,,,A*54

$GPRMC,135718.90,A,4437.75030,N,01056.87529,E,10.853,218.10,140422,,,A*5C

$GPRMC,135719.00,A,4437.74989,N,01056.87504,E,10.747,217.91,140422,,,A*5D

$GPRMC,135719.10,A,4437.74951,N,01056.87479,E,10.812,218.59,140422,,,A*56

$GPRMC,135719.20,A,4437.74908,N,01056.87457,E,11.012,217.53,140422,,,A*59

$GPGGA,135719.20,4437.74908,N,01056.87457,E,1,08,0.95,68.1,M,46.0,M,,*62

$GPRMC,135719.30,A,4437.74868,N,01056.87431,E,10.935,218.56,140422,,,A*58

$GPRMC,135719.40,A,4437.74825,N,01056.87405,E,11.008,217.79,140422,,,A*55

$GPRMC,135719.50,A,4437.74780,N,01056.87380,E,11.092,218.99,140422,,,A*5C

$GPRMC,135719.60,A,4437.74736,N,01056.87355,E,11.422,218.95,140422,,,A*59

$GPRMC,135719.70,A,4437.74688,N,01056.87334,E,11.588,218.24,140422,,,A*50

$GPRMC,135719.80,A,4437.74641,N,01056.87305,E,11.387,219.56,140422,,,A*55

$GPRMC,135719.90,A,4437.74589,N,01056.87278,E,11.995,219.00,140422,,,A*52

$GPRMC,135720.00,A,4437.74543,N,01056.87246,E,11.669,221.04,140422,,,A*59

$GPRMC,135720.10,A,4437.74492,N,01056.87215,E,12.128,221.41,140422,,,A*53

$GPRMC,135720.20,A,4437.74443,N,01056.87183,E,12.155,220.83,140422,,,A*55

$GPGGA,135720.20,4437.74443,N,01056.87183,E,1,08,1.17,64.5,M,46.0,M,,*65

$GPRMC,135720.30,A,4437.74395,N,01056.87150,E,12.141,222.26,140422,,,A*5E

$GPRMC,135720.40,A,4437.74346,N,01056.87116,E,12.611,221.99,140422,,,A*50

$GPRMC,135720.50,A,4437.74309,N,01056.87085,E,12.419,221.84,140422,,,A*57

$GPRMC,135720.60,A,4437.74268,N,01056.87049,E,12.343,223.67,140422,,,A*55

$GPRMC,135720.70,A,4437.74218,N,01056.87018,E,12.545,221.26,140422,,,A*50

$GPRMC,135720.80,A,4437.74171,N,01056.86984,E,12.892,223.27,140422,,,A*5A

$GPRMC,135720.90,A,4437.74122,N,01056.86963,E,12.623,221.50,140422,,,A*52

$GPRMC,135721.00,A,4437.74077,N,01056.86932,E,12.692,223.35,140422,,,A*54

$GPRMC,135721.10,A,4437.74032,N,01056.86902,E,12.683,222.38,140422,,,A*5B

$GPRMC,135721.20,A,4437.73990,N,01056.86872,E,12.583,222.97,140422,,,A*5E

$GPGGA,135721.20,4437.73990,N,01056.86872,E,1,08,1.17,60.9,M,46.0,M,,*6E

$GPRMC,135721.30,A,4437.73945,N,01056.86840,E,12.910,222.57,140422,,,A*5C

$GPRMC,135721.40,A,4437.73907,N,01056.86807,E,12.635,221.92,140422,,,A*5C

$GPRMC,135721.50,A,4437.73870,N,01056.86769,E,12.771,221.78,140422,,,A*5E

$GPRMC,135721.60,A,4437.73831,N,01056.86736,E,12.791,220.82,140422,,,A*58

$GPRMC,135721.70,A,4437.73789,N,01056.86700,E,12.713,220.61,140422,,,A*57

$GPRMC,135721.80,A,4437.73755,N,01056.86668,E,12.741,219.59,140422,,,A*50

$GPRMC,135721.90,A,4437.73720,N,01056.86641,E,12.644,218.04,140422,,,A*55

$GPRMC,135722.00,A,4437.73688,N,01056.86612,E,12.656,217.97,140422,,,A*5C

$GPRMC,135722.10,A,4437.73655,N,01056.86580,E,12.403,216.44,140422,,,A*58

$GPRMC,135722.20,A,4437.73618,N,01056.86551,E,12.545,214.39,140422,,,A*55

$GPGGA,135722.20,4437.73618,N,01056.86551,E,1,08,0.95,58.8,M,46.0,M,,*6F

$GPRMC,135722.30,A,4437.73587,N,01056.86522,E,12.577,213.36,140422,,,A*5C

$GPRMC,135722.40,A,4437.73554,N,01056.86495,E,12.266,210.92,140422,,,A*52

$GPRMC,135722.50,A,4437.73522,N,01056.86467,E,12.467,209.73,140422,,,A*5F

$GPRMC,135722.60,A,4437.73486,N,01056.86442,E,12.440,207.66,140422,,,A*5B

$GPRMC,135722.70,A,4437.73451,N,01056.86419,E,12.392,205.44,140422,,,A*54

$GPRMC,135722.80,A,4437.73418,N,01056.86396,E,12.342,203.52,140422,,,A*5A

$GPRMC,135722.90,A,4437.73385,N,01056.86371,E,12.055,201.91,140422,,,A*59

$GPRMC,135723.00,A,4437.73349,N,01056.86352,E,12.009,199.72,140422,,,A*56

$GPRMC,135723.10,A,4437.73325,N,01056.86348,E,11.540,195.52,140422,,,A*53

$GPRMC,135723.20,A,4437.73293,N,01056.86338,E,11.338,193.55,140422,,,A*53

$GPGGA,135723.20,4437.73293,N,01056.86338,E,1,08,0.95,58.4,M,46.0,M,,*6C

$GPRMC,135723.30,A,4437.73258,N,01056.86327,E,11.237,192.82,140422,,,A*5E

$GPRMC,135723.40,A,4437.73223,N,01056.86316,E,11.335,191.91,140422,,,A*55

$GPRMC,135723.50,A,4437.73188,N,01056.86304,E,11.384,190.38,140422,,,A*5D

$GPRMC,135723.60,A,4437.73154,N,01056.86293,E,11.158,188.11,140422,,,A*51

$GPRMC,135723.70,A,4437.73121,N,01056.86285,E,11.052,185.51,140422,,,A*57

$GPRMC,135723.80,A,4437.73090,N,01056.86279,E,10.544,183.42,140422,,,A*57

$GPRMC,135723.90,A,4437.73057,N,01056.86274,E,10.590,181.08,140422,,,A*55

$GPRMC,135724.00,A,4437.73023,N,01056.86268,E,10.607,179.64,140422,,,A*55

$GPRMC,135724.10,A,4437.72992,N,01056.86265,E,10.351,177.45,140422,,,A*50

$GPRMC,135724.20,A,4437.72961,N,01056.86267,E,10.326,175.31,140422,,,A*5C

$GPGGA,135724.20,4437.72961,N,01056.86267,E,1,09,0.87,57.6,M,46.0,M,,*68

$GPRMC,135724.30,A,4437.72934,N,01056.86268,E,9.868,172.65,140422,,,A*6D

$GPRMC,135724.40,A,4437.72907,N,01056.86267,E,9.273,171.54,140422,,,A*64

$GPRMC,135724.50,A,4437.72877,N,01056.86272,E,9.672,167.82,140422,,,A*6E

$GPRMC,135724.60,A,4437.72849,N,01056.86274,E,9.452,165.67,140422,,,A*6F

$GPRMC,135724.70,A,4437.72817,N,01056.86279,E,9.983,164.41,140422,,,A*6C

$GPRMC,135724.80,A,4437.72801,N,01056.86287,E,8.853,162.07,140422,,,A*6C

$GPRMC,135724.90,A,4437.72771,N,01056.86296,E,9.175,159.14,140422,,,A*63

$GPRMC,135725.00,A,4437.72743,N,01056.86308,E,9.593,156.75,140422,,,A*68

$GPRMC,135725.10,A,4437.72716,N,01056.86323,E,10.021,154.10,140422,,,A*55

$GPRMC,135725.20,A,4437.72693,N,01056.86340,E,9.872,150.64,140422,,,A*6E

$GPGGA,135725.20,4437.72693,N,01056.86340,E,1,08,0.95,56.6,M,46.0,M,,*6C

$GPRMC,135725.30,A,4437.72669,N,01056.86356,E,9.826,148.46,140422,,,A*65

$GPRMC,135725.40,A,4437.72646,N,01056.86376,E,10.013,145.32,140422,,,A*55

$GPRMC,135725.50,A,4437.72624,N,01056.86397,E,9.934,142.54,140422,,,A*6C

$GPRMC,135725.60,A,4437.72600,N,01056.86417,E,9.570,141.42,140422,,,A*6E

$GPRMC,135725.70,A,4437.72575,N,01056.86442,E,9.749,140.10,140422,,,A*60

$GPRMC,135725.80,A,4437.72553,N,01056.86466,E,9.711,137.44,140422,,,A*61

$GPRMC,135725.90,A,4437.72530,N,01056.86486,E,9.478,136.29,140422,,,A*6D

$GPRMC,135726.00,A,4437.72512,N,01056.86514,E,9.861,132.96,140422,,,A*69

$GPRMC,135726.10,A,4437.72487,N,01056.86539,E,10.130,132.57,140422,,,A*52

$GPRMC,135726.20,A,4437.72461,N,01056.86564,E,10.373,131.91,140422,,,A*5D

$GPGGA,135726.20,4437.72461,N,01056.86564,E,1,08,0.95,56.1,M,46.0,M,,*67

$GPRMC,135726.30,A,4437.72436,N,01056.86593,E,10.869,129.67,140422,,,A*56

$GPRMC,135726.40,A,4437.72410,N,01056.86617,E,10.347,129.70,140422,,,A*5B

$GPRMC,135726.50,A,4437.72383,N,01056.86638,E,9.894,130.60,140422,,,A*6E

$GPRMC,135726.60,A,4437.72360,N,01056.86666,E,10.041,129.94,140422,,,A*50

$GPRMC,135726.70,A,4437.72337,N,01056.86692,E,10.148,130.08,140422,,,A*5D

