$GPRMC,133107.10,A,4437.78852,N,01056.99773,E,0.530,83.48,140422,,,A*5D

$GPRMC,133107.20,A,4437.78854,N,01056.99774,E,0.748,50.59,140422,,,A*5C

$GPTXT,01,01,02,u-blox ag - www.u-blox.com*50

$GPTXT,01,01,02,HW  UBX-G70xx   00070000 EFFFFFFFo*1B

$GPTXT,01,01,02,EXT CORE 1.00 (59843) Jun 27 2012 18:25:33*49

$GPTXT,01,01,02,ROM BASE 1.00 (59842) Jun 27 2012 17:43:52*57

$GPTXT,01,01,02,MOD NEO-7N-0*26

$GPTXT,01,01,02,PROTVER 14.00*1E

$GPTXT,01,01,02,ANTSUPERV=AC SD PDoS SR*20

$GPTXT,01,01,02,ANTSTATUS=OK*3B

$GPTXT,01,01,02,FIS 0xEF4015 found*2C

$GPTXT,01,01,02,LLC FFFFFFFF-FFFFFFED-FFFFFFFF-FFFFFFFF-FFFFFF69*20

$GPRMC,133107.30,A,4437.78855,N,01056.99778,E,1.129,47.70,140422,,,A*5D

$GPRMC,133107.40,A,4437.78859,N,01056.99785,E,1.941,48.96,140422,,,A*55

$GPRMC,133107.50,A,4437.78864,N,01056.99795,E,3.134,43.00,140422,,,A*57

$GPGGA,133107.50,4437.78864,N,01056.99795,E,1,07,1.04,41.0,M,46.0,M,,*63

$GPRMC,133107.60,A,4437.78867,N,01056.99802,E,2.697,41.19,140422,,,A*53

$GPRMC,133107.70,A,4437.78871,N,01056.99814,E,3.265,44.31,140422,,,A*55

$GPRMC,133107.80,A,4437.78875,N,01056.99821,E,3.184,42.61,140422,,,A*57

$GPRMC,133107.90,A,4437.78881,N,01056.99828,E,3.268,37.76,140422,,,A*51

$GPRMC,133108.00,A,4437.78885,N,01056.99840,E,3.353,42.83,140422,,,A*5C

$GPRMC,133108.10,A,4437.78889,N,01056.99850,E,3.376,44.94,140422,,,A*57

$GPRMC,133108.20,A,4437.78890,N,01056.99859,E,2.929,46.82,140422,,,A*51

$GPRMC,133108.30,A,4437.78884,N,01056.99868,E,2.384,52.40,140422,,,A*51

$GPRMC,133108.40,A,4437.78877,N,01056.99879,E,2.259,67.32,140422,,,A*58

$GPRMC,133108.50,A,4437.78880,N,01056.99885,E,2.194,61.81,140422,,,A*5E

$GPGGA,133108.50,4437.78880,N,01056.99885,E,1,07,1.04,42.9,M,46.0,M,,*62

$GPRMC,133108.60,A,4437.78888,N,01056.99896,E,3.270,54.39,140422,,,A*5A

$GPRMC,133108.70,A,4437.78897,N,01056.99906,E,3.725,47.78,140422,,,A*5F

$GPRMC,133108.80,A,4437.78903,N,01056.99918,E,3.821,46.29,140422,,,A*5D

$GPRMC,133108.90,A,4437.78901,N,01056.99928,E,3.042,49.62,140422,,,A*50

$GPRMC,133109.00,A,4437.78906,N,01056.99939,E,3.383,52.97,140422,,,A*51

$GPRMC,133109.10,A,4437.78911,N,01056.99956,E,4.183,56.76,140422,,,A*51

$GPRMC,133109.20,A,4437.78920,N,01056.99968,E,4.178,54.73,140422,,,A*5E

$GPRMC,133109.30,A,4437.78932,N,01056.99982,E,4.754,51.33,140422,,,A*51

$GPRMC,133109.40,A,4437.78941,N,01056.99997,E,5.014,50.97,140422,,,A*5B

$GPRMC,133109.50,A,4437.78947,N,01057.00008,E,4.406,48.60,140422,,,A*55

$GPGGA,133109.50,4437.78947,N,01057.00008,E,1,07,1.04,43.9,M,46.0,M,,*64

$GPRMC,133109.60,A,4437.78950,N,01057.00024,E,4.225,51.70,140422,,,A*50

$GPRMC,133109.70,A,4437.78952,N,01057.00043,E,4.668,59.20,140422,,,A*52

$GPRMC,133109.80,A,4437.78949,N,01057.00059,E,4.201,66.39,140422,,,A*53

$GPRMC,133109.90,A,4437.78950,N,01057.00076,E,4.272,71.66,140422,,,A*5F

$GPRMC,133110.00,A,4437.78953,N,01057.00092,E,4.302,73.34,140422,,,A*54

$GPRMC,133110.10,A,4437.78963,N,01057.00106,E,4.334,68.25,140422,,,A*55

$GPRMC,133110.20,A,4437.78972,N,01057.00120,E,4.406,64.38,140422,,,A*54

$GPRMC,133110.30,A,4437.78982,N,01057.00134,E,4.628,60.76,140422,,,A*5F

$GPRMC,133110.40,A,4437.78990,N,01057.00149,E,4.756,58.99,140422,,,A*53

$GPRMC,133110.50,A,4437.79000,N,01057.00157,E,4.383,54.05,140422,,,A*59

$GPGGA,133110.50,4437.79000,N,01057.00157,E,1,07,1.04,45.1,M,46.0,M,,*62

$GPRMC,133110.60,A,4437.79022,N,01057.00164,E,5.035,40.66,140422,,,A*55

$GPRMC,133110.70,A,4437.79031,N,01057.00187,E,5.952,46.26,140422,,,A*51

$GPRMC,133110.80,A,4437.79043,N,01057.00203,E,6.008,49.50,140422,,,A*5F

$GPRMC,133110.90,A,4437.79072,N,01057.00206,E,5.965,38.44,140422,,,A*5B

$GPRMC,133111.00,A,4437.79086,N,01057.00224,E,6.369,41.54,140422,,,A*52

$GPRMC,133111.10,A,4437.79102,N,01057.00236,E,6.349,40.59,140422,,,A*53

$GPRMC,133111.20,A,4437.79115,N,01057.00244,E,5.687,36.94,140422,,,A*57

$GPRMC,133111.30,A,4437.79130,N,01057.00271,E,7.175,43.91,140422,,,A*58

$GPRMC,133111.40,A,4437.79144,N,01057.00289,E,7.017,44.32,140422,,,A*50

$GPRMC,133111.50,A,4437.79159,N,01057.00306,E,7.123,42.88,140422,,,A*5A

$GPGGA,133111.50,4437.79159,N,01057.00306,E,1,07,1.04,45.7,M,46.0,M,,*6E

$GPRMC,133111.60,A,4437.79178,N,01057.00324,E,7.392,42.56,140422,,,A*51

$GPRMC,133111.70,A,4437.79191,N,01057.00340,E,6.947,42.10,140422,,,A*54

$GPRMC,133111.80,A,4437.79209,N,01057.00353,E,7.159,37.82,140422,,,A*54

$GPRMC,133111.90,A,4437.79224,N,01057.00367,E,6.965,35.66,140422,,,A*53

$GPRMC,133112.00,A,4437.79239,N,01057.00380,E,6.732,34.66,140422,,,A*51

$GPRMC,133112.10,A,4437.79253,N,01057.00393,E,6.476,33.44,140422,,,A*5A

$GPRMC,133112.20,A,4437.79267,N,01057.00407,E,6.545,32.71,140422,,,A*52

$GPRMC,133112.30,A,4437.79280,N,01057.00415,E,6.079,31.13,140422,,,A*54

$GPRMC,133112.40,A,4437.79294,N,01057.00437,E,6.667,35.24,140422,,,A*5F

$GPRMC,133112.50,A,4437.79308,N,01057.00442,E,5.807,32.54,140422,,,A*53

$GPGGA,133112.50,4437.79308,N,01057.00442,E,1,07,1.04,46.7,M,46.0,M,,*6F

$GPRMC,133112.60,A,4437.79322,N,01057.00452,E,5.910,30.02,140422,,,A*5F

$GPRMC,133112.70,A,4437.79335,N,01057.00459,E,5.651,26.99,140422,,,A*5C

$GPRMC,133112.80,A,4437.79350,N,01057.00467,E,5.739,24.90,140422,,,A*59

$GPRMC,133112.90,A,4437.79365,N,01057.00479,E,5.498,29.09,140422,,,A*54

$GPRMC,133113.00,A,4437.79379,N,01057.00493,E,5.798,32.68,140422,,,A*5B

$GPRMC,133113.10,A,4437.79388,N,01057.00505,E,5.339,33.31,140422,,,A*58

$GPRMC,133113.20,A,4437.79397,N,01057.00516,E,4.680,34.23,140422,,,A*55

$GPRMC,133113.30,A,4437.79401,N,01057.00529,E,4.420,36.04,140422,,,A*5F

$GPRMC,133113.40,A,4437.79406,N,01057.00541,E,4.084,38.17,140422,,,A*57

$GPRMC,133113.50,A,4437.79410,N,01057.00554,E,3.890,39.26,140422,,,A*5C

$GPGGA,133113.50,4437.79410,N,01057.00554,E,1,07,1.04,48.0,M,46.0,M,,*6F

$GPRMC,133113.60,A,4437.79417,N,01057.00567,E,3.895,40.82,140422,,,A*5D

$GPRMC,133113.70,A,4437.79428,N,01057.00571,E,3.509,33.81,140422,,,A*58

$GPRMC,133113.80,A,4437.79432,N,01057.00587,E,3.783,37.58,140422,,,A*55

$GPRMC,133113.90,A,4437.79440,N,01057.00595,E,3.370,38.24,140422,,,A*5E

$GPRMC,133114.00,A,4437.79455,N,01057.00605,E,4.077,36.41,140422,,,A*50

$GPRMC,133114.10,A,4437.79467,N,01057.00616,E,4.190,36.90,140422,,,A*56

$GPRMC,133114.20,A,4437.79476,N,01057.00623,E,4.018,31.70,140422,,,A*5B

$GPRMC,133114.30,A,4437.79486,N,01057.00630,E,3.646,28.31,140422,,,A*50

$GPRMC,133114.40,A,4437.79498,N,01057.00641,E,4.255,29.79,140422,,,A*52

$GPRMC,133114.50,A,4437.79512,N,01057.00650,E,4.382,28.75,140422,,,A*56

$GPGGA,133114.50,4437.79512,N,01057.00650,E,1,07,1.04,48.0,M,46.0,M,,*6C

$GPRMC,133114.60,A,4437.79526,N,01057.00658,E,4.356,27.25,140422,,,A*59

$GPRMC,133114.70,A,4437.79532,N,01057.00670,E,4.113,28.62,140422,,,A*58

$GPRMC,133114.80,A,4437.79542,N,01057.00677,E,4.041,24.01,140422,,,A*58

$GPRMC,133114.90,A,4437.79553,N,01057.00685,E,4.078,22.74,140422,,,A*5A

$GPRMC,133115.00,A,4437.79566,N,01057.00691,E,4.232,18.01,140422,,,A*56

$GPRMC,133115.10,A,4437.79578,N,01057.00697,E,4.311,14.51,140422,,,A*57

$GPRMC,133115.20,A,4437.79589,N,01057.00701,E,4.016,9.32,140422,,,A*69

$GPRMC,133115.30,A,4437.79603,N,01057.00705,E,4.378,5.97,140422,,,A*65

$GPRMC,133115.40,A,4437.79614,N,01057.00706,E,3.957,0.10,140422,,,A*6D

$GPRMC,133115.50,A,4437.79627,N,01057.00709,E,4.257,358.26,140422,,,A*64

$GPGGA,133115.50,4437.79627,N,01057.00709,E,1,07,1.04,48.5,M,46.0,M,,*60

$GPRMC,133115.60,A,4437.79642,N,01057.00707,E,4.659,352.96,140422,,,A*61

$GPRMC,133115.70,A,4437.79657,N,01057.00703,E,4.757,347.98,140422,,,A*65

$GPRMC,133115.80,A,4437.79671,N,01057.00700,E,4.924,344.48,140422,,,A*69

$GPRMC,133115.90,A,4437.79685,N,01057.00694,E,4.999,339.63,140422,,,A*6A

$GPRMC,133116.00,A,4437.79702,N,01057.00685,E,5.377,335.58,140422,,,A*61

$GPRMC,133116.10,A,4437.79721,N,01057.00678,E,5.506,334.52,140422,,,A*68

$GPRMC,133116.20,A,4437.79747,N,01057.00668,E,5.995,332.86,140422,,,A*63

$GPRMC,133116.30,A,4437.79768,N,01057.00660,E,5.948,332.32,140422,,,A*68

$GPRMC,133116.40,A,4437.79789,N,01057.00652,E,6.093,331.17,140422,,,A*69

$GPRMC,133116.50,A,4437.79809,N,01057.00643,E,6.240,329.83,140422,,,A*67

$GPGGA,133116.50,4437.79809,N,01057.00643,E,1,07,1.04,47.6,M,46.0,M,,*62

$GPRMC,133116.60,A,4437.79831,N,01057.00639,E,5.837,331.55,140422,,,A*69

$GPRMC,133116.70,A,4437.79850,N,01057.00629,E,6.105,330.06,140422,,,A*62

$GPRMC,133116.80,A,4437.79871,N,01057.00619,E,6.156,329.75,140422,,,A*67

$GPRMC,133116.90,A,4437.79888,N,01057.00606,E,6.350,328.08,140422,,,A*61

$GPRMC,133117.00,A,4437.79905,N,01057.00593,E,6.073,324.35,140422,,,A*62

$GPRMC,133117.10,A,4437.79919,N,01057.00583,E,6.146,323.46,140422,,,A*6B

$GPRMC,133117.30,A,4437.79951,N,01057.00554,E,6.571,322.94,140422,,,A*61

$GPRMC,133117.40,A,4437.79970,N,01057.00535,E,6.852,319.90,140422,,,A*62

$GPRMC,133117.50,A,4437.79990,N,01057.00519,E,7.020,320.00,140422,,,A*6C

$GPRMC,133117.60,A,4437.80003,N,01057.00502,E,6.863,317.48,140422,,,A*66

$GPGGA,133117.60,4437.80003,N,01057.00502,E,1,07,1.04,46.8,M,46.0,M,,*6D

$GPRMC,133117.70,A,4437.80017,N,01057.00487,E,6.880,317.26,140422,,,A*6B

$GPRMC,133117.80,A,4437.80035,N,01057.00469,E,7.097,316.61,140422,,,A*69

$GPRMC,133117.90,A,4437.80056,N,01057.00452,E,7.564,318.62,140422,,,A*61

$GPRMC,133118.00,A,4437.80080,N,01057.00430,E,7.910,319.97,140422,,,A*6C

$GPRMC,133118.10,A,4437.80102,N,01057.00412,E,7.790,318.81,140422,,,A*66

$GPRMC,133118.30,A,4437.80142,N,01057.00367,E,8.126,317.16,140422,,,A*60

$GPRMC,133118.50,A,4437.80182,N,01057.00324,E,8.150,317.43,140422,,,A*6C

$GPRMC,133118.60,A,4437.80204,N,01057.00304,E,8.197,316.32,140422,,,A*6C

$GPRMC,133118.70,A,4437.80226,N,01057.00284,E,8.196,316.34,140422,,,A*63

$GPRMC,133118.80,A,4437.80247,N,01057.00262,E,8.134,315.21,140422,,,A*6C

$GPGGA,133118.80,4437.80247,N,01057.00262,E,1,06,1.51,45.3,M,46.0,M,,*66

$GPRMC,133118.90,A,4437.80267,N,01057.00241,E,8.121,313.77,140422,,,A*6F

$GPRMC,133119.00,A,4437.80288,N,01057.00216,E,8.502,313.09,140422,,,A*68

$GPRMC,133119.10,A,4437.80309,N,01057.00194,E,8.531,312.87,140422,,,A*6F

$GPRMC,133119.30,A,4437.80346,N,01057.00140,E,8.881,311.92,140422,,,A*6E

$GPRMC,133119.40,A,4437.80363,N,01057.00117,E,8.729,311.52,140422,,,A*6D

$GPRMC,133119.50,A,4437.80382,N,01057.00098,E,8.535,311.24,140422,,,A*6B

$GPRMC,133119.60,A,4437.80403,N,01057.00068,E,8.989,310.11,140422,,,A*65

$GPRMC,133119.70,A,4437.80422,N,01057.00047,E,8.671,310.62,140422,,,A*66

$GPRMC,133119.80,A,4437.80442,N,01057.00021,E,8.817,310.04,140422,,,A*61

$GPRMC,133119.90,A,4437.80462,N,01056.99993,E,8.914,309.50,140422,,,A*68

$GPGGA,133119.90,4437.80462,N,01056.99993,E,1,06,1.51,43.9,M,46.0,M,,*6F

$GPRMC,133120.00,A,4437.80482,N,01056.99968,E,8.953,309.58,140422,,,A*6A

$GPRMC,133120.10,A,4437.80501,N,01056.99936,E,9.280,306.08,140422,,,A*64

$GPRMC,133120.20,A,4437.80521,N,01056.99913,E,8.806,307.75,140422,,,A*6C

$GPRMC,133120.30,A,4437.80537,N,01056.99892,E,8.740,308.00,140422,,,A*62

$GPRMC,133120.40,A,4437.80557,N,01056.99864,E,8.737,308.00,140422,,,A*6A

$GPRMC,133120.50,A,4437.80576,N,01056.99836,E,9.080,307.57,140422,,,A*68

$GPRMC,133120.60,A,4437.80596,N,01056.99808,E,9.295,308.36,140422,,,A*66

$GPRMC,133120.70,A,4437.80617,N,01056.99781,E,9.357,309.29,140422,,,A*63

$GPRMC,133120.80,A,4437.80637,N,01056.99755,E,9.425,309.12,140422,,,A*6D

$GPRMC,133120.90,A,4437.80657,N,01056.99724,E,9.608,308.26,140422,,,A*67

$GPGGA,133120.90,4437.80657,N,01056.99724,E,1,07,1.04,42.6,M,46.0,M,,*6C

$GPRMC,133121.00,A,4437.80677,N,01056.99697,E,9.526,308.52,140422,,,A*68

$GPRMC,133121.10,A,4437.80697,N,01056.99665,E,9.834,307.56,140422,,,A*6F

$GPRMC,133121.20,A,4437.80716,N,01056.99637,E,9.790,306.99,140422,,,A*60

$GPRMC,133121.30,A,4437.80736,N,01056.99609,E,9.704,308.00,140422,,,A*6D

$GPRMC,133121.40,A,4437.80754,N,01056.99583,E,9.624,306.95,140422,,,A*6E

$GPRMC,133121.50,A,4437.80772,N,01056.99558,E,9.424,307.01,140422,,,A*63

$GPRMC,133121.60,A,4437.80791,N,01056.99526,E,9.729,306.75,140422,,,A*68

$GPRMC,133121.70,A,4437.80808,N,01056.99502,E,9.334,307.14,140422,,,A*6E

$GPRMC,133121.80,A,4437.80828,N,01056.99477,E,9.603,308.70,140422,,,A*6C

$GPRMC,133121.90,A,4437.80844,N,01056.99449,E,9.412,307.23,140422,,,A*61

$GPGGA,133121.90,4437.80844,N,01056.99449,E,1,07,1.04,41.7,M,46.0,M,,*6B

$GPRMC,133122.00,A,4437.80863,N,01056.99422,E,9.475,307.76,140422,,,A*62

$GPRMC,133122.10,A,4437.80881,N,01056.99395,E,9.515,307.57,140422,,,A*60

$GPRMC,133122.30,A,4437.80914,N,01056.99343,E,9.187,307.84,140422,,,A*65

$GPRMC,133122.40,A,4437.80930,N,01056.99320,E,9.270,307.28,140422,,,A*6C

$GPRMC,133122.50,A,4437.80947,N,01056.99294,E,9.244,306.98,140422,,,A*6E

$GPRMC,133122.60,A,4437.80964,N,01056.99272,E,9.161,308.02,140422,,,A*6D

$GPRMC,133122.70,A,4437.80981,N,01056.99252,E,9.131,309.20,140422,,,A*61

$GPRMC,133122.90,A,4437.81013,N,01056.99206,E,8.997,310.22,140422,,,A*62

$GPRMC,133123.00,A,4437.81027,N,01056.99191,E,8.616,310.28,140422,,,A*6C

$GPRMC,133123.10,A,4437.81042,N,01056.99169,E,8.625,309.91,140422,,,A*63

$GPGGA,133123.10,4437.81042,N,01056.99169,E,1,07,1.04,41.8,M,46.0,M,,*66

$GPRMC,133123.30,A,4437.81075,N,01056.99114,E,8.917,309.01,140422,,,A*68

$GPRMC,133123.40,A,4437.81098,N,01056.99092,E,9.293,312.97,140422,,,A*60

$GPRMC,133123.50,A,4437.81119,N,01056.99060,E,9.369,312.78,140422,,,A*61

$GPRMC,133123.60,A,4437.81141,N,01056.99024,E,9.904,312.16,140422,,,A*66

$GPRMC,133123.70,A,4437.81161,N,01056.99003,E,9.726,312.90,140422,,,A*60

$GPRMC,133123.80,A,4437.81179,N,01056.98989,E,9.494,313.28,140422,,,A*64

$GPRMC,133124.00,A,4437.81215,N,01056.98930,E,9.573,310.78,140422,,,A*6E

$GPRMC,133124.10,A,4437.81234,N,01056.98900,E,9.865,309.95,140422,,,A*6E

$GPRMC,133124.20,A,4437.81251,N,01056.98876,E,9.598,309.36,140422,,,A*68

$GPRMC,133124.30,A,4437.81270,N,01056.98848,E,9.798,309.86,140422,,,A*6E

$GPGGA,133124.30,4437.81270,N,01056.98848,E,1,07,1.51,41.6,M,46.0,M,,*65

$GPRMC,133124.40,A,4437.81292,N,01056.98842,E,9.452,314.49,140422,,,A*65

$GPRMC,133124.50,A,4437.81312,N,01056.98815,E,9.471,315.14,140422,,,A*67

$GPRMC,133124.60,A,4437.81333,N,01056.98781,E,9.719,314.87,140422,,,A*63

$GPRMC,133124.70,A,4437.81351,N,01056.98766,E,9.368,314.56,140422,,,A*61

$GPRMC,133124.80,A,4437.81370,N,01056.98743,E,9.556,313.94,140422,,,A*68

$GPRMC,133124.90,A,4437.81389,N,01056.98712,E,9.708,312.89,140422,,,A*6F

$GPRMC,133125.00,A,4437.81407,N,01056.98680,E,9.799,311.19,140422,,,A*6E

$GPRMC,133125.10,A,4437.81426,N,01056.98644,E,10.066,308.96,140422,,,A*54

$GPRMC,133125.30,A,4437.81463,N,01056.98581,E,10.144,308.36,140422,,,A*56

$GPRMC,133125.40,A,4437.81484,N,01056.98548,E,10.379,309.19,140422,,,A*5D

$GPGGA,133125.40,4437.81484,N,01056.98548,E,1,06,4.35,41.6,M,46.0,M,,*65

$GPRMC,133125.50,A,4437.81504,N,01056.98520,E,10.403,310.99,140422,,,A*51

$GPRMC,133125.60,A,4437.81521,N,01056.98493,E,10.296,308.40,140422,,,A*5B

$GPRMC,133125.70,A,4437.81540,N,01056.98467,E,10.317,309.02,140422,,,A*59

$GPRMC,133125.80,A,4437.81560,N,01056.98442,E,10.185,310.22,140422,,,A*50

$GPRMC,133125.90,A,4437.81577,N,01056.98428,E,9.878,311.67,140422,,,A*68

$GPRMC,133126.00,A,4437.81596,N,01056.98408,E,9.683,312.73,140422,,,A*63

$GPRMC,133126.10,A,4437.81615,N,01056.98370,E,10.137,311.31,140422,,,A*57

$GPRMC,133126.30,A,4437.81655,N,01056.98310,E,10.031,312.29,140422,,,A*5A

$GPRMC,133126.40,A,4437.81677,N,01056.98277,E,10.300,313.69,140422,,,A*59

$GPRMC,133126.50,A,4437.81697,N,01056.98253,E,10.268,313.75,140422,,,A*52

$GPGGA,133126.50,4437.81697,N,01056.98253,E,1,06,1.26,41.9,M,46.0,M,,*62

$GPRMC,133126.60,A,4437.81721,N,01056.98218,E,10.599,315.10,140422,,,A*5E

$GPRMC,133126.70,A,4437.81741,N,01056.98192,E,10.503,314.26,140422,,,A*5F

$GPRMC,133126.80,A,4437.81762,N,01056.98175,E,10.456,315.13,140422,,,A*5E

$GPRMC,133126.90,A,4437.81784,N,01056.98152,E,10.431,316.57,140422,,,A*50

$GPRMC,133127.10,A,4437.81825,N,01056.98102,E,10.208,315.90,140422,,,A*5C

$GPRMC,133127.30,A,4437.81868,N,01056.98040,E,10.203,316.85,140422,,,A*5C

$GPRMC,133127.50,A,4437.81909,N,01056.97978,E,10.027,315.43,140422,,,A*5C

$GPRMC,133127.60,A,4437.81929,N,01056.97940,E,10.062,313.00,140422,,,A*56

$GPRMC,133127.70,A,4437.81950,N,01056.97911,E,10.070,313.75,140422,,,A*5C

$GPRMC,133127.80,A,4437.81970,N,01056.97883,E,10.113,313.93,140422,,,A*57

$GPGGA,133127.80,4437.81970,N,01056.97883,E,1,06,1.51,42.1,M,46.0,M,,*6B

$GPRMC,133127.90,A,4437.81988,N,01056.97856,E,9.601,313.45,140422,,,A*6E

$GPRMC,133128.10,A,4437.82025,N,01056.97802,E,9.650,313.09,140422,,,A*69

$GPRMC,133128.30,A,4437.82059,N,01056.97746,E,9.428,310.37,140422,,,A*6C

$GPRMC,133128.40,A,4437.82076,N,01056.97715,E,9.367,308.65,140422,,,A*62

$GPRMC,133128.50,A,4437.82094,N,01056.97680,E,9.193,308.68,140422,,,A*66

$GPRMC,133128.60,A,4437.82110,N,01056.97646,E,9.465,307.71,140422,,,A*69

$GPRMC,133128.70,A,4437.82126,N,01056.97620,E,9.332,307.95,140422,,,A*62

$GPRMC,133128.90,A,4437.82157,N,01056.97538,E,9.799,303.37,140422,,,A*69

$GPRMC,133129.10,A,4437.82185,N,01056.97472,E,9.572,300.37,140422,,,A*64

$GPRMC,133129.30,A,4437.82216,N,01056.97409,E,9.071,303.91,140422,,,A*6A

$GPGGA,133129.30,4437.82216,N,01056.97409,E,1,06,1.51,41.9,M,46.0,M,,*63

$GPRMC,133129.50,A,4437.82239,N,01056.97356,E,9.073,299.18,140422,,,A*6D

$GPRMC,133129.70,A,4437.82263,N,01056.97289,E,8.837,297.00,140422,,,A*6D

$GPRMC,133129.90,A,4437.82280,N,01056.97230,E,8.513,290.73,140422,,,A*64

$GPRMC,133130.00,A,4437.82289,N,01056.97199,E,8.449,290.06,140422,,,A*60

$GPRMC,133130.20,A,4437.82304,N,01056.97131,E,8.448,286.98,140422,,,A*65

$GPRMC,133130.40,A,4437.82314,N,01056.97075,E,7.373,284.24,140422,,,A*66

$GPRMC,133130.50,A,4437.82318,N,01056.97049,E,7.309,282.65,140422,,,A*6A

$GPRMC,133130.60,A,4437.82322,N,01056.97021,E,7.170,281.30,140422,,,A*61

$GPRMC,133130.70,A,4437.82327,N,01056.96986,E,7.090,279.61,140422,,,A*6C

$GPRMC,133130.80,A,4437.82328,N,01056.96968,E,6.563,277.00,140422,,,A*6D

$GPGGA,133130.80,4437.82328,N,01056.96968,E,1,07,1.04,41.7,M,46.0,M,,*68

$GPRMC,133130.90,A,4437.82331,N,01056.96930,E,7.423,274.11,140422,,,A*6E

$GPRMC,133131.00,A,4437.82332,N,01056.96901,E,6.858,271.78,140422,,,A*6C

$GPRMC,133131.10,A,4437.82332,N,01056.96878,E,6.887,269.78,140422,,,A*69

$GPRMC,133131.30,A,4437.82327,N,01056.96832,E,6.399,265.34,140422,,,A*61

$GPRMC,133131.40,A,4437.82325,N,01056.96803,E,6.595,261.66,140422,,,A*6F

$GPRMC,133131.50,A,4437.82323,N,01056.96782,E,6.085,260.13,140422,,,A*69

$GPRMC,133131.70,A,4437.82318,N,01056.96732,E,5.906,258.22,140422,,,A*60

$GPRMC,133131.80,A,4437.82313,N,01056.96714,E,5.611,254.09,140422,,,A*6C

$GPRMC,133131.90,A,4437.82310,N,01056.96692,E,5.320,252.58,140422,,,A*64

$GPRMC,133132.00,A,4437.82306,N,01056.96667,E,5.544,250.40,140422,,,A*6C

$GPGGA,133132.00,4437.82306,N,01056.96667,E,1,07,1.04,41.1,M,46.0,M,,*68

$GPRMC,133132.10,A,4437.82300,N,01056.96650,E,5.202,245.97,140422,,,A*64

$GPRMC,133132.30,A,4437.82288,N,01056.96615,E,4.690,241.72,140422,,,A*67

$GPRMC,133132.40,A,4437.82281,N,01056.96596,E,4.782,236.42,140422,,,A*60

$GPRMC,133132.50,A,4437.82277,N,01056.96580,E,4.452,236.23,140422,,,A*66

$GPRMC,133132.60,A,4437.82273,N,01056.96567,E,4.083,235.34,140422,,,A*65

$GPRMC,133132.70,A,4437.82268,N,01056.96552,E,3.807,233.50,140422,,,A*6F

$GPRMC,133132.80,A,4437.82264,N,01056.96533,E,3.790,231.57,140422,,,A*6F

$GPRMC,133132.90,A,4437.82257,N,01056.96522,E,3.679,226.42,140422,,,A*6A

$GPRMC,133133.00,A,4437.82250,N,01056.96511,E,3.649,224.00,140422,,,A*62

$GPRMC,133133.10,A,4437.82241,N,01056.96502,E,3.904,215.17,140422,,,A*63

$GPGGA,133133.10,4437.82241,N,01056.96502,E,1,07,1.04,40.8,M,46.0,M,,*62

$GPRMC,133133.20,A,4437.82234,N,01056.96493,E,3.583,211.95,140422,,,A*66

$GPRMC,133133.30,A,4437.82226,N,01056.96486,E,3.405,204.89,140422,,,A*66

$GPRMC,133133.40,A,4437.82220,N,01056.96476,E,3.247,205.59,140422,,,A*64

$GPRMC,133133.50,A,4437.82211,N,01056.96469,E,3.841,197.52,140422,,,A*66

$GPRMC,133133.60,A,4437.82200,N,01056.96465,E,3.997,188.64,140422,,,A*68

$GPRMC,133133.70,A,4437.82190,N,01056.96465,E,3.969,184.63,140422,,,A*69

$GPRMC,133133.80,A,4437.82182,N,01056.96466,E,3.803,182.74,140422,,,A*6B

$GPRMC,133133.90,A,4437.82173,N,01056.96465,E,3.818,183.23,140422,,,A*6E

$GPRMC,133134.00,A,4437.82165,N,01056.96462,E,3.732,182.92,140422,,,A*6C

$GPRMC,133134.10,A,4437.82156,N,01056.96457,E,4.021,185.16,140422,,,A*62

$GPGGA,133134.10,4437.82156,N,01056.96457,E,1,07,1.04,40.4,M,46.0,M,,*6D

$GPRMC,133134.20,A,4437.82143,N,01056.96451,E,4.531,187.48,140422,,,A*6E

$GPRMC,133134.30,A,4437.82148,N,01056.96468,E,2.832,179.77,140422,,,A*6B

$GPRMC,133134.40,A,4437.82153,N,01056.96472,E,1.885,167.83,140422,,,A*66

$GPRMC,133134.50,A,4437.82164,N,01056.96464,E,0.521,,140422,,,A*73

$GPRMC,133134.60,A,4437.82169,N,01056.96460,E,0.550,,140422,,,A*7F

$GPRMC,133134.70,A,4437.82172,N,01056.96449,E,1.423,184.48,140422,,,A*64

$GPRMC,133134.80,A,4437.82175,N,01056.96435,E,1.654,231.49,140422,,,A*69

$GPRMC,133134.90,A,4437.82178,N,01056.96428,E,1.486,244.41,140422,,,A*6E

$GPRMC,133135.00,A,4437.82177,N,01056.96414,E,2.267,250.21,140422,,,A*6F

$GPRMC,133135.10,A,4437.82173,N,01056.96407,E,2.367,245.01,140422,,,A*6F

$GPGGA,133135.10,4437.82173,N,01056.96407,E,1,07,1.04,42.6,M,46.0,M,,*6E

$GPRMC,133135.20,A,4437.82170,N,01056.96397,E,2.613,238.73,140422,,,A*68

$GPRMC,133135.30,A,4437.82169,N,01056.96385,E,2.877,241.83,140422,,,A*6F

$GPRMC,133135.40,A,4437.82163,N,01056.96379,E,3.081,235.43,140422,,,A*6E

$GPRMC,133135.50,A,4437.82176,N,01056.96376,E,1.895,243.28,140422,,,A*67

$GPRMC,133135.60,A,4437.82182,N,01056.96366,E,2.306,257.45,140422,,,A*62

$GPRMC,133135.70,A,4437.82177,N,01056.96357,E,2.866,249.49,140422,,,A*65

$GPRMC,133135.80,A,4437.82174,N,01056.96344,E,3.167,244.31,140422,,,A*60

$GPRMC,133135.90,A,4437.82171,N,01056.96329,E,3.568,240.52,140422,,,A*65

$GPRMC,133136.00,A,4437.82167,N,01056.96316,E,3.698,237.23,140422,,,A*6E

$GPRMC,133136.10,A,4437.82164,N,01056.96304,E,3.721,237.84,140422,,,A*61

$GPGGA,133136.10,4437.82164,N,01056.96304,E,1,07,1.04,45.1,M,46.0,M,,*6F

$GPRMC,133136.20,A,4437.82159,N,01056.96294,E,3.838,234.23,140422,,,A*6D

$GPRMC,133136.30,A,4437.82163,N,01056.96284,E,3.417,239.40,140422,,,A*6D

$GPRMC,133136.40,A,4437.82166,N,01056.96272,E,3.413,245.22,140422,,,A*6D

$GPRMC,133136.50,A,4437.82164,N,01056.96258,E,3.633,244.05,140422,,,A*62

$GPRMC,133136.60,A,4437.82173,N,01056.96245,E,3.118,251.14,140422,,,A*61

$GPRMC,133136.70,A,4437.82189,N,01056.96236,E,2.991,263.43,140422,,,A*6A

$GPRMC,133136.80,A,4437.82203,N,01056.96227,E,2.915,274.29,140422,,,A*62

$GPRMC,133136.90,A,4437.82220,N,01056.96217,E,3.045,285.85,140422,,,A*64

$GPRMC,133137.00,A,4437.82232,N,01056.96208,E,3.167,291.79,140422,,,A*66

$GPRMC,133137.10,A,4437.82247,N,01056.96198,E,3.140,296.53,140422,,,A*65

$GPGGA,133137.10,4437.82247,N,01056.96198,E,1,07,1.04,50.7,M,46.0,M,,*69

$GPRMC,133137.20,A,4437.82260,N,01056.96190,E,3.040,298.26,140422,,,A*66

$GPRMC,133137.30,A,4437.82272,N,01056.96179,E,3.172,297.87,140422,,,A*67

$GPRMC,133137.40,A,4437.82283,N,01056.96167,E,3.514,298.40,140422,,,A*61

$GPRMC,133137.50,A,4437.82287,N,01056.96154,E,3.313,293.21,140422,,,A*69

$GPRMC,133137.60,A,4437.82290,N,01056.96142,E,3.274,287.01,140422,,,A*6C

$GPRMC,133137.70,A,4437.82293,N,01056.96127,E,3.501,282.35,140422,,,A*6A

$GPRMC,133137.80,A,4437.82294,N,01056.96112,E,3.725,278.62,140422,,,A*67

$GPRMC,133137.90,A,4437.82292,N,01056.96101,E,3.248,274.08,140422,,,A*6C

$GPRMC,133138.00,A,4437.82293,N,01056.96086,E,3.336,271.82,140422,,,A*6A

$GPRMC,133138.10,A,4437.82295,N,01056.96068,E,3.563,273.08,140422,,,A*6B

$GPGGA,133138.10,4437.82295,N,01056.96068,E,1,07,1.04,55.7,M,46.0,M,,*62

$GPRMC,133138.20,A,4437.82293,N,01056.96054,E,3.522,268.47,140422,,,A*65

$GPRMC,133138.30,A,4437.82294,N,01056.96037,E,3.865,268.58,140422,,,A*66

$GPRMC,133138.40,A,4437.82291,N,01056.96028,E,3.590,265.15,140422,,,A*69

$GPRMC,133138.50,A,4437.82291,N,01056.96014,E,4.064,265.80,140422,,,A*62

$GPRMC,133138.60,A,4437.82290,N,01056.96004,E,3.741,264.60,140422,,,A*69

$GPRMC,133138.70,A,4437.82291,N,01056.95988,E,4.046,265.62,140422,,,A*63

$GPRMC,133138.80,A,4437.82288,N,01056.95975,E,3.970,264.17,140422,,,A*6E

$GPRMC,133138.90,A,4437.82285,N,01056.95958,E,4.307,263.24,140422,,,A*67

$GPRMC,133139.00,A,4437.82284,N,01056.95943,E,4.029,263.50,140422,,,A*68

$GPRMC,133139.10,A,4437.82282,N,01056.95928,E,4.421,260.72,140422,,,A*6D

$GPGGA,133139.10,4437.82282,N,01056.95928,E,1,07,1.04,59.8,M,46.0,M,,*68

$GPRMC,133139.20,A,4437.82283,N,01056.95910,E,4.535,262.66,140422,,,A*67

$GPRMC,133139.30,A,4437.82281,N,01056.95898,E,4.204,261.03,140422,,,A*60

$GPRMC,133139.40,A,4437.82282,N,01056.95879,E,4.665,262.20,140422,,,A*6A

$GPRMC,133139.50,A,4437.82283,N,01056.95865,E,4.429,261.93,140422,,,A*66

$GPRMC,133139.60,A,4437.82285,N,01056.95852,E,4.385,262.47,140422,,,A*6C

$GPRMC,133139.70,A,4437.82284,N,01056.95842,E,4.174,262.04,140422,,,A*66

$GPRMC,133139.80,A,4437.82284,N,01056.95826,E,4.690,263.60,140422,,,A*65

$GPRMC,133139.90,A,4437.82284,N,01056.95812,E,4.577,263.23,140422,,,A*6E

$GPRMC,133140.00,A,4437.82286,N,01056.95797,E,4.773,264.67,140422,,,A*68

$GPRMC,133140.10,A,4437.82286,N,01056.95782,E,4.364,263.67,140422,,,A*68

$GPGGA,133140.10,4437.82286,N,01056.95782,E,1,07,1.04,64.5,M,46.0,M,,*6F

$GPRMC,133140.20,A,4437.82284,N,01056.95767,E,4.760,261.70,140422,,,A*66

$GPRMC,133140.30,A,4437.82282,N,01056.95753,E,4.481,260.01,140422,,,A*6D

$GPRMC,133140.40,A,4437.82282,N,01056.95737,E,4.666,260.45,140422,,,A*63

$GPRMC,133140.50,A,4437.82284,N,01056.95720,E,4.718,260.24,140422,,,A*6D

$GPRMC,133140.60,A,4437.82283,N,01056.95703,E,4.571,259.94,140422,,,A*64

$GPRMC,133140.70,A,4437.82282,N,01056.95687,E,4.573,257.94,140422,,,A*65

$GPRMC,133140.90,A,4437.82280,N,01056.95657,E,4.105,256.99,140422,,,A*6D

$GPRMC,133141.00,A,4437.82285,N,01056.95645,E,4.025,256.20,140422,,,A*62

$GPRMC,133141.10,A,4437.82292,N,01056.95632,E,3.831,256.70,140422,,,A*6A

$GPRMC,133141.20,A,4437.82296,N,01056.95618,E,3.778,260.44,140422,,,A*65

$GPGGA,133141.20,4437.82296,N,01056.95618,E,1,07,1.04,70.2,M,46.0,M,,*6C

$GPRMC,133141.40,A,4437.82300,N,01056.95583,E,4.207,263.90,140422,,,A*6C

$GPRMC,133141.50,A,4437.82303,N,01056.95567,E,4.189,264.97,140422,,,A*61

$GPRMC,133141.60,A,4437.82305,N,01056.95544,E,4.936,265.58,140422,,,A*6B

$GPRMC,133141.70,A,4437.82298,N,01056.95525,E,4.711,263.44,140422,,,A*68

$GPRMC,133141.80,A,4437.82283,N,01056.95500,E,5.107,261.13,140422,,,A*6A

$GPRMC,133141.90,A,4437.82262,N,01056.95478,E,5.025,255.32,140422,,,A*6F

$GPRMC,133142.00,A,4437.82239,N,01056.95456,E,5.001,249.21,140422,,,A*6E

$GPRMC,133142.10,A,4437.82136,N,01056.95420,E,6.845,230.97,140422,,,A*6A

$GPRMC,133142.20,A,4437.82077,N,01056.95395,E,7.828,220.68,140422,,,A*6F

$GPRMC,133142.30,A,4437.82015,N,01056.95370,E,8.809,213.54,140422,,,A*62

$GPGGA,133142.30,4437.82015,N,01056.95370,E,1,07,1.04,69.5,M,46.0,M,,*63

$GPRMC,133142.50,A,4437.81937,N,01056.95323,E,9.274,212.15,140422,,,A*6D

$GPRMC,133142.60,A,4437.81900,N,01056.95298,E,8.690,212.30,140422,,,A*63

$GPRMC,133142.70,A,4437.81869,N,01056.95278,E,8.336,212.48,140422,,,A*64

$GPRMC,133142.80,A,4437.81839,N,01056.95254,E,8.393,213.35,140422,,,A*64

$GPRMC,133142.90,A,4437.81783,N,01056.95214,E,9.790,214.12,140422,,,A*6B

$GPRMC,133143.00,A,4437.81736,N,01056.95185,E,10.172,213.38,140422,,,A*5B

$GPRMC,133143.10,A,4437.81693,N,01056.95157,E,10.423,212.90,140422,,,A*59

$GPRMC,133143.20,A,4437.81654,N,01056.95130,E,10.330,213.15,140422,,,A*59

$GPRMC,133143.30,A,4437.81616,N,01056.95101,E,10.606,214.08,140422,,,A*57

$GPRMC,133143.40,A,4437.81576,N,01056.95072,E,10.460,213.61,140422,,,A*5A

$GPGGA,133143.40,4437.81576,N,01056.95072,E,1,07,1.04,65.6,M,46.0,M,,*68

$GPRMC,133143.50,A,4437.81540,N,01056.95043,E,10.697,214.18,140422,,,A*5F

$GPRMC,133143.60,A,4437.81506,N,01056.95017,E,10.758,214.38,140422,,,A*5F

$GPRMC,133143.70,A,4437.81470,N,01056.94987,E,10.930,214.55,140422,,,A*54

$GPRMC,133143.90,A,4437.81417,N,01056.94934,E,10.278,216.05,140422,,,A*53

$GPRMC,133144.00,A,4437.81389,N,01056.94906,E,10.554,217.57,140422,,,A*53

$GPRMC,133144.10,A,4437.81357,N,01056.94879,E,10.626,217.00,140422,,,A*5C

$GPRMC,133144.20,A,4437.81327,N,01056.94850,E,10.794,217.19,140422,,,A*53

$GPRMC,133144.30,A,4437.81298,N,01056.94819,E,10.802,217.73,140422,,,A*56

$GPRMC,133144.40,A,4437.81262,N,01056.94787,E,11.168,216.46,140422,,,A*5F

$GPRMC,133144.50,A,4437.81230,N,01056.94761,E,11.280,215.79,140422,,,A*5B

$GPGGA,133144.50,4437.81230,N,01056.94761,E,1,06,1.26,63.6,M,46.0,M,,*68

$GPRMC,133144.70,A,4437.81178,N,01056.94710,E,10.866,215.11,140422,,,A*5D

$GPRMC,133144.90,A,4437.81128,N,01056.94656,E,10.982,216.10,140422,,,A*5C

$GPRMC,133145.10,A,4437.81078,N,01056.94606,E,10.924,216.09,140422,,,A*50

$GPRMC,133145.30,A,4437.81028,N,01056.94553,E,11.186,216.37,140422,,,A*58

$GPRMC,133145.40,A,4437.81003,N,01056.94528,E,11.040,216.29,140422,,,A*5E

$GPRMC,133145.50,A,4437.80978,N,01056.94502,E,11.037,216.42,140422,,,A*5E

$GPRMC,133145.60,A,4437.80954,N,01056.94476,E,10.896,216.87,140422,,,A*5A

$GPRMC,133145.70,A,4437.80931,N,01056.94448,E,10.883,217.58,140422,,,A*52

$GPRMC,133145.80,A,4437.80907,N,01056.94423,E,10.849,217.77,140422,,,A*5E

$GPRMC,133145.90,A,4437.80881,N,01056.94394,E,11.115,218.28,140422,,,A*5F

$GPGGA,133145.90,4437.80881,N,01056.94394,E,1,06,1.26,63.6,M,46.0,M,,*6A

$GPRMC,133146.00,A,4437.80856,N,01056.94368,E,11.249,217.94,140422,,,A*5E

$GPRMC,133146.10,A,4437.80832,N,01056.94339,E,11.197,218.34,140422,,,A*5C

$GPRMC,133146.20,A,4437.80797,N,01056.94309,E,11.532,217.13,140422,,,A*5D

$GPRMC,133146.30,A,4437.80769,N,01056.94287,E,11.314,215.84,140422,,,A*54

$GPRMC,133146.40,A,4437.80743,N,01056.94263,E,11.400,215.25,140422,,,A*58

$GPRMC,133146.50,A,4437.80717,N,01056.94235,E,11.489,215.99,140422,,,A*5D

$GPRMC,133146.70,A,4437.80664,N,01056.94186,E,11.286,215.31,140422,,,A*5A

$GPRMC,133146.80,A,4437.80634,N,01056.94158,E,11.453,215.53,140422,,,A*59

$GPRMC,133147.00,A,4437.80576,N,01056.94106,E,11.499,215.55,140422,,,A*5E

$GPRMC,133147.10,A,4437.80545,N,01056.94081,E,11.625,215.03,140422,,,A*57

$GPGGA,133147.10,4437.80545,N,01056.94081,E,1,06,1.26,63.1,M,46.0,M,,*65

$GPRMC,133147.20,A,4437.80508,N,01056.94055,E,11.899,214.26,140422,,,A*5B

$GPRMC,133147.30,A,4437.80473,N,01056.94025,E,11.869,214.56,140422,,,A*58

$GPRMC,133147.40,A,4437.80444,N,01056.94000,E,11.897,214.46,140422,,,A*5C

$GPRMC,133147.50,A,4437.80415,N,01056.93972,E,11.826,215.02,140422,,,A*59

$GPRMC,133147.70,A,4437.80361,N,01056.93923,E,11.837,214.76,140422,,,A*59

$GPRMC,133147.80,A,4437.80355,N,01056.93897,E,11.524,218.94,140422,,,A*50

$GPRMC,133147.90,A,4437.80352,N,01056.93878,E,11.077,223.00,140422,,,A*51

$GPRMC,133148.10,A,4437.80305,N,01056.93824,E,11.135,222.31,140422,,,A*59

$GPRMC,133148.30,A,4437.80252,N,01056.93775,E,11.144,219.84,140422,,,A*53

$GPRMC,133148.40,A,4437.80226,N,01056.93740,E,11.322,220.41,140422,,,A*50

$GPGGA,133148.40,4437.80226,N,01056.93740,E,1,05,4.33,64.0,M,46.0,M,,*64

$GPRMC,133148.50,A,4437.80198,N,01056.93708,E,11.245,221.06,140422,,,A*59

$GPRMC,133148.60,A,4437.80167,N,01056.93686,E,11.242,219.57,140422,,,A*55

$GPRMC,133148.70,A,4437.80138,N,01056.93657,E,11.219,219.17,140422,,,A*58

$GPRMC,133148.80,A,4437.80109,N,01056.93625,E,11.485,219.48,140422,,,A*59

$GPRMC,133148.90,A,4437.80075,N,01056.93611,E,11.418,216.40,140422,,,A*56

$GPRMC,133149.00,A,4437.80047,N,01056.93575,E,11.470,217.55,140422,,,A*55

$GPRMC,133149.10,A,4437.80022,N,01056.93550,E,11.460,218.04,140422,,,A*5A

$GPRMC,133149.20,A,4437.80000,N,01056.93521,E,11.556,219.23,140422,,,A*5F

$GPRMC,133149.30,A,4437.79982,N,01056.93505,E,10.917,218.74,140422,,,A*56

$GPRMC,133149.40,A,4437.79969,N,01056.93472,E,10.767,222.29,140422,,,A*5D

$GPGGA,133149.40,4437.79969,N,01056.93472,E,1,05,4.33,64.5,M,46.0,M,,*64

$GPRMC,133149.50,A,4437.79955,N,01056.93456,E,10.861,222.76,140422,,,A*56

$GPRMC,133149.60,A,4437.79942,N,01056.93436,E,10.412,223.26,140422,,,A*59

$GPRMC,133149.70,A,4437.79931,N,01056.93405,E,10.252,225.55,140422,,,A*5C

$GPRMC,133149.80,A,4437.79926,N,01056.93387,E,9.713,227.54,140422,,,A*63

$GPRMC,133149.90,A,4437.79921,N,01056.93371,E,9.580,228.46,140422,,,A*68

$GPRMC,133150.00,A,4437.79906,N,01056.93350,E,9.742,228.23,140422,,,A*60

$GPRMC,133150.10,A,4437.79898,N,01056.93331,E,9.670,227.96,140422,,,A*61

$GPRMC,133150.20,A,4437.79891,N,01056.93313,E,9.400,228.07,140422,,,A*69

$GPRMC,133150.30,A,4437.79885,N,01056.93296,E,9.170,228.46,140422,,,A*66

$GPRMC,133150.40,A,4437.79881,N,01056.93275,E,8.933,230.14,140422,,,A*68

$GPGGA,133150.40,4437.79881,N,01056.93275,E,1,05,4.33,69.3,M,46.0,M,,*61

$GPRMC,133150.50,A,4437.79877,N,01056.93252,E,8.875,232.19,140422,,,A*69

$GPRMC,133150.60,A,4437.79882,N,01056.93252,E,8.349,231.65,140422,,,A*6C

$GPRMC,133150.80,A,4437.79876,N,01056.93225,E,7.716,231.30,140422,,,A*68

$GPRMC,133151.00,A,4437.79875,N,01056.93183,E,7.344,236.14,140422,,,A*6F

$GPRMC,133151.10,A,4437.79879,N,01056.93175,E,7.052,238.70,140422,,,A*63

$GPRMC,133151.20,A,4437.79885,N,01056.93167,E,6.828,239.83,140422,,,A*69

$GPRMC,133151.30,A,4437.79926,N,01056.93181,E,5.679,245.67,140422,,,A*60

$GPRMC,133151.40,A,4437.79944,N,01056.93166,E,6.003,253.10,140422,,,A*65

$GPRMC,133151.60,A,4437.79944,N,01056.93131,E,5.910,253.19,140422,,,A*64

$GPRMC,133151.70,A,4437.79939,N,01056.93108,E,6.300,251.52,140422,,,A*60

$GPGGA,133151.70,4437.79939,N,01056.93108,E,1,05,1.69,79.9,M,46.0,M,,*69

$GPRMC,133151.80,A,4437.79933,N,01056.93086,E,6.305,250.62,140422,,,A*65

$GPRMC,133151.90,A,4437.79926,N,01056.93063,E,6.474,249.52,140422,,,A*61

$GPRMC,133152.10,A,4437.79917,N,01056.93010,E,6.640,251.55,140422,,,A*67

$GPRMC,133152.30,A,4437.79912,N,01056.92971,E,6.019,252.88,140422,,,A*66

$GPRMC,133152.50,A,4437.79902,N,01056.92929,E,6.105,252.36,140422,,,A*65

$GPRMC,133152.70,A,4437.79901,N,01056.92868,E,6.712,255.57,140422,,,A*60

$GPRMC,133152.80,A,4437.79902,N,01056.92835,E,7.082,258.40,140422,,,A*60

$GPRMC,133152.90,A,4437.79899,N,01056.92817,E,6.681,259.15,140422,,,A*67

$GPRMC,133153.00,A,4437.79897,N,01056.92801,E,6.544,258.94,140422,,,A*64

$GPRMC,133153.10,A,4437.79902,N,01056.92781,E,6.254,260.71,140422,,,A*69

$GPGGA,133153.10,4437.79902,N,01056.92781,E,1,05,1.69,87.5,M,46.0,M,,*6E

$GPRMC,133153.20,A,4437.79901,N,01056.92761,E,6.275,260.54,140422,,,A*63

$GPRMC,133153.30,A,4437.79898,N,01056.92749,E,6.057,259.41,140422,,,A*65

$GPRMC,133153.40,A,4437.79897,N,01056.92731,E,5.826,259.08,140422,,,A*62

$GPRMC,133153.50,A,4437.79892,N,01056.92716,E,5.598,258.69,140422,,,A*6D

$GPRMC,133153.60,A,4437.79885,N,01056.92702,E,5.636,256.54,140422,,,A*6A

$GPRMC,133153.70,A,4437.79867,N,01056.92704,E,5.118,252.45,140422,,,A*6E

$GPRMC,133153.80,A,4437.79839,N,01056.92713,E,4.982,244.68,140422,,,A*6E

$GPRMC,133153.90,A,4437.79823,N,01056.92706,E,4.995,237.27,140422,,,A*69

$GPRMC,133154.00,A,4437.79802,N,01056.92707,E,4.895,230.06,140422,,,A*60

$GPRMC,133154.10,A,4437.79788,N,01056.92700,E,4.616,225.38,140422,,,A*67

$GPGGA,133154.10,4437.79788,N,01056.92700,E,1,06,1.51,92.7,M,46.0,M,,*62

$GPRMC,133154.30,A,4437.79752,N,01056.92717,E,4.498,217.64,140422,,,A*68

$GPRMC,133154.40,A,4437.79741,N,01056.92717,E,4.241,211.95,140422,,,A*67

$GPRMC,133154.50,A,4437.79725,N,01056.92727,E,3.854,205.86,140422,,,A*69

$GPRMC,133154.60,A,4437.79712,N,01056.92729,E,3.811,201.35,140422,,,A*6D

$GPRMC,133154.70,A,4437.79680,N,01056.92759,E,4.187,190.23,140422,,,A*6C

$GPRMC,133154.80,A,4437.79646,N,01056.92795,E,4.813,178.89,140422,,,A*6B

$GPRMC,133154.90,A,4437.79610,N,01056.92834,E,5.379,169.44,140422,,,A*6A

$GPRMC,133155.00,A,4437.79565,N,01056.92882,E,6.097,161.20,140422,,,A*64

$GPRMC,133155.10,A,4437.79517,N,01056.92936,E,6.910,153.58,140422,,,A*66

$GPRMC,133155.20,A,4437.79490,N,01056.92965,E,7.252,150.58,140422,,,A*62

$GPGGA,133155.20,4437.79490,N,01056.92965,E,1,06,1.69,97.1,M,46.0,M,,*6F

$GPRMC,133155.30,A,4437.79463,N,01056.92989,E,7.404,148.42,140422,,,A*6A

$GPRMC,133155.40,A,4437.79447,N,01056.92943,E,6.264,149.23,140422,,,A*6A

$GPRMC,133155.50,A,4437.79443,N,01056.92895,E,5.058,151.77,140422,,,A*63

$GPRMC,133155.60,A,4437.79423,N,01056.92913,E,5.318,153.46,140422,,,A*6E

$GPRMC,133155.70,A,4437.79393,N,01056.92931,E,5.242,151.43,140422,,,A*6A

$GPRMC,133155.80,A,4437.79357,N,01056.92949,E,5.682,150.80,140422,,,A*64

$GPRMC,133156.00,A,4437.79323,N,01056.92949,E,4.620,148.42,140422,,,A*62

$GPRMC,133156.20,A,4437.79285,N,01056.92932,E,3.641,149.23,140422,,,A*67

$GPRMC,133156.40,A,4437.79203,N,01056.92920,E,6.104,156.84,140422,,,A*6C

$GPRMC,133156.60,A,4437.79151,N,01056.92899,E,5.605,161.94,140422,,,A*69

$GPGGA,133156.60,4437.79151,N,01056.92899,E,1,07,1.04,98.3,M,46.0,M,,*65

$GPRMC,133156.80,A,4437.79096,N,01056.92882,E,5.414,168.66,140422,,,A*61

$GPRMC,133156.90,A,4437.79064,N,01056.92837,E,4.951,178.60,140422,,,A*69

$GPRMC,133157.10,A,4437.79015,N,01056.92802,E,4.971,187.20,140422,,,A*66

$GPRMC,133157.30,A,4437.78980,N,01056.92766,E,4.826,193.74,140422,,,A*6A

$GPRMC,133157.50,A,4437.78940,N,01056.92765,E,4.396,190.86,140422,,,A*6D

$GPRMC,133157.70,A,4437.78909,N,01056.92766,E,3.486,186.36,140422,,,A*6C

$GPRMC,133157.90,A,4437.78877,N,01056.92759,E,3.113,182.91,140422,,,A*66

$GPRMC,133158.00,A,4437.78853,N,01056.92756,E,2.934,177.88,140422,,,A*67

$GPRMC,133158.10,A,4437.78821,N,01056.92764,E,3.169,169.93,140422,,,A*66

$GPRMC,133158.20,A,4437.78797,N,01056.92777,E,3.362,162.14,140422,,,A*68

$GPGGA,133158.20,4437.78797,N,01056.92777,E,1,06,1.51,98.9,M,46.0,M,,*66

$GPRMC,133158.30,A,4437.78766,N,01056.92793,E,3.820,155.54,140422,,,A*60

$GPRMC,133158.50,A,4437.78735,N,01056.92812,E,3.507,144.43,140422,,,A*68

$GPRMC,133158.60,A,4437.78711,N,01056.92813,E,3.368,136.94,140422,,,A*6C

$GPRMC,133158.70,A,4437.78694,N,01056.92803,E,2.608,132.86,140422,,,A*65

$GPRMC,133158.80,A,4437.78672,N,01056.92807,E,2.410,124.90,140422,,,A*6D

$GPRMC,133158.90,A,4437.78654,N,01056.92786,E,1.907,120.03,140422,,,A*68

$GPRMC,133159.00,A,4437.78639,N,01056.92783,E,1.696,112.53,140422,,,A*6D

$GPRMC,133159.10,A,4437.78613,N,01056.92758,E,1.642,111.35,140422,,,A*68

$GPRMC,133159.20,A,4437.78591,N,01056.92735,E,1.519,105.72,140422,,,A*62

$GPRMC,133159.30,A,4437.78572,N,01056.92608,E,1.128,134.37,140422,,,A*64

$GPGGA,133159.30,4437.78572,N,01056.92608,E,1,06,1.50,95.1,M,46.0,M,,*62

$GPRMC,133159.50,A,4437.78546,N,01056.92575,E,0.979,,140422,,,A*7D

$GPRMC,133159.60,A,4437.78529,N,01056.92555,E,0.566,,140422,,,A*77

$GPRMC,133159.70,A,4437.78504,N,01056.92539,E,0.859,,140422,,,A*72

$GPRMC,133159.80,A,4437.78478,N,01056.92526,E,1.461,147.38,140422,,,A*68

$GPRMC,133159.90,A,4437.78455,N,01056.92527,E,1.961,141.80,140422,,,A*6F

$GPRMC,133200.00,A,4437.78438,N,01056.92532,E,2.181,140.27,140422,,,A*6F

$GPRMC,133200.10,A,4437.78428,N,01056.92538,E,2.143,136.24,140422,,,A*69

$GPRMC,133200.30,A,4437.78416,N,01056.92531,E,1.261,131.87,140422,,,A*61

$GPRMC,133200.50,A,4437.78396,N,01056.92524,E,1.431,138.35,140422,,,A*6F

$GPRMC,133200.60,A,4437.78375,N,01056.92523,E,1.697,139.01,140422,,,A*6E

$GPGGA,133200.60,4437.78375,N,01056.92523,E,1,06,1.50,91.8,M,46.0,M,,*6E

$GPRMC,133200.70,A,4437.78357,N,01056.92529,E,1.746,136.96,140422,,,A*69

$GPRMC,133200.90,A,4437.78331,N,01056.92544,E,1.657,136.13,140422,,,A*60

$GPRMC,133201.00,A,4437.78297,N,01056.92567,E,2.537,138.96,140422,,,A*61

$GPRMC,133201.10,A,4437.78292,N,01056.92558,E,0.577,,140422,,,A*74

$GPRMC,133201.20,A,4437.78289,N,01056.92552,E,0.313,,140422,,,A*73

$GPRMC,133201.30,A,4437.78279,N,01056.92554,E,0.523,,140422,,,A*7E

$GPRMC,133201.40,A,4437.78272,N,01056.92547,E,1.077,186.91,140422,,,A*6C

$GPRMC,133201.50,A,4437.78258,N,01056.92530,E,1.897,236.23,140422,,,A*62

$GPRMC,133201.60,A,4437.78248,N,01056.92515,E,2.423,248.45,140422,,,A*6E

$GPTXT,01,01,01,NMEA unknown msg*58

$GPRMC,133201.70,A,4437.78234,N,01056.92498,E,2.820,249.12,140422,,,A*6C

$GPGGA,133201.70,4437.78234,N,01056.92498,E,1,06,1.50,92.0,M,46.0,M,,*60

$GPRMC,133201.80,A,4437.78221,N,01056.92481,E,2.977,248.75,140422,,,A*6C

$GPRMC,133201.90,A,4437.78212,N,01056.92453,E,3.167,250.47,140422,,,A*62

$GPRMC,133202.00,A,4437.78202,N,01056.92430,E,3.229,250.81,140422,,,A*6F

$GPRMC,133202.10,A,4437.78191,N,01056.92407,E,3.390,247.79,140422,,,A*61

$GPRMC,133202.20,A,4437.78182,N,01056.92386,E,3.347,245.27,140422,,,A*6D

$GPRMC,133202.30,A,4437.78170,N,01056.92369,E,3.209,240.99,140422,,,A*6B

$GPRMC,133202.40,A,4437.78158,N,01056.92352,E,3.368,235.54,140422,,,A*6B

$GPRMC,133202.50,A,4437.78151,N,01056.92330,E,3.193,233.90,140422,,,A*6F

$GPRMC,133202.60,A,4437.78148,N,01056.92288,E,3.489,238.45,140422,,,A*6B

$GPRMC,133202.70,A,4437.78141,N,01056.92264,E,3.829,239.99,140422,,,A*67

$GPGGA,133202.70,4437.78141,N,01056.92264,E,1,07,1.04,91.5,M,46.0,M,,*61

$GPRMC,133202.80,A,4437.78134,N,01056.92244,E,3.575,240.38,140422,,,A*69

$GPRMC,133202.90,A,4437.78130,N,01056.92219,E,3.799,243.87,140422,,,A*63

$GPRMC,133203.00,A,4437.78125,N,01056.92206,E,3.909,246.89,140422,,,A*6D

$GPRMC,133203.10,A,4437.78120,N,01056.92184,E,3.927,248.19,140422,,,A*6B

$GPRMC,133203.20,A,4437.78115,N,01056.92159,E,3.841,249.84,140422,,,A*6A

$GPRMC,133203.30,A,4437.78110,N,01056.92135,E,3.816,251.04,140422,,,A*67

$GPRMC,133203.40,A,4437.78108,N,01056.92117,E,3.865,254.81,140422,,,A*65

$GPRMC,133203.50,A,4437.78105,N,01056.92100,E,3.872,257.45,140422,,,A*62

$GPRMC,133203.60,A,4437.78100,N,01056.92088,E,3.994,257.22,140422,,,A*6D

$GPRMC,133203.70,A,4437.78101,N,01056.92079,E,4.071,261.50,140422,,,A*66

$GPGGA,133203.70,4437.78101,N,01056.92079,E,1,07,1.04,93.5,M,46.0,M,,*68

$GPRMC,133203.80,A,4437.78102,N,01056.92063,E,4.324,267.60,140422,,,A*67

$GPRMC,133203.90,A,4437.78097,N,01056.92039,E,4.527,267.41,140422,,,A*62

$GPRMC,133204.00,A,4437.78091,N,01056.92022,E,4.204,265.00,140422,,,A*61

$GPRMC,133204.10,A,4437.78085,N,01056.92002,E,4.209,262.93,140422,,,A*67

$GPRMC,133204.20,A,4437.78077,N,01056.91984,E,4.205,260.83,140422,,,A*62

$GPRMC,133204.30,A,4437.78070,N,01056.91967,E,4.118,258.95,140422,,,A*6A

$GPRMC,133204.40,A,4437.78062,N,01056.91951,E,4.065,257.24,140422,,,A*65

$GPRMC,133204.50,A,4437.78053,N,01056.91937,E,3.908,254.59,140422,,,A*6A

$GPRMC,133204.60,A,4437.78041,N,01056.91927,E,3.790,249.92,140422,,,A*6F

$GPRMC,133204.70,A,4437.78030,N,01056.91922,E,3.398,245.49,140422,,,A*6B

$GPGGA,133204.70,4437.78030,N,01056.91922,E,1,06,1.50,95.1,M,46.0,M,,*6A

$GPRMC,133204.80,A,4437.78020,N,01056.91898,E,4.061,243.75,140422,,,A*6E

$GPRMC,133204.90,A,4437.78011,N,01056.91879,E,4.123,245.03,140422,,,A*62

$GPRMC,133205.00,A,4437.78003,N,01056.91867,E,3.844,244.82,140422,,,A*61

$GPRMC,133205.10,A,4437.78000,N,01056.91836,E,3.757,250.07,140422,,,A*62

$GPRMC,133205.20,A,4437.77996,N,01056.91812,E,4.022,253.96,140422,,,A*67

$GPRMC,133205.30,A,4437.77996,N,01056.91793,E,3.764,260.56,140422,,,A*6E

$GPRMC,133205.40,A,4437.77992,N,01056.91772,E,3.983,263.98,140422,,,A*64

$GPRMC,133205.50,A,4437.77988,N,01056.91743,E,4.475,264.70,140422,,,A*6E

$GPRMC,133205.60,A,4437.77986,N,01056.91707,E,4.994,264.72,140422,,,A*63

$GPRMC,133205.70,A,4437.77987,N,01056.91678,E,5.149,266.62,140422,,,A*60

$GPGGA,133205.70,4437.77987,N,01056.91678,E,1,05,2.46,96.3,M,46.0,M,,*67

$GPRMC,133205.80,A,4437.77986,N,01056.91650,E,5.463,268.35,140422,,,A*65

$GPRMC,133205.90,A,4437.77985,N,01056.91618,E,5.777,269.20,140422,,,A*68

$GPRMC,133206.00,A,4437.77984,N,01056.91591,E,5.704,270.01,140422,,,A*6E

$GPRMC,133206.10,A,4437.77982,N,01056.91570,E,5.566,270.57,140422,,,A*63

$GPRMC,133206.20,A,4437.77979,N,01056.91542,E,5.852,270.30,140422,,,A*6E

$GPRMC,133206.30,A,4437.77977,N,01056.91515,E,5.817,270.03,140422,,,A*62

$GPRMC,133206.40,A,4437.77971,N,01056.91496,E,5.643,269.15,140422,,,A*69

$GPRMC,133206.50,A,4437.77948,N,01056.91503,E,5.402,262.52,140422,,,A*60

$GPRMC,133206.60,A,4437.77933,N,01056.91494,E,5.377,256.51,140422,,,A*61

$GPRMC,133206.70,A,4437.77920,N,01056.91489,E,4.884,252.36,140422,,,A*6D

$GPGGA,133206.70,4437.77920,N,01056.91489,E,1,05,4.32,98.6,M,46.0,M,,*6B

$GPRMC,133206.80,A,4437.77913,N,01056.91459,E,5.643,249.97,140422,,,A*6A

$GPRMC,133206.90,A,4437.77906,N,01056.91441,E,5.496,249.88,140422,,,A*62

$GPRMC,133207.00,A,4437.77900,N,01056.91433,E,4.926,250.71,140422,,,A*60

$GPRMC,133207.10,A,4437.77894,N,01056.91418,E,4.876,251.88,140422,,,A*67

$GPRMC,133207.20,A,4437.77887,N,01056.91403,E,4.635,252.33,140422,,,A*66

$GPRMC,133207.30,A,4437.77876,N,01056.91390,E,4.728,250.92,140422,,,A*60

$GPRMC,133207.40,A,4437.77869,N,01056.91372,E,4.680,250.79,140422,,,A*63

$GPRMC,133207.50,A,4437.77868,N,01056.91356,E,3.918,252.58,140422,,,A*6D

$GPRMC,133207.70,A,4437.77862,N,01056.91330,E,3.727,254.57,140422,,,A*6E

$GPRMC,133207.80,A,4437.77859,N,01056.91321,E,3.360,257.58,140422,,,A*62

$GPGGA,133207.80,4437.77859,N,01056.91321,E,1,06,1.50,101.5,M,46.0,M,,*5F

$GPRMC,133207.90,A,4437.77854,N,01056.91305,E,3.546,258.86,140422,,,A*66

$GPRMC,133208.00,A,4437.77847,N,01056.91284,E,3.752,258.40,140422,,,A*67

$GPRMC,133208.10,A,4437.77840,N,01056.91259,E,4.031,257.41,140422,,,A*6A

$GPRMC,133208.20,A,4437.77836,N,01056.91228,E,4.657,257.33,140422,,,A*6D

$GPRMC,133208.30,A,4437.77818,N,01056.91225,E,4.827,252.89,140422,,,A*60

$GPRMC,133208.40,A,4437.77811,N,01056.91209,E,4.765,251.17,140422,,,A*6D

$GPRMC,133208.60,A,4437.77797,N,01056.91178,E,4.994,249.56,140422,,,A*67

$GPRMC,133208.80,A,4437.77779,N,01056.91151,E,5.061,246.81,140422,,,A*65

$GPRMC,133209.00,A,4437.77768,N,01056.91124,E,4.672,246.51,140422,,,A*66

$GPRMC,133209.20,A,4437.77755,N,01056.91071,E,5.479,245.58,140422,,,A*69

$GPGGA,133209.20,4437.77755,N,01056.91071,E,1,07,1.50,106.3,M,46.0,M,,*5E

$GPRMC,133209.30,A,4437.77755,N,01056.91041,E,5.438,248.34,140422,,,A*69

$GPRMC,133209.40,A,4437.77751,N,01056.91024,E,4.967,250.63,140422,,,A*64

$GPRMC,133209.60,A,4437.77730,N,01056.90994,E,4.446,249.03,140422,,,A*62

$GPRMC,133209.80,A,4437.77716,N,01056.90986,E,3.729,247.60,140422,,,A*6D

$GPRMC,133210.00,A,4437.77675,N,01056.91028,E,3.627,232.59,140422,,,A*62

$GPRMC,133210.10,A,4437.77642,N,01056.91199,E,3.654,160.56,140422,,,A*63

$GPRMC,133210.20,A,4437.77600,N,01056.91308,E,5.717,139.55,140422,,,A*63

$GPRMC,133210.30,A,4437.77549,N,01056.91399,E,7.879,133.69,140422,,,A*64

$GPRMC,133210.40,A,4437.77501,N,01056.91464,E,9.416,132.86,140422,,,A*61

$GPRMC,133210.50,A,4437.77468,N,01056.91509,E,10.103,133.96,140422,,,A*5D

$GPGGA,133210.50,4437.77468,N,01056.91509,E,1,07,1.50,113.8,M,46.0,M,,*59

$GPRMC,133210.70,A,4437.77424,N,01056.91560,E,10.212,135.49,140422,,,A*5F

$GPRMC,133210.80,A,4437.77393,N,01056.91588,E,10.574,137.62,140422,,,A*51

$GPRMC,133210.90,A,4437.77360,N,01056.91620,E,10.984,139.05,140422,,,A*51

$GPRMC,133211.00,A,4437.77333,N,01056.91643,E,10.972,138.49,140422,,,A*5A

$GPRMC,133211.10,A,4437.77298,N,01056.91672,E,11.385,139.42,140422,,,A*50

$GPRMC,133211.20,A,4437.77270,N,01056.91682,E,11.273,140.20,140422,,,A*58

$GPRMC,133211.30,A,4437.77251,N,01056.91697,E,10.874,140.67,140422,,,A*51

$GPRMC,133211.40,A,4437.77232,N,01056.91694,E,10.421,141.68,140422,,,A*52

$GPRMC,133211.50,A,4437.77207,N,01056.91705,E,10.242,141.26,140422,,,A*55

$GPRMC,133211.60,A,4437.77182,N,01056.91709,E,10.209,143.12,140422,,,A*5E

$GPGGA,133211.60,4437.77182,N,01056.91709,E,1,07,1.50,117.9,M,46.0,M,,*5D

$GPRMC,133211.70,A,4437.77164,N,01056.91719,E,9.801,142.91,140422,,,A*66

$GPRMC,133211.80,A,4437.77149,N,01056.91716,E,9.264,143.46,140422,,,A*6B

$GPRMC,133211.90,A,4437.77123,N,01056.91719,E,8.853,144.87,140422,,,A*6C

$GPRMC,133212.00,A,4437.77074,N,01056.91764,E,9.278,143.92,140422,,,A*6E

$GPRMC,133212.10,A,4437.77039,N,01056.91765,E,8.844,143.88,140422,,,A*68

$GPRMC,133212.20,A,4437.76987,N,01056.91821,E,9.430,141.72,140422,,,A*60

$GPRMC,133212.30,A,4437.76923,N,01056.91887,E,10.274,140.43,140422,,,A*5E

$GPRMC,133212.40,A,4437.76870,N,01056.91937,E,10.791,139.59,140422,,,A*5F

$GPRMC,133212.50,A,4437.76813,N,01056.91991,E,11.353,138.38,140422,,,A*5A

$GPRMC,133212.60,A,4437.76726,N,01056.92008,E,12.123,140.16,140422,,,A*5F

$GPGGA,133212.60,4437.76726,N,01056.92008,E,1,07,1.50,118.7,M,46.0,M,,*53

$GPRMC,133212.80,A,4437.76597,N,01056.92109,E,13.002,143.37,140422,,,A*5A

$GPRMC,133212.90,A,4437.76522,N,01056.92172,E,11.258,139.71,140422,,,A*59

$GPRMC,133213.00,A,4437.76454,N,01056.92223,E,10.080,136.25,140422,,,A*5E

$GPRMC,133213.10,A,4437.76381,N,01056.92275,E,10.063,135.03,140422,,,A*59

$GPRMC,133213.20,A,4437.76317,N,01056.92323,E,10.014,134.99,140422,,,A*55

$GPRMC,133213.30,A,4437.76260,N,01056.92355,E,9.917,136.74,140422,,,A*67

$GPRMC,133213.40,A,4437.76193,N,01056.92401,E,10.130,139.17,140422,,,A*56

$GPRMC,133213.50,A,4437.76111,N,01056.92472,E,11.468,142.92,140422,,,A*51

$GPRMC,133213.60,A,4437.76048,N,01056.92507,E,11.187,145.10,140422,,,A*55

$GPRMC,133213.70,A,4437.75989,N,01056.92534,E,11.263,147.76,140422,,,A*58

$GPGGA,133213.70,4437.75989,N,01056.92534,E,1,06,1.50,116.6,M,46.0,M,,*5F

$GPRMC,133213.90,A,4437.75895,N,01056.92603,E,11.046,148.98,140422,,,A*57

$GPRMC,133214.00,A,4437.75840,N,01056.92642,E,10.936,149.49,140422,,,A*56

$GPRMC,133214.20,A,4437.75784,N,01056.92625,E,9.647,151.91,140422,,,A*6F

$GPRMC,133214.30,A,4437.75758,N,01056.92583,E,8.363,156.30,140422,,,A*6E

$GPRMC,133214.40,A,4437.75724,N,01056.92555,E,7.321,161.82,140422,,,A*6D

$GPRMC,133214.50,A,4437.75687,N,01056.92521,E,6.573,167.67,140422,,,A*6A

$GPRMC,133214.60,A,4437.75663,N,01056.92448,E,6.228,178.35,140422,,,A*6D

$GPRMC,133214.70,A,4437.75627,N,01056.92440,E,6.222,185.66,140422,,,A*6A

$GPRMC,133214.80,A,4437.75582,N,01056.92447,E,6.548,187.82,140422,,,A*6D

$GPRMC,133214.90,A,4437.75533,N,01056.92475,E,6.703,186.09,140422,,,A*68

$GPGGA,133214.90,4437.75533,N,01056.92475,E,1,06,1.50,115.8,M,46.0,M,,*52

$GPRMC,133215.00,A,4437.75491,N,01056.92494,E,7.043,183.43,140422,,,A*6F

$GPRMC,133215.10,A,4437.75447,N,01056.92509,E,7.186,182.07,140422,,,A*69

$GPRMC,133215.20,A,4437.75403,N,01056.92522,E,7.375,180.13,140422,,,A*6A

$GPRMC,133215.30,A,4437.75359,N,01056.92527,E,7.751,178.62,140422,,,A*65

$GPRMC,133215.40,A,4437.75292,N,01056.92570,E,9.321,172.85,140422,,,A*68

$GPRMC,133215.50,A,4437.75239,N,01056.92603,E,9.610,169.26,140422,,,A*6B

$GPRMC,133215.60,A,4437.75190,N,01056.92515,E,9.612,172.01,140422,,,A*61

$GPRMC,133215.80,A,4437.75115,N,01056.92405,E,9.097,176.24,140422,,,A*6A

$GPRMC,133215.90,A,4437.75061,N,01056.92349,E,9.294,180.52,140422,,,A*6F

$GPRMC,133216.00,A,4437.75007,N,01056.92340,E,9.585,180.69,140422,,,A*63

$GPGGA,133216.00,4437.75007,N,01056.92340,E,1,06,1.50,111.3,M,46.0,M,,*55

$GPRMC,133216.10,A,4437.74962,N,01056.92324,E,9.538,181.91,140422,,,A*6B

$GPRMC,133216.20,A,4437.74924,N,01056.92282,E,9.729,184.12,140422,,,A*6B

$GPRMC,133216.30,A,4437.74877,N,01056.92217,E,10.365,187.08,140422,,,A*5D

$GPRMC,133216.40,A,4437.74826,N,01056.92168,E,10.192,188.78,140422,,,A*57

$GPRMC,133216.50,A,4437.74781,N,01056.92127,E,10.067,190.40,140422,,,A*56

$GPRMC,133216.60,A,4437.74734,N,01056.92109,E,9.777,191.79,140422,,,A*62

$GPRMC,133216.70,A,4437.74700,N,01056.92084,E,9.145,192.82,140422,,,A*60

$GPRMC,133216.80,A,4437.74672,N,01056.92007,E,8.013,195.61,140422,,,A*69

$GPRMC,133216.90,A,4437.74641,N,01056.91991,E,8.046,198.52,140422,,,A*60

$GPRMC,133217.00,A,4437.74608,N,01056.91977,E,8.468,200.70,140422,,,A*67

$GPGGA,133217.00,4437.74608,N,01056.91977,E,1,05,4.31,107.4,M,46.0,M,,*50

$GPRMC,133217.10,A,4437.74573,N,01056.91954,E,9.216,203.93,140422,,,A*68

$GPRMC,133217.20,A,4437.74548,N,01056.91918,E,9.160,206.19,140422,,,A*6E

$GPRMC,133217.30,A,4437.74523,N,01056.91855,E,9.633,210.76,140422,,,A*65

$GPRMC,133217.40,A,4437.74491,N,01056.91846,E,9.175,210.44,140422,,,A*6C

$GPRMC,133217.50,A,4437.74469,N,01056.91795,E,9.075,212.91,140422,,,A*60

$GPRMC,133217.60,A,4437.74439,N,01056.91764,E,9.098,214.76,140422,,,A*64

$GPRMC,133217.70,A,4437.74415,N,01056.91731,E,9.432,216.76,140422,,,A*6D

$GPRMC,133217.80,A,4437.74390,N,01056.91708,E,9.387,217.93,140422,,,A*61

$GPRMC,133217.90,A,4437.74364,N,01056.91678,E,9.671,218.52,140422,,,A*63

$GPRMC,133218.00,A,4437.74339,N,01056.91649,E,9.673,218.48,140422,,,A*66

$GPGGA,133218.00,4437.74339,N,01056.91649,E,1,05,4.31,106.7,M,46.0,M,,*58

$GPRMC,133218.20,A,4437.74288,N,01056.91610,E,9.488,217.21,140422,,,A*65

$GPRMC,133218.40,A,4437.74243,N,01056.91581,E,8.444,215.68,140422,,,A*61

$GPRMC,133218.50,A,4437.74205,N,01056.91599,E,8.358,209.64,140422,,,A*60

$GPRMC,133218.60,A,4437.74174,N,01056.91577,E,8.320,205.97,140422,,,A*69

$GPRMC,133218.80,A,4437.74136,N,01056.91469,E,8.834,206.84,140422,,,A*60

$GPRMC,133219.00,A,4437.74093,N,01056.91339,E,9.899,210.15,140422,,,A*6C

$GPRMC,133219.10,A,4437.74070,N,01056.91221,E,10.711,213.66,140422,,,A*58

$GPRMC,133219.20,A,4437.74047,N,01056.91118,E,10.919,214.03,140422,,,A*54

$GPRMC,133219.40,A,4437.74007,N,01056.90951,E,10.882,214.52,140422,,,A*55

$GPRMC,133219.50,A,4437.73993,N,01056.90795,E,10.903,214.34,140422,,,A*59

$GPGGA,133219.50,4437.73993,N,01056.90795,E,1,06,1.27,103.9,M,46.0,M,,*5A

$GPRMC,133219.60,A,4437.73975,N,01056.90630,E,11.116,212.25,140422,,,A*57

$GPRMC,133219.70,A,4437.73965,N,01056.90449,E,11.259,212.16,140422,,,A*53

$GPRMC,133219.90,A,4437.73946,N,01056.90192,E,11.281,211.83,140422,,,A*55

$GPRMC,133220.00,A,4437.73963,N,01056.89948,E,11.089,212.21,140422,,,A*57

$GPRMC,133220.10,A,4437.73974,N,01056.89712,E,11.083,211.25,140422,,,A*5C

$GPRMC,133220.20,A,4437.73987,N,01056.89485,E,10.756,211.16,140422,,,A*50

$GPRMC,133220.30,A,4437.74001,N,01056.89265,E,10.275,211.58,140422,,,A*57

$GPRMC,133220.40,A,4437.73999,N,01056.89064,E,10.522,211.11,140422,,,A*54

$GPRMC,133220.50,A,4437.74004,N,01056.88872,E,10.175,211.36,140422,,,A*52

$GPRMC,133220.60,A,4437.73998,N,01056.88704,E,9.753,210.01,140422,,,A*6B

$GPGGA,133220.60,4437.73998,N,01056.88704,E,1,07,1.04,93.7,M,46.0,M,,*6F

$GPRMC,133220.80,A,4437.73963,N,01056.88538,E,9.147,208.44,140422,,,A*67

$GPRMC,133221.00,A,4437.73917,N,01056.88385,E,9.571,204.65,140422,,,A*63

$GPRMC,133221.20,A,4437.73866,N,01056.88253,E,9.153,200.03,140422,,,A*6C

$GPRMC,133221.40,A,4437.73804,N,01056.88126,E,9.466,194.22,140422,,,A*61

$GPRMC,133221.60,A,4437.73754,N,01056.88033,E,9.103,191.39,140422,,,A*65

$GPRMC,133221.70,A,4437.73730,N,01056.87951,E,8.468,190.19,140422,,,A*6E

$GPRMC,133221.90,A,4437.73689,N,01056.87878,E,7.865,189.53,140422,,,A*61

$GPRMC,133222.10,A,4437.73656,N,01056.87816,E,6.983,188.14,140422,,,A*6A

$GPRMC,133222.30,A,4437.73614,N,01056.87772,E,7.380,181.35,140422,,,A*61

$GPRMC,133222.40,A,4437.73596,N,01056.87737,E,7.300,175.20,140422,,,A*69

$GPGGA,133222.40,4437.73596,N,01056.87737,E,1,06,1.27,86.7,M,46.0,M,,*66

$GPRMC,133222.50,A,4437.73571,N,01056.87721,E,7.765,171.08,140422,,,A*6F

$GPRMC,133222.60,A,4437.73559,N,01056.87683,E,7.406,167.72,140422,,,A*63

$GPRMC,133222.80,A,4437.73537,N,01056.87661,E,6.635,162.54,140422,,,A*6B

$GPRMC,133223.00,A,4437.73505,N,01056.87642,E,6.891,161.06,140422,,,A*66

$GPRMC,133223.10,A,4437.73491,N,01056.87605,E,6.902,166.76,140422,,,A*63

$GPRMC,133223.20,A,4437.73482,N,01056.87574,E,6.478,168.30,140422,,,A*6B

$GPRMC,133223.30,A,4437.73472,N,01056.87539,E,5.618,170.40,140422,,,A*65

$GPRMC,133223.40,A,4437.73455,N,01056.87508,E,5.609,171.79,140422,,,A*6E

$GPRMC,133223.50,A,4437.73432,N,01056.87471,E,5.285,174.41,140422,,,A*6F

$GPRMC,133223.60,A,4437.73405,N,01056.87433,E,4.910,175.88,140422,,,A*6C

$GPGGA,133223.60,4437.73405,N,01056.87433,E,1,07,1.04,84.8,M,46.0,M,,*64

$GPRMC,133223.80,A,4437.73352,N,01056.87390,E,5.018,176.78,140422,,,A*65

$GPRMC,133224.00,A,4437.73294,N,01056.87349,E,4.844,175.51,140422,,,A*6D

$GPRMC,133224.20,A,4437.73251,N,01056.87329,E,4.256,170.27,140422,,,A*6D

$GPRMC,133224.40,A,4437.73232,N,01056.87333,E,3.828,159.97,140422,,,A*61

$GPRMC,133224.60,A,4437.73218,N,01056.87339,E,3.351,140.47,140422,,,A*61

$GPRMC,133224.80,A,4437.73203,N,01056.87344,E,3.646,114.88,140422,,,A*6E

$GPRMC,133225.00,A,4437.73196,N,01056.87378,E,5.857,88.98,140422,,,A*5A

$GPRMC,133225.20,A,4437.73165,N,01056.87383,E,5.247,88.56,140422,,,A*59

$GPRMC,133225.40,A,4437.73067,N,01056.87360,E,6.465,124.53,140422,,,A*66

$GPRMC,133225.60,A,4437.72999,N,01056.87377,E,7.813,135.54,140422,,,A*60

$GPGGA,133225.60,4437.72999,N,01056.87377,E,1,07,1.04,79.3,M,46.0,M,,*65

$GPRMC,133225.80,A,4437.72920,N,01056.87379,E,8.047,136.84,140422,,,A*6A

$GPRMC,133226.00,A,4437.72842,N,01056.87385,E,8.392,138.02,140422,,,A*6C

$GPRMC,133226.20,A,4437.72764,N,01056.87411,E,9.589,132.14,140422,,,A*6F

$GPRMC,133226.40,A,4437.72686,N,01056.87431,E,9.789,131.24,140422,,,A*64

$GPRMC,133226.50,A,4437.72630,N,01056.87425,E,9.638,130.39,140422,,,A*6B

$GPRMC,133226.60,A,4437.72572,N,01056.87423,E,10.071,130.46,140422,,,A*50

$GPRMC,133226.70,A,4437.72516,N,01056.87419,E,9.672,130.09,140422,,,A*6C

$GPRMC,133226.80,A,4437.72462,N,01056.87419,E,9.798,130.60,140422,,,A*6B

$GPRMC,133227.00,A,4437.72389,N,01056.87449,E,10.094,131.68,140422,,,A*5F

$GPRMC,133227.20,A,4437.72317,N,01056.87477,E,9.996,132.96,140422,,,A*66

$GPGGA,133227.20,4437.72317,N,01056.87477,E,1,04,1.51,69.6,M,46.0,M,,*6F

$GPRMC,133227.40,A,4437.72249,N,01056.87499,E,9.269,133.87,140422,,,A*60

$GPRMC,133227.50,A,4437.72200,N,01056.87500,E,9.060,134.10,140422,,,A*6F

$GPRMC,133227.70,A,4437.72134,N,01056.87539,E,9.408,132.83,140422,,,A*65

$GPRMC,133227.90,A,4437.72068,N,01056.87584,E,9.924,131.40,140422,,,A*6A

$GPRMC,133228.10,A,4437.72003,N,01056.87631,E,10.244,130.17,140422,,,A*5B

$GPRMC,133228.30,A,4437.71948,N,01056.87687,E,10.410,128.89,140422,,,A*58

$GPRMC,133228.50,A,4437.71902,N,01056.87750,E,10.516,127.78,140422,,,A*5D

$GPRMC,133228.60,A,4437.71874,N,01056.87778,E,10.534,127.36,140422,,,A*5E

$GPRMC,133228.80,A,4437.71831,N,01056.87843,E,10.619,126.24,140422,,,A*58

$GPRMC,133229.00,A,4437.71786,N,01056.87903,E,10.632,126.28,140422,,,A*52

$GPGGA,133229.00,4437.71786,N,01056.87903,E,1,06,1.10,64.4,M,46.0,M,,*6A

$GPRMC,133229.20,A,4437.71741,N,01056.87967,E,10.771,126.43,140422,,,A*52

$GPRMC,133229.40,A,4437.71694,N,01056.88031,E,10.932,126.81,140422,,,A*5F

$GPRMC,133229.60,A,4437.71647,N,01056.88094,E,11.048,126.98,140422,,,A*51

$GPRMC,133229.80,A,4437.71598,N,01056.88159,E,11.211,127.52,140422,,,A*57

$GPRMC,133229.90,A,4437.71573,N,01056.88188,E,11.113,126.83,140422,,,A*53

$GPRMC,133230.00,A,4437.71549,N,01056.88218,E,11.077,125.89,140422,,,A*5B

$GPRMC,133230.20,A,4437.71506,N,01056.88283,E,11.030,125.21,140422,,,A*51

$GPRMC,133230.40,A,4437.71463,N,01056.88351,E,11.113,124.65,140422,,,A*5A

$GPRMC,133230.60,A,4437.71419,N,01056.88419,E,11.238,124.53,140422,,,A*51

$GPRMC,133230.70,A,4437.71393,N,01056.88455,E,11.347,123.82,140422,,,A*5F

$GPGGA,133230.70,4437.71393,N,01056.88455,E,1,06,1.10,61.2,M,46.0,M,,*67

$GPRMC,133230.90,A,4437.71350,N,01056.88530,E,11.412,122.67,140422,,,A*51

$GPRMC,133231.10,A,4437.71307,N,01056.88601,E,11.391,122.68,140422,,,A*58

$GPRMC,133231.30,A,4437.71266,N,01056.88676,E,11.514,121.84,140422,,,A*56

$GPRMC,133231.40,A,4437.71238,N,01056.88714,E,11.658,121.88,140422,,,A*58

$GPRMC,133231.50,A,4437.71213,N,01056.88751,E,11.643,121.42,140422,,,A*5D

$GPRMC,133231.60,A,4437.71187,N,01056.88787,E,11.770,121.44,140422,,,A*5C

$GPRMC,133231.70,A,4437.71163,N,01056.88822,E,11.755,121.27,140422,,,A*55

$GPRMC,133231.80,A,4437.71138,N,01056.88859,E,11.814,121.12,140422,,,A*54

$GPRMC,133231.90,A,4437.71112,N,01056.88895,E,11.825,121.28,140422,,,A*56

$GPRMC,133232.00,A,4437.71087,N,01056.88931,E,11.812,121.30,140422,,,A*53

$GPGGA,133232.00,4437.71087,N,01056.88931,E,1,06,1.10,60.0,M,46.0,M,,*68

$GPRMC,133232.20,A,4437.71045,N,01056.89006,E,11.935,121.70,140422,,,A*53

$GPRMC,133232.30,A,4437.71022,N,01056.89043,E,11.856,121.02,140422,,,A*53

$GPRMC,133232.40,A,4437.70996,N,01056.89078,E,11.868,121.40,140422,,,A*50

$GPRMC,133232.50,A,4437.70971,N,01056.89114,E,11.923,122.10,140422,,,A*5B

$GPRMC,133232.60,A,4437.70946,N,01056.89149,E,11.834,122.39,140422,,,A*58

