$GPRMC,134503.40,A,4437.78963,N,01057.00110,E,0.061,,140422,,,A*76

$GPRMC,134503.50,A,4437.78961,N,01057.00110,E,0.049,,140422,,,A*7F

$GPRMC,134503.60,A,4437.78960,N,01057.00109,E,0.096,,140422,,,A*77

$GPRMC,134503.70,A,4437.78958,N,01057.00109,E,0.085,,140422,,,A*7F

$GPRMC,134503.80,A,4437.78956,N,01057.00109,E,0.016,,140422,,,A*74

$GPRMC,134503.90,A,4437.78955,N,01057.00109,E,0.060,,140422,,,A*77

$GPRMC,134504.00,A,4437.78953,N,01057.00109,E,0.071,,140422,,,A*7F

$GPRMC,134504.10,A,4437.78952,N,01057.00110,E,0.114,,140422,,,A*75

$GPRMC,134504.20,A,4437.78951,N,01057.00110,E,0.147,,140422,,,A*73

$GPRMC,134504.30,A,4437.78949,N,01057.00112,E,0.512,349.96,140422,,,A*62

$GPGGA,134504.30,4437.78949,N,01057.00112,E,1,10,1.12,37.2,M,46.0,M,,*61

$GPRMC,134504.40,A,4437.78949,N,01057.00115,E,0.839,28.48,140422,,,A*51

$GPRMC,134504.50,A,4437.78951,N,01057.00119,E,0.991,38.67,140422,,,A*5A

$GPRMC,134504.60,A,4437.78950,N,01057.00122,E,0.891,44.37,140422,,,A*5F

$GPRMC,134504.70,A,4437.78951,N,01057.00124,E,0.760,43.15,140422,,,A*5F

$GPRMC,134504.80,A,4437.78958,N,01057.00129,E,2.080,33.57,140422,,,A*5E

$GPRMC,134504.90,A,4437.78961,N,01057.00135,E,2.451,32.03,140422,,,A*50

$GPRMC,134505.00,A,4437.78965,N,01057.00143,E,3.619,29.36,140422,,,A*5E

$GPRMC,134505.10,A,4437.78971,N,01057.00149,E,3.411,28.64,140422,,,A*5C

$GPRMC,134505.20,A,4437.78978,N,01057.00159,E,4.038,31.12,140422,,,A*56

$GPRMC,134505.30,A,4437.78983,N,01057.00166,E,3.219,35.33,140422,,,A*5E

$GPGGA,134505.30,4437.78983,N,01057.00166,E,1,10,0.84,37.3,M,46.0,M,,*6A

$GPRMC,134505.40,A,4437.78990,N,01057.00172,E,3.105,34.45,140422,,,A*50

$GPRMC,134505.50,A,4437.78994,N,01057.00176,E,2.330,35.40,140422,,,A*50

$GPRMC,134505.60,A,4437.79006,N,01057.00182,E,3.451,29.42,140422,,,A*55

$GPRMC,134505.70,A,4437.79015,N,01057.00188,E,4.538,24.22,140422,,,A*5E

$GPRMC,134505.80,A,4437.79024,N,01057.00199,E,5.013,26.20,140422,,,A*5E

$GPRMC,134505.90,A,4437.79033,N,01057.00211,E,4.898,29.42,140422,,,A*5B

$GPRMC,134506.00,A,4437.79041,N,01057.00226,E,4.833,37.31,140422,,,A*5A

$GPRMC,134506.10,A,4437.79051,N,01057.00238,E,4.935,39.92,140422,,,A*55

$GPRMC,134506.20,A,4437.79063,N,01057.00244,E,4.274,37.53,140422,,,A*51

$GPRMC,134506.30,A,4437.79075,N,01057.00258,E,4.792,39.58,140422,,,A*52

$GPGGA,134506.30,4437.79075,N,01057.00258,E,1,10,1.04,37.3,M,46.0,M,,*6F

$GPRMC,134506.40,A,4437.79088,N,01057.00268,E,5.801,34.28,140422,,,A*5A

$GPRMC,134506.50,A,4437.79094,N,01057.00275,E,4.939,32.00,140422,,,A*5D

$GPRMC,134506.60,A,4437.79110,N,01057.00290,E,5.940,31.77,140422,,,A*54

$GPRMC,134506.70,A,4437.79122,N,01057.00306,E,6.065,34.62,140422,,,A*56

$GPRMC,134506.80,A,4437.79134,N,01057.00319,E,5.658,35.90,140422,,,A*57

$GPRMC,134506.90,A,4437.79150,N,01057.00330,E,5.752,33.58,140422,,,A*56

$GPRMC,134507.00,A,4437.79160,N,01057.00351,E,6.038,39.06,140422,,,A*53

$GPRMC,134507.10,A,4437.79171,N,01057.00367,E,5.910,40.58,140422,,,A*52

$GPRMC,134507.20,A,4437.79185,N,01057.00383,E,6.552,38.97,140422,,,A*55

$GPRMC,134507.30,A,4437.79197,N,01057.00398,E,6.523,37.58,140422,,,A*57

$GPGGA,134507.30,4437.79197,N,01057.00398,E,1,09,1.12,37.5,M,46.0,M,,*67

$GPRMC,134507.40,A,4437.79209,N,01057.00411,E,5.853,38.45,140422,,,A*58

$GPRMC,134507.50,A,4437.79222,N,01057.00425,E,5.803,37.59,140422,,,A*50

$GPRMC,134507.60,A,4437.79234,N,01057.00438,E,5.470,38.14,140422,,,A*56

$GPRMC,134507.70,A,4437.79245,N,01057.00451,E,5.481,38.01,140422,,,A*54

$GPRMC,134507.80,A,4437.79255,N,01057.00468,E,5.701,40.89,140422,,,A*54

$GPRMC,134507.90,A,4437.79268,N,01057.00483,E,5.715,41.09,140422,,,A*52

$GPRMC,134508.00,A,4437.79280,N,01057.00495,E,5.699,38.50,140422,,,A*52

$GPRMC,134508.10,A,4437.79292,N,01057.00510,E,5.742,38.34,140422,,,A*59

$GPRMC,134508.20,A,4437.79304,N,01057.00524,E,5.399,39.99,140422,,,A*57

$GPRMC,134508.30,A,4437.79316,N,01057.00538,E,5.477,39.79,140422,,,A*51

$GPGGA,134508.30,4437.79316,N,01057.00538,E,1,09,1.12,37.4,M,46.0,M,,*6E

$GPRMC,134508.40,A,4437.79324,N,01057.00555,E,5.313,43.84,140422,,,A*56

$GPRMC,134508.50,A,4437.79335,N,01057.00570,E,5.404,44.59,140422,,,A*56

$GPRMC,134508.60,A,4437.79346,N,01057.00580,E,5.161,39.84,140422,,,A*52

$GPRMC,134508.70,A,4437.79352,N,01057.00595,E,5.072,41.40,140422,,,A*56

$GPRMC,134508.80,A,4437.79362,N,01057.00608,E,4.893,43.10,140422,,,A*5C

$GPRMC,134508.90,A,4437.79372,N,01057.00621,E,5.205,42.52,140422,,,A*54

$GPRMC,134509.00,A,4437.79383,N,01057.00638,E,5.254,47.40,140422,,,A*58

$GPRMC,134509.10,A,4437.79391,N,01057.00651,E,4.896,46.66,140422,,,A*55

$GPRMC,134509.20,A,4437.79398,N,01057.00666,E,4.926,49.96,140422,,,A*51

$GPRMC,134509.30,A,4437.79409,N,01057.00678,E,5.041,45.26,140422,,,A*5E

$GPGGA,134509.30,4437.79409,N,01057.00678,E,1,10,1.12,37.5,M,46.0,M,,*68

$GPRMC,134509.40,A,4437.79419,N,01057.00692,E,4.780,45.68,140422,,,A*5D

$GPRMC,134509.50,A,4437.79424,N,01057.00703,E,4.184,46.65,140422,,,A*57

$GPRMC,134509.60,A,4437.79435,N,01057.00718,E,5.074,46.47,140422,,,A*51

$GPRMC,134509.70,A,4437.79443,N,01057.00732,E,4.987,45.96,140422,,,A*52

$GPRMC,134509.80,A,4437.79452,N,01057.00747,E,4.895,47.50,140422,,,A*55

$GPRMC,134509.90,A,4437.79461,N,01057.00760,E,4.887,46.56,140422,,,A*55

$GPRMC,134510.00,A,4437.79472,N,01057.00770,E,4.719,43.94,140422,,,A*54

$GPRMC,134510.10,A,4437.79477,N,01057.00785,E,4.634,46.59,140422,,,A*50

$GPRMC,134510.20,A,4437.79485,N,01057.00799,E,4.667,49.03,140422,,,A*55

$GPRMC,134510.30,A,4437.79491,N,01057.00812,E,4.463,49.14,140422,,,A*5D

$GPGGA,134510.30,4437.79491,N,01057.00812,E,1,10,1.12,37.4,M,46.0,M,,*62

$GPRMC,134510.40,A,4437.79501,N,01057.00823,E,4.432,47.64,140422,,,A*5D

$GPRMC,134510.50,A,4437.79510,N,01057.00836,E,4.503,47.26,140422,,,A*5D

$GPRMC,134510.60,A,4437.79519,N,01057.00849,E,4.722,46.62,140422,,,A*5F

$GPRMC,134510.70,A,4437.79527,N,01057.00862,E,4.708,45.35,140422,,,A*53

$GPRMC,134510.80,A,4437.79534,N,01057.00873,E,4.444,44.47,140422,,,A*51

$GPRMC,134510.90,A,4437.79541,N,01057.00883,E,4.257,42.85,140422,,,A*51

$GPRMC,134511.00,A,4437.79550,N,01057.00896,E,4.620,42.46,140422,,,A*56

$GPRMC,134511.10,A,4437.79557,N,01057.00908,E,4.344,42.30,140422,,,A*50

$GPRMC,134511.20,A,4437.79565,N,01057.00919,E,4.438,40.88,140422,,,A*5F

$GPRMC,134511.30,A,4437.79576,N,01057.00929,E,4.616,37.78,140422,,,A*5E

$GPGGA,134511.30,4437.79576,N,01057.00929,E,1,10,1.12,37.3,M,46.0,M,,*65

$GPRMC,134511.40,A,4437.79583,N,01057.00939,E,4.377,38.13,140422,,,A*52

$GPRMC,134511.50,A,4437.79592,N,01057.00951,E,4.427,39.67,140422,,,A*5D

$GPRMC,134511.60,A,4437.79601,N,01057.00962,E,4.263,39.52,140422,,,A*57

$GPRMC,134511.70,A,4437.79607,N,01057.00972,E,4.040,38.99,140422,,,A*54

$GPRMC,134511.80,A,4437.79615,N,01057.00983,E,4.236,37.93,140422,,,A*50

$GPRMC,134511.90,A,4437.79625,N,01057.00995,E,4.225,38.63,140422,,,A*57

$GPRMC,134512.00,A,4437.79630,N,01057.01003,E,3.883,36.47,140422,,,A*57

$GPRMC,134512.10,A,4437.79638,N,01057.01014,E,3.947,37.30,140422,,,A*50

$GPRMC,134512.20,A,4437.79645,N,01057.01023,E,3.751,37.16,140422,,,A*50

$GPRMC,134512.30,A,4437.79650,N,01057.01033,E,3.726,39.48,140422,,,A*51

$GPGGA,134512.30,4437.79650,N,01057.01033,E,1,10,0.91,37.5,M,46.0,M,,*6E

$GPRMC,134512.40,A,4437.79654,N,01057.01036,E,2.968,35.42,140422,,,A*54

$GPRMC,134512.50,A,4437.79659,N,01057.01043,E,3.429,31.94,140422,,,A*5C

$GPRMC,134512.60,A,4437.79665,N,01057.01051,E,3.263,34.07,140422,,,A*54

$GPRMC,134512.70,A,4437.79674,N,01057.01058,E,3.181,33.78,140422,,,A*5C

$GPRMC,134512.80,A,4437.79678,N,01057.01069,E,3.472,38.89,140422,,,A*51

$GPRMC,134512.90,A,4437.79684,N,01057.01078,E,3.354,38.78,140422,,,A*5E

$GPRMC,134513.00,A,4437.79689,N,01057.01084,E,3.405,34.56,140422,,,A*5B

$GPRMC,134513.10,A,4437.79690,N,01057.01091,E,2.305,37.29,140422,,,A*5B

$GPRMC,134513.20,A,4437.79697,N,01057.01094,E,2.005,33.83,140422,,,A*5D

$GPRMC,134513.30,A,4437.79705,N,01057.01103,E,2.944,39.10,140422,,,A*55

$GPGGA,134513.30,4437.79705,N,01057.01103,E,1,10,0.84,37.8,M,46.0,M,,*65

$GPRMC,134513.40,A,4437.79710,N,01057.01110,E,2.761,39.88,140422,,,A*5C

$GPRMC,134513.50,A,4437.79712,N,01057.01117,E,2.095,44.97,140422,,,A*50

$GPRMC,134513.60,A,4437.79718,N,01057.01120,E,2.405,31.32,140422,,,A*5D

$GPRMC,134513.70,A,4437.79722,N,01057.01129,E,3.011,36.62,140422,,,A*5E

$GPRMC,134513.80,A,4437.79731,N,01057.01134,E,3.067,30.56,140422,,,A*5F

$GPRMC,134513.90,A,4437.79736,N,01057.01139,E,2.692,31.05,140422,,,A*5E

$GPRMC,134514.00,A,4437.79743,N,01057.01144,E,2.857,26.69,140422,,,A*53

$GPRMC,134514.10,A,4437.79749,N,01057.01149,E,2.871,26.34,140422,,,A*59

$GPRMC,134514.20,A,4437.79757,N,01057.01154,E,3.223,23.54,140422,,,A*56

$GPRMC,134514.30,A,4437.79765,N,01057.01160,E,3.331,24.16,140422,,,A*52

$GPGGA,134514.30,4437.79765,N,01057.01160,E,1,10,1.12,37.9,M,46.0,M,,*6E

$GPRMC,134514.40,A,4437.79772,N,01057.01164,E,3.194,23.34,140422,,,A*5D

$GPRMC,134514.50,A,4437.79779,N,01057.01172,E,3.388,26.57,140422,,,A*5F

$GPRMC,134514.60,A,4437.79789,N,01057.01172,E,3.675,14.24,140422,,,A*51

$GPRMC,134514.70,A,4437.79809,N,01057.01174,E,4.522,10.93,140422,,,A*5F

$GPRMC,134514.80,A,4437.79821,N,01057.01179,E,4.637,12.35,140422,,,A*5E

$GPRMC,134514.90,A,4437.79832,N,01057.01180,E,4.409,8.02,140422,,,A*6B

$GPRMC,134515.00,A,4437.79843,N,01057.01184,E,4.519,7.12,140422,,,A*6F

$GPRMC,134515.10,A,4437.79855,N,01057.01186,E,4.599,6.09,140422,,,A*68

$GPRMC,134515.20,A,4437.79868,N,01057.01187,E,4.671,2.24,140422,,,A*6A

$GPRMC,134515.30,A,4437.79881,N,01057.01186,E,4.636,358.77,140422,,,A*64

$GPGGA,134515.30,4437.79881,N,01057.01186,E,1,10,0.84,37.8,M,46.0,M,,*6D

$GPRMC,134515.40,A,4437.79896,N,01057.01183,E,4.819,353.49,140422,,,A*65

$GPRMC,134515.50,A,4437.79911,N,01057.01177,E,5.046,346.75,140422,,,A*69

$GPRMC,134515.60,A,4437.79929,N,01057.01171,E,5.505,344.69,140422,,,A*6A

$GPRMC,134515.70,A,4437.79943,N,01057.01167,E,5.326,343.69,140422,,,A*60

$GPRMC,134515.80,A,4437.79959,N,01057.01160,E,5.510,341.61,140422,,,A*6A

$GPRMC,134515.90,A,4437.79975,N,01057.01154,E,5.679,341.57,140422,,,A*6B

$GPRMC,134516.00,A,4437.79988,N,01057.01143,E,5.504,335.78,140422,,,A*62

$GPRMC,134516.10,A,4437.80004,N,01057.01136,E,5.768,336.92,140422,,,A*65

$GPRMC,134516.20,A,4437.80022,N,01057.01126,E,6.156,335.13,140422,,,A*61

$GPRMC,134516.30,A,4437.80038,N,01057.01114,E,6.179,332.02,140422,,,A*60

$GPGGA,134516.30,4437.80038,N,01057.01114,E,1,10,1.04,37.2,M,46.0,M,,*6A

$GPRMC,134516.40,A,4437.80055,N,01057.01103,E,6.296,331.15,140422,,,A*6D

$GPRMC,134516.50,A,4437.80070,N,01057.01090,E,6.359,328.67,140422,,,A*6F

$GPRMC,134516.60,A,4437.80088,N,01057.01076,E,6.715,326.69,140422,,,A*6F

$GPRMC,134516.70,A,4437.80103,N,01057.01059,E,6.519,319.53,140422,,,A*6A

$GPRMC,134516.80,A,4437.80121,N,01057.01044,E,6.729,320.61,140422,,,A*63

$GPRMC,134516.90,A,4437.80138,N,01057.01029,E,6.889,320.77,140422,,,A*63

$GPRMC,134517.00,A,4437.80155,N,01057.01012,E,7.013,319.55,140422,,,A*68

$GPRMC,134517.10,A,4437.80172,N,01057.00995,E,7.067,319.56,140422,,,A*6B

$GPRMC,134517.20,A,4437.80190,N,01057.00977,E,7.254,318.52,140422,,,A*6F

$GPRMC,134517.30,A,4437.80206,N,01057.00960,E,7.329,317.82,140422,,,A*6D

$GPGGA,134517.30,4437.80206,N,01057.00960,E,1,10,1.04,36.4,M,46.0,M,,*69

$GPRMC,134517.40,A,4437.80222,N,01057.00939,E,7.528,316.29,140422,,,A*67

$GPRMC,134517.50,A,4437.80234,N,01057.00922,E,7.232,313.64,140422,,,A*6B

$GPRMC,134517.60,A,4437.80248,N,01057.00904,E,7.268,314.29,140422,,,A*66

$GPRMC,134517.70,A,4437.80263,N,01057.00883,E,7.628,313.57,140422,,,A*6E

$GPRMC,134517.80,A,4437.80277,N,01057.00861,E,7.665,312.17,140422,,,A*64

$GPRMC,134517.90,A,4437.80294,N,01057.00837,E,7.921,310.90,140422,,,A*69

$GPRMC,134518.00,A,4437.80310,N,01057.00818,E,7.521,313.14,140422,,,A*6C

$GPRMC,134518.10,A,4437.80326,N,01057.00794,E,8.092,311.25,140422,,,A*61

$GPRMC,134518.20,A,4437.80343,N,01057.00773,E,8.134,312.30,140422,,,A*62

$GPRMC,134518.30,A,4437.80358,N,01057.00752,E,7.795,311.17,140422,,,A*6E

$GPGGA,134518.30,4437.80358,N,01057.00752,E,1,10,1.04,36.1,M,46.0,M,,*66

$GPRMC,134518.40,A,4437.80374,N,01057.00729,E,8.163,310.86,140422,,,A*62

$GPRMC,134518.50,A,4437.80394,N,01057.00704,E,8.570,313.36,140422,,,A*6C

$GPRMC,134518.60,A,4437.80408,N,01057.00681,E,8.060,310.27,140422,,,A*66

$GPRMC,134518.70,A,4437.80426,N,01057.00658,E,8.486,311.77,140422,,,A*67

$GPRMC,134518.80,A,4437.80444,N,01057.00634,E,8.710,313.27,140422,,,A*6D

$GPRMC,134518.90,A,4437.80461,N,01057.00610,E,8.667,311.51,140422,,,A*6F

$GPRMC,134519.00,A,4437.80478,N,01057.00587,E,8.560,312.67,140422,,,A*60

$GPRMC,134519.10,A,4437.80496,N,01057.00562,E,8.796,313.48,140422,,,A*6D

$GPRMC,134519.20,A,4437.80511,N,01057.00537,E,8.875,311.76,140422,,,A*6D

$GPRMC,134519.30,A,4437.80529,N,01057.00512,E,8.810,312.19,140422,,,A*69

$GPGGA,134519.30,4437.80529,N,01057.00512,E,1,09,1.04,35.7,M,46.0,M,,*6C

$GPRMC,134519.40,A,4437.80546,N,01057.00490,E,8.802,314.19,140422,,,A*69

$GPRMC,134519.50,A,4437.80563,N,01057.00465,E,8.908,312.86,140422,,,A*6E

$GPRMC,134519.60,A,4437.80582,N,01057.00438,E,9.250,312.76,140422,,,A*62

$GPRMC,134519.70,A,4437.80600,N,01057.00410,E,9.325,311.97,140422,,,A*6F

$GPRMC,134519.80,A,4437.80619,N,01057.00386,E,9.247,313.04,140422,,,A*6D

$GPRMC,134519.90,A,4437.80637,N,01057.00358,E,9.409,312.33,140422,,,A*6A

$GPRMC,134520.00,A,4437.80653,N,01057.00334,E,9.153,311.13,140422,,,A*6A

$GPRMC,134520.10,A,4437.80672,N,01057.00306,E,9.768,311.28,140422,,,A*6F

$GPRMC,134520.20,A,4437.80689,N,01057.00278,E,9.501,310.76,140422,,,A*67

$GPRMC,134520.30,A,4437.80708,N,01057.00252,E,9.606,311.67,140422,,,A*63

$GPGGA,134520.30,4437.80708,N,01057.00252,E,1,09,1.04,35.4,M,46.0,M,,*67

$GPRMC,134520.40,A,4437.80726,N,01057.00226,E,9.337,311.66,140422,,,A*6D

$GPRMC,134520.50,A,4437.80741,N,01057.00201,E,9.360,310.18,140422,,,A*62

$GPRMC,134520.60,A,4437.80761,N,01057.00169,E,9.861,310.04,140422,,,A*69

$GPRMC,134520.70,A,4437.80778,N,01057.00143,E,9.505,309.21,140422,,,A*68

$GPRMC,134520.80,A,4437.80797,N,01057.00112,E,10.066,309.16,140422,,,A*5E

$GPRMC,134520.90,A,4437.80816,N,01057.00081,E,10.161,308.73,140422,,,A*56

$GPRMC,134521.00,A,4437.80835,N,01057.00052,E,10.159,309.15,140422,,,A*5B

$GPRMC,134521.10,A,4437.80854,N,01057.00026,E,10.018,310.88,140422,,,A*56

$GPRMC,134521.20,A,4437.80872,N,01056.99997,E,10.043,309.96,140422,,,A*5A

$GPRMC,134521.30,A,4437.80890,N,01056.99966,E,9.998,308.48,140422,,,A*6C

$GPGGA,134521.30,4437.80890,N,01056.99966,E,1,10,1.04,35.1,M,46.0,M,,*68

$GPRMC,134521.40,A,4437.80910,N,01056.99934,E,10.535,309.13,140422,,,A*59

$GPRMC,134521.50,A,4437.80928,N,01056.99904,E,10.214,309.14,140422,,,A*53

$GPRMC,134521.60,A,4437.80946,N,01056.99872,E,10.447,308.06,140422,,,A*5A

$GPRMC,134521.70,A,4437.80966,N,01056.99842,E,10.566,309.64,140422,,,A*5D

$GPRMC,134521.80,A,4437.80984,N,01056.99810,E,10.686,309.22,140422,,,A*56

$GPRMC,134521.90,A,4437.80998,N,01056.99781,E,10.177,307.16,140422,,,A*5D

$GPRMC,134522.00,A,4437.81018,N,01056.99748,E,10.673,309.03,140422,,,A*5B

$GPRMC,134522.10,A,4437.81037,N,01056.99715,E,10.806,308.59,140422,,,A*5D

$GPRMC,134522.20,A,4437.81057,N,01056.99682,E,10.805,308.76,140422,,,A*59

$GPRMC,134522.30,A,4437.81076,N,01056.99651,E,10.688,307.41,140422,,,A*55

$GPGGA,134522.30,4437.81076,N,01056.99651,E,1,10,1.04,35.0,M,46.0,M,,*60

$GPRMC,134522.40,A,4437.81094,N,01056.99619,E,10.889,307.59,140422,,,A*54

$GPRMC,134522.50,A,4437.81114,N,01056.99587,E,11.005,308.95,140422,,,A*5A

$GPRMC,134522.60,A,4437.81133,N,01056.99554,E,10.937,308.75,140422,,,A*55

$GPRMC,134522.70,A,4437.81150,N,01056.99521,E,10.932,306.63,140422,,,A*5F

$GPRMC,134522.80,A,4437.81170,N,01056.99487,E,11.191,308.05,140422,,,A*51

$GPRMC,134522.90,A,4437.81188,N,01056.99455,E,11.099,308.70,140422,,,A*53

$GPRMC,134523.00,A,4437.81207,N,01056.99419,E,11.256,307.62,140422,,,A*5A

$GPRMC,134523.10,A,4437.81226,N,01056.99383,E,11.374,307.75,140422,,,A*5B

$GPRMC,134523.20,A,4437.81245,N,01056.99351,E,11.253,307.95,140422,,,A*58

$GPRMC,134523.30,A,4437.81264,N,01056.99316,E,11.507,307.29,140422,,,A*58

$GPGGA,134523.30,4437.81264,N,01056.99316,E,1,10,0.84,35.0,M,46.0,M,,*6F

$GPRMC,134523.40,A,4437.81282,N,01056.99284,E,11.145,306.43,140422,,,A*52

$GPRMC,134523.50,A,4437.81303,N,01056.99249,E,11.343,307.14,140422,,,A*5D

$GPRMC,134523.60,A,4437.81324,N,01056.99214,E,11.577,308.88,140422,,,A*58

$GPRMC,134523.70,A,4437.81345,N,01056.99175,E,11.723,307.88,140422,,,A*56

$GPRMC,134523.80,A,4437.81363,N,01056.99143,E,11.522,307.09,140422,,,A*52

$GPRMC,134523.90,A,4437.81384,N,01056.99108,E,11.637,309.11,140422,,,A*55

$GPRMC,134524.00,A,4437.81404,N,01056.99074,E,11.712,309.17,140422,,,A*5E

$GPRMC,134524.10,A,4437.81426,N,01056.99038,E,11.725,308.22,140422,,,A*54

$GPRMC,134524.20,A,4437.81447,N,01056.99004,E,11.661,308.80,140422,,,A*56

$GPRMC,134524.30,A,4437.81469,N,01056.98971,E,11.860,310.60,140422,,,A*59

$GPGGA,134524.30,4437.81469,N,01056.98971,E,1,10,0.91,34.9,M,46.0,M,,*65

$GPRMC,134524.40,A,4437.81488,N,01056.98937,E,11.806,308.64,140422,,,A*5E

$GPRMC,134524.50,A,4437.81508,N,01056.98904,E,11.674,309.02,140422,,,A*5C

$GPRMC,134524.60,A,4437.81528,N,01056.98872,E,11.784,310.11,140422,,,A*59

$GPRMC,134524.70,A,4437.81547,N,01056.98837,E,11.725,308.74,140422,,,A*51

$GPRMC,134524.80,A,4437.81565,N,01056.98807,E,11.463,309.22,140422,,,A*5E

$GPRMC,134524.90,A,4437.81585,N,01056.98769,E,12.103,308.60,140422,,,A*51

$GPRMC,134525.00,A,4437.81607,N,01056.98739,E,11.699,311.36,140422,,,A*59

$GPRMC,134525.10,A,4437.81627,N,01056.98702,E,12.073,309.43,140422,,,A*58

$GPRMC,134525.20,A,4437.81647,N,01056.98668,E,11.958,309.56,140422,,,A*57

$GPRMC,134525.30,A,4437.81669,N,01056.98637,E,11.813,311.11,140422,,,A*54

$GPGGA,134525.30,4437.81669,N,01056.98637,E,1,10,0.84,35.4,M,46.0,M,,*63

$GPRMC,134525.40,A,4437.81689,N,01056.98605,E,11.871,310.47,140422,,,A*5A

$GPRMC,134525.50,A,4437.81710,N,01056.98566,E,12.240,308.52,140422,,,A*5A

$GPRMC,134525.60,A,4437.81732,N,01056.98532,E,11.961,310.21,140422,,,A*5E

$GPRMC,134525.70,A,4437.81753,N,01056.98495,E,12.081,308.38,140422,,,A*51

$GPRMC,134525.80,A,4437.81776,N,01056.98460,E,12.170,310.61,140422,,,A*59

$GPRMC,134525.90,A,4437.81797,N,01056.98425,E,12.210,309.08,140422,,,A*54

$GPRMC,134526.00,A,4437.81819,N,01056.98387,E,12.389,309.15,140422,,,A*55

$GPRMC,134526.10,A,4437.81841,N,01056.98350,E,12.338,309.41,140422,,,A*58

$GPRMC,134526.20,A,4437.81863,N,01056.98312,E,12.375,308.91,140422,,,A*58

$GPRMC,134526.30,A,4437.81887,N,01056.98274,E,12.480,309.58,140422,,,A*5B

$GPGGA,134526.30,4437.81887,N,01056.98274,E,1,08,1.31,35.6,M,46.0,M,,*69

$GPRMC,134526.40,A,4437.81905,N,01056.98242,E,12.314,307.55,140422,,,A*5B

$GPRMC,134526.50,A,4437.81930,N,01056.98196,E,12.877,308.51,140422,,,A*53

$GPRMC,134526.60,A,4437.81952,N,01056.98159,E,12.543,309.09,140422,,,A*51

$GPRMC,134526.70,A,4437.81973,N,01056.98121,E,12.708,308.21,140422,,,A*5A

$GPRMC,134526.80,A,4437.81995,N,01056.98081,E,12.670,307.15,140422,,,A*50

$GPRMC,134526.90,A,4437.82018,N,01056.98042,E,12.679,308.01,140422,,,A*52

$GPRMC,134527.00,A,4437.82042,N,01056.98002,E,12.881,309.01,140422,,,A*59

$GPRMC,134527.10,A,4437.82064,N,01056.97962,E,12.936,307.97,140422,,,A*50

$GPRMC,134527.20,A,4437.82086,N,01056.97926,E,12.864,308.49,140422,,,A*55

$GPRMC,134527.30,A,4437.82108,N,01056.97886,E,12.975,307.96,140422,,,A*54

$GPGGA,134527.30,4437.82108,N,01056.97886,E,1,10,1.17,35.6,M,46.0,M,,*60

$GPRMC,134527.40,A,4437.82130,N,01056.97846,E,12.922,307.22,140422,,,A*59

$GPRMC,134527.50,A,4437.82152,N,01056.97809,E,12.911,308.46,140422,,,A*5A

$GPRMC,134527.60,A,4437.82175,N,01056.97770,E,13.058,309.68,140422,,,A*55

$GPRMC,134527.70,A,4437.82198,N,01056.97731,E,13.028,309.19,140422,,,A*53

$GPRMC,134527.80,A,4437.82220,N,01056.97690,E,12.968,307.67,140422,,,A*5D

$GPRMC,134527.90,A,4437.82242,N,01056.97650,E,12.990,307.53,140422,,,A*54

$GPRMC,134528.00,A,4437.82266,N,01056.97610,E,12.999,308.76,140422,,,A*51

$GPRMC,134528.10,A,4437.82287,N,01056.97570,E,13.024,307.55,140422,,,A*5A

$GPRMC,134528.20,A,4437.82307,N,01056.97532,E,12.814,306.39,140422,,,A*57

$GPRMC,134528.30,A,4437.82329,N,01056.97492,E,12.883,306.21,140422,,,A*56

$GPGGA,134528.30,4437.82329,N,01056.97492,E,1,09,1.31,35.8,M,46.0,M,,*65

$GPRMC,134528.40,A,4437.82349,N,01056.97452,E,12.563,305.91,140422,,,A*50

$GPRMC,134528.50,A,4437.82358,N,01056.97432,E,11.674,301.18,140422,,,A*54

$GPRMC,134528.60,A,4437.82375,N,01056.97395,E,11.719,301.16,140422,,,A*56

$GPRMC,134528.70,A,4437.82392,N,01056.97358,E,11.379,301.49,140422,,,A*57

$GPRMC,134528.80,A,4437.82405,N,01056.97320,E,10.901,297.71,140422,,,A*5F

$GPRMC,134528.90,A,4437.82419,N,01056.97283,E,10.794,297.14,140422,,,A*5A

$GPRMC,134529.00,A,4437.82434,N,01056.97243,E,10.405,297.50,140422,,,A*5A

$GPRMC,134529.10,A,4437.82446,N,01056.97207,E,10.120,295.10,140422,,,A*5A

$GPRMC,134529.20,A,4437.82457,N,01056.97173,E,9.937,293.57,140422,,,A*6A

$GPRMC,134529.30,A,4437.82468,N,01056.97130,E,10.166,290.31,140422,,,A*57

$GPGGA,134529.30,4437.82468,N,01056.97130,E,1,10,1.04,36.1,M,46.0,M,,*6F

$GPRMC,134529.40,A,4437.82478,N,01056.97091,E,9.856,288.09,140422,,,A*6B

$GPRMC,134529.50,A,4437.82485,N,01056.97054,E,9.760,286.02,140422,,,A*6E

$GPRMC,134529.60,A,4437.82492,N,01056.97019,E,9.166,283.81,140422,,,A*6C

$GPRMC,134529.70,A,4437.82497,N,01056.96977,E,9.329,279.37,140422,,,A*69

$GPRMC,134529.80,A,4437.82503,N,01056.96943,E,8.879,280.53,140422,,,A*66

$GPRMC,134529.90,A,4437.82504,N,01056.96913,E,8.650,276.16,140422,,,A*68

$GPRMC,134530.00,A,4437.82507,N,01056.96880,E,8.251,276.12,140422,,,A*60

$GPRMC,134530.10,A,4437.82509,N,01056.96843,E,8.392,273.42,140422,,,A*6E

$GPRMC,134530.20,A,4437.82507,N,01056.96815,E,7.903,268.89,140422,,,A*60

$GPRMC,134530.30,A,4437.82505,N,01056.96785,E,7.665,265.81,140422,,,A*6F

$GPGGA,134530.30,4437.82505,N,01056.96785,E,1,08,1.06,35.6,M,46.0,M,,*6B

$GPRMC,134530.40,A,4437.82503,N,01056.96758,E,7.249,262.90,140422,,,A*63

$GPRMC,134530.50,A,4437.82499,N,01056.96732,E,7.123,259.35,140422,,,A*64

$GPRMC,134530.60,A,4437.82493,N,01056.96705,E,7.251,255.89,140422,,,A*64

$GPRMC,134530.70,A,4437.82487,N,01056.96681,E,7.069,252.43,140422,,,A*65

$GPRMC,134530.80,A,4437.82479,N,01056.96660,E,6.782,247.77,140422,,,A*64

$GPRMC,134530.90,A,4437.82472,N,01056.96637,E,6.607,246.13,140422,,,A*63

$GPRMC,134531.00,A,4437.82464,N,01056.96616,E,6.235,244.11,140422,,,A*6A

$GPRMC,134531.10,A,4437.82456,N,01056.96599,E,5.843,241.08,140422,,,A*6B

$GPRMC,134531.20,A,4437.82450,N,01056.96581,E,5.722,239.72,140422,,,A*6D

$GPRMC,134531.30,A,4437.82443,N,01056.96565,E,5.261,239.26,140422,,,A*67

$GPGGA,134531.30,4437.82443,N,01056.96565,E,1,09,0.88,35.5,M,46.0,M,,*60

$GPRMC,134531.40,A,4437.82437,N,01056.96548,E,5.260,239.36,140422,,,A*6C

$GPRMC,134531.50,A,4437.82429,N,01056.96532,E,5.098,237.28,140422,,,A*6B

$GPRMC,134531.60,A,4437.82419,N,01056.96523,E,4.365,227.52,140422,,,A*67

$GPRMC,134531.70,A,4437.82408,N,01056.96515,E,4.305,216.04,140422,,,A*64

$GPRMC,134531.80,A,4437.82403,N,01056.96501,E,4.731,222.42,140422,,,A*63

$GPRMC,134531.90,A,4437.82398,N,01056.96491,E,3.854,223.65,140422,,,A*60

$GPRMC,134532.00,A,4437.82393,N,01056.96481,E,4.033,225.59,140422,,,A*67

$GPRMC,134532.10,A,4437.82389,N,01056.96474,E,3.250,223.77,140422,,,A*6D

$GPRMC,134532.20,A,4437.82383,N,01056.96462,E,3.858,226.23,140422,,,A*65

$GPRMC,134532.30,A,4437.82374,N,01056.96446,E,4.499,228.00,140422,,,A*63

$GPGGA,134532.30,4437.82374,N,01056.96446,E,1,09,0.88,35.7,M,46.0,M,,*62

$GPRMC,134532.40,A,4437.82365,N,01056.96438,E,3.929,223.35,140422,,,A*61

$GPRMC,134532.50,A,4437.82355,N,01056.96428,E,3.875,217.32,140422,,,A*6A

$GPRMC,134532.60,A,4437.82349,N,01056.96415,E,4.184,218.92,140422,,,A*6F

$GPRMC,134532.70,A,4437.82337,N,01056.96405,E,4.668,214.43,140422,,,A*63

$GPRMC,134532.80,A,4437.82336,N,01056.96397,E,3.924,215.33,140422,,,A*67

$GPRMC,134532.90,A,4437.82324,N,01056.96383,E,4.579,215.68,140422,,,A*6D

$GPRMC,134533.00,A,4437.82323,N,01056.96374,E,3.932,218.62,140422,,,A*69

$GPRMC,134533.10,A,4437.82308,N,01056.96368,E,4.389,208.52,140422,,,A*63

$GPRMC,134533.20,A,4437.82299,N,01056.96360,E,4.312,206.23,140422,,,A*6B

$GPRMC,134533.30,A,4437.82292,N,01056.96354,E,4.210,205.21,140422,,,A*64

$GPGGA,134533.30,4437.82292,N,01056.96354,E,1,09,0.88,36.2,M,46.0,M,,*68

$GPRMC,134533.40,A,4437.82286,N,01056.96350,E,3.832,202.54,140422,,,A*6A

$GPRMC,134533.50,A,4437.82275,N,01056.96341,E,4.355,203.47,140422,,,A*69

$GPRMC,134533.60,A,4437.82267,N,01056.96335,E,4.316,203.79,140422,,,A*60

$GPRMC,134533.70,A,4437.82261,N,01056.96329,E,4.028,204.56,140422,,,A*6E

$GPRMC,134533.80,A,4437.82255,N,01056.96322,E,3.992,206.41,140422,,,A*66

$GPRMC,134533.90,A,4437.82283,N,01056.96322,E,1.697,211.71,140422,,,A*61

$GPRMC,134534.00,A,4437.82297,N,01056.96318,E,2.143,255.66,140422,,,A*68

$GPRMC,134534.10,A,4437.82307,N,01056.96313,E,1.963,272.07,140422,,,A*61

$GPRMC,134534.20,A,4437.82309,N,01056.96304,E,2.355,269.58,140422,,,A*66

$GPRMC,134534.30,A,4437.82297,N,01056.96288,E,3.674,248.43,140422,,,A*6A

$GPGGA,134534.30,4437.82297,N,01056.96288,E,1,07,1.17,39.2,M,46.0,M,,*6C

$GPRMC,134534.40,A,4437.82288,N,01056.96271,E,4.114,240.74,140422,,,A*6F

$GPRMC,134534.50,A,4437.82277,N,01056.96255,E,4.406,233.77,140422,,,A*69

$GPRMC,134534.60,A,4437.82262,N,01056.96237,E,5.360,228.78,140422,,,A*69

$GPRMC,134534.70,A,4437.82255,N,01056.96225,E,4.495,226.97,140422,,,A*6C

$GPRMC,134534.80,A,4437.82243,N,01056.96207,E,5.094,226.37,140422,,,A*6A

$GPRMC,134534.90,A,4437.82231,N,01056.96189,E,5.418,227.23,140422,,,A*6F

$GPRMC,134535.00,A,4437.82217,N,01056.96174,E,5.604,224.18,140422,,,A*65

$GPRMC,134535.10,A,4437.82208,N,01056.96153,E,5.750,228.33,140422,,,A*6A

$GPRMC,134535.20,A,4437.82190,N,01056.96134,E,6.512,225.54,140422,,,A*61

$GPRMC,134535.30,A,4437.82178,N,01056.96116,E,6.196,225.06,140422,,,A*69

$GPGGA,134535.30,4437.82178,N,01056.96116,E,1,07,1.17,39.7,M,46.0,M,,*6E

$GPRMC,134535.40,A,4437.82166,N,01056.96095,E,6.432,227.17,140422,,,A*62

$GPRMC,134535.50,A,4437.82154,N,01056.96078,E,6.294,226.77,140422,,,A*6C

$GPRMC,134535.60,A,4437.82141,N,01056.96063,E,6.177,223.53,140422,,,A*6C

$GPRMC,134535.70,A,4437.82130,N,01056.96047,E,6.004,223.00,140422,,,A*6E

$GPRMC,134535.80,A,4437.82120,N,01056.96031,E,5.933,224.31,140422,,,A*6A

$GPRMC,134535.90,A,4437.82106,N,01056.96013,E,6.316,223.84,140422,,,A*68

$GPRMC,134536.00,A,4437.82096,N,01056.95997,E,6.118,224.64,140422,,,A*69

$GPRMC,134536.10,A,4437.82081,N,01056.95978,E,6.761,224.02,140422,,,A*67

$GPRMC,134536.20,A,4437.82068,N,01056.95960,E,6.566,223.90,140422,,,A*63

$GPRMC,134536.30,A,4437.82055,N,01056.95941,E,6.838,224.29,140422,,,A*6C

$GPGGA,134536.30,4437.82055,N,01056.95941,E,1,08,0.99,40.9,M,46.0,M,,*62

$GPRMC,134536.40,A,4437.82042,N,01056.95922,E,7.008,223.76,140422,,,A*6F

$GPRMC,134536.50,A,4437.82029,N,01056.95902,E,6.920,223.76,140422,,,A*63

$GPRMC,134536.60,A,4437.82014,N,01056.95883,E,7.029,223.69,140422,,,A*69

$GPRMC,134536.70,A,4437.81997,N,01056.95861,E,7.307,224.11,140422,,,A*62

$GPRMC,134536.80,A,4437.81983,N,01056.95842,E,7.215,223.25,140422,,,A*6B

$GPRMC,134536.90,A,4437.81967,N,01056.95823,E,7.193,222.46,140422,,,A*6E

$GPRMC,134537.00,A,4437.81951,N,01056.95802,E,7.357,222.68,140422,,,A*66

$GPRMC,134537.10,A,4437.81936,N,01056.95781,E,7.490,223.36,140422,,,A*64

$GPRMC,134537.20,A,4437.81917,N,01056.95760,E,7.853,222.33,140422,,,A*6C

$GPRMC,134537.30,A,4437.81896,N,01056.95739,E,8.017,220.17,140422,,,A*6A

$GPGGA,134537.30,4437.81896,N,01056.95739,E,1,07,1.11,41.5,M,46.0,M,,*65

$GPRMC,134537.40,A,4437.81872,N,01056.95712,E,8.748,221.74,140422,,,A*67

$GPRMC,134537.50,A,4437.81849,N,01056.95686,E,8.715,221.83,140422,,,A*62

$GPRMC,134537.60,A,4437.81824,N,01056.95660,E,8.896,221.42,140422,,,A*6B

$GPRMC,134537.70,A,4437.81801,N,01056.95637,E,8.694,219.69,140422,,,A*61

$GPRMC,134537.80,A,4437.81778,N,01056.95615,E,9.176,217.99,140422,,,A*64

$GPRMC,134537.90,A,4437.81758,N,01056.95592,E,9.303,218.62,140422,,,A*60

$GPRMC,134538.00,A,4437.81735,N,01056.95567,E,9.473,218.90,140422,,,A*6A

$GPRMC,134538.10,A,4437.81716,N,01056.95543,E,9.427,219.36,140422,,,A*60

$GPRMC,134538.20,A,4437.81693,N,01056.95519,E,9.404,218.92,140422,,,A*6E

$GPRMC,134538.30,A,4437.81673,N,01056.95494,E,9.367,219.13,140422,,,A*6F

$GPGGA,134538.30,4437.81673,N,01056.95494,E,1,07,1.11,41.1,M,46.0,M,,*6F

$GPRMC,134538.40,A,4437.81651,N,01056.95469,E,9.314,219.42,140422,,,A*6A

$GPRMC,134538.50,A,4437.81632,N,01056.95446,E,9.326,218.88,140422,,,A*65

$GPRMC,134538.60,A,4437.81607,N,01056.95419,E,9.679,219.31,140422,,,A*66

$GPRMC,134538.70,A,4437.81586,N,01056.95396,E,9.602,218.31,140422,,,A*60

$GPRMC,134538.80,A,4437.81564,N,01056.95374,E,9.680,216.33,140422,,,A*69

$GPRMC,134538.90,A,4437.81543,N,01056.95348,E,9.897,218.22,140422,,,A*64

$GPRMC,134539.00,A,4437.81518,N,01056.95325,E,10.037,216.53,140422,,,A*5B

$GPRMC,134539.10,A,4437.81492,N,01056.95301,E,10.071,216.07,140422,,,A*5C

$GPRMC,134539.20,A,4437.81470,N,01056.95276,E,10.157,217.11,140422,,,A*51

$GPRMC,134539.30,A,4437.81442,N,01056.95251,E,10.394,216.69,140422,,,A*57

$GPGGA,134539.30,4437.81442,N,01056.95251,E,1,08,1.17,40.8,M,46.0,M,,*60

$GPRMC,134539.40,A,4437.81421,N,01056.95227,E,10.011,217.10,140422,,,A*55

$GPRMC,134539.50,A,4437.81398,N,01056.95203,E,10.320,217.27,140422,,,A*52

$GPRMC,134539.60,A,4437.81374,N,01056.95178,E,10.177,217.08,140422,,,A*51

$GPRMC,134539.70,A,4437.81350,N,01056.95153,E,10.519,216.84,140422,,,A*56

$GPRMC,134539.80,A,4437.81329,N,01056.95128,E,10.446,216.67,140422,,,A*5D

$GPRMC,134539.90,A,4437.81302,N,01056.95102,E,10.592,216.68,140422,,,A*5A

$GPRMC,134540.00,A,4437.81279,N,01056.95077,E,10.517,216.91,140422,,,A*58

$GPRMC,134540.10,A,4437.81256,N,01056.95053,E,10.433,216.40,140422,,,A*59

$GPRMC,134540.20,A,4437.81233,N,01056.95025,E,10.713,217.69,140422,,,A*53

$GPRMC,134540.30,A,4437.81207,N,01056.95002,E,10.731,215.86,140422,,,A*53

$GPGGA,134540.30,4437.81207,N,01056.95002,E,1,07,1.11,40.7,M,46.0,M,,*6B

$GPRMC,134540.40,A,4437.81185,N,01056.94976,E,10.615,216.85,140422,,,A*51

$GPRMC,134540.50,A,4437.81160,N,01056.94949,E,10.926,217.04,140422,,,A*50

$GPRMC,134540.60,A,4437.81136,N,01056.94923,E,10.898,216.75,140422,,,A*5F

$GPRMC,134540.70,A,4437.81108,N,01056.94897,E,10.975,216.39,140422,,,A*57

$GPRMC,134540.80,A,4437.81084,N,01056.94871,E,10.893,216.61,140422,,,A*51

$GPRMC,134540.90,A,4437.81060,N,01056.94844,E,11.141,216.90,140422,,,A*55

$GPRMC,134541.00,A,4437.81034,N,01056.94817,E,11.223,216.87,140422,,,A*5B

$GPRMC,134541.10,A,4437.81010,N,01056.94791,E,11.062,216.99,140422,,,A*55

$GPRMC,134541.20,A,4437.80975,N,01056.94766,E,11.663,214.57,140422,,,A*52

$GPRMC,134541.30,A,4437.80951,N,01056.94741,E,11.398,214.57,140422,,,A*51

$GPGGA,134541.30,4437.80951,N,01056.94741,E,1,08,0.99,40.4,M,46.0,M,,*6F

$GPRMC,134541.40,A,4437.80927,N,01056.94717,E,11.333,214.52,140422,,,A*50

$GPRMC,134541.50,A,4437.80903,N,01056.94691,E,11.361,215.13,140422,,,A*5B

$GPRMC,134541.60,A,4437.80879,N,01056.94666,E,11.297,215.64,140422,,,A*54

$GPRMC,134541.70,A,4437.80856,N,01056.94639,E,11.274,216.71,140422,,,A*58

$GPRMC,134541.80,A,4437.80831,N,01056.94614,E,11.295,216.36,140422,,,A*55

$GPRMC,134541.90,A,4437.80806,N,01056.94588,E,11.243,216.21,140422,,,A*5B

$GPRMC,134542.00,A,4437.80785,N,01056.94560,E,11.277,217.82,140422,,,A*5C

$GPRMC,134542.10,A,4437.80761,N,01056.94535,E,11.252,217.19,140422,,,A*52

$GPRMC,134542.20,A,4437.80738,N,01056.94509,E,11.207,217.37,140422,,,A*5E

$GPRMC,134542.30,A,4437.80717,N,01056.94481,E,11.470,218.75,140422,,,A*5C

$GPGGA,134542.30,4437.80717,N,01056.94481,E,1,07,1.31,40.9,M,46.0,M,,*6E

$GPRMC,134542.40,A,4437.80694,N,01056.94455,E,11.259,218.43,140422,,,A*50

$GPRMC,134542.50,A,4437.80675,N,01056.94430,E,10.883,218.56,140422,,,A*55

$GPRMC,134542.60,A,4437.80651,N,01056.94400,E,11.450,219.53,140422,,,A*54

$GPRMC,134542.70,A,4437.80627,N,01056.94373,E,11.352,219.03,140422,,,A*57

$GPRMC,134542.80,A,4437.80606,N,01056.94346,E,11.371,219.43,140422,,,A*58

$GPRMC,134542.90,A,4437.80582,N,01056.94317,E,11.426,220.33,140422,,,A*5A

$GPRMC,134543.00,A,4437.80558,N,01056.94292,E,11.210,218.65,140422,,,A*52

$GPRMC,134543.10,A,4437.80536,N,01056.94262,E,11.350,220.61,140422,,,A*5E

$GPRMC,134543.20,A,4437.80513,N,01056.94233,E,11.364,221.34,140422,,,A*58

$GPRMC,134543.30,A,4437.80494,N,01056.94207,E,11.007,220.85,140422,,,A*5D

$GPGGA,134543.30,4437.80494,N,01056.94207,E,1,07,1.31,41.7,M,46.0,M,,*60

$GPRMC,134543.40,A,4437.80476,N,01056.94181,E,11.223,220.50,140422,,,A*57

$GPRMC,134543.50,A,4437.80460,N,01056.94154,E,10.981,221.39,140422,,,A*55

$GPRMC,134543.60,A,4437.80440,N,01056.94126,E,10.899,221.65,140422,,,A*50

$GPRMC,134543.70,A,4437.80415,N,01056.94098,E,11.117,221.06,140422,,,A*5E

$GPRMC,134543.80,A,4437.80390,N,01056.94070,E,11.089,220.46,140422,,,A*5E

$GPRMC,134543.90,A,4437.80365,N,01056.94044,E,11.091,219.23,140422,,,A*52

$GPRMC,134544.00,A,4437.80342,N,01056.94017,E,11.317,218.93,140422,,,A*58

$GPRMC,134544.10,A,4437.80318,N,01056.93987,E,11.307,219.75,140422,,,A*59

$GPRMC,134544.20,A,4437.80300,N,01056.93964,E,11.038,219.09,140422,,,A*5A

$GPRMC,134544.30,A,4437.80286,N,01056.93941,E,10.935,219.15,140422,,,A*5B

$GPGGA,134544.30,4437.80286,N,01056.93941,E,1,09,1.06,43.1,M,46.0,M,,*62

$GPRMC,134544.40,A,4437.80271,N,01056.93916,E,10.797,220.14,140422,,,A*5B

$GPRMC,134544.50,A,4437.80257,N,01056.93890,E,10.782,221.92,140422,,,A*5A

$GPRMC,134544.60,A,4437.80232,N,01056.93865,E,10.716,220.21,140422,,,A*54

$GPRMC,134544.70,A,4437.80204,N,01056.93839,E,10.782,218.16,140422,,,A*5B

$GPRMC,134544.80,A,4437.80178,N,01056.93810,E,11.088,218.60,140422,,,A*5A

$GPRMC,134544.90,A,4437.80151,N,01056.93784,E,11.023,217.74,140422,,,A*59

$GPRMC,134545.00,A,4437.80132,N,01056.93761,E,10.797,217.44,140422,,,A*55

$GPRMC,134545.10,A,4437.80120,N,01056.93738,E,10.556,219.21,140422,,,A*59

$GPRMC,134545.20,A,4437.80110,N,01056.93719,E,10.298,219.39,140422,,,A*56

$GPRMC,134545.30,A,4437.80198,N,01056.93735,E,7.858,226.23,140422,,,A*6E

$GPGGA,134545.30,4437.80198,N,01056.93735,E,1,08,1.17,47.5,M,46.0,M,,*63

$GPRMC,134545.40,A,4437.80222,N,01056.93730,E,7.568,231.36,140422,,,A*62

$GPRMC,134545.50,A,4437.80214,N,01056.93710,E,7.925,232.15,140422,,,A*63

$GPRMC,134545.60,A,4437.80202,N,01056.93690,E,7.855,230.72,140422,,,A*6B

$GPRMC,134545.70,A,4437.80189,N,01056.93671,E,7.929,228.85,140422,,,A*6E

$GPRMC,134545.80,A,4437.80175,N,01056.93651,E,7.978,226.65,140422,,,A*64

$GPRMC,134545.90,A,4437.80162,N,01056.93630,E,8.117,225.97,140422,,,A*64

$GPRMC,134546.00,A,4437.80152,N,01056.93609,E,7.794,227.24,140422,,,A*6F

$GPRMC,134546.10,A,4437.80145,N,01056.93590,E,7.870,228.06,140422,,,A*61

$GPRMC,134546.20,A,4437.80141,N,01056.93572,E,7.385,229.89,140422,,,A*6D

$GPRMC,134546.30,A,4437.80133,N,01056.93553,E,7.309,230.35,140422,,,A*61

$GPGGA,134546.30,4437.80133,N,01056.93553,E,1,08,1.75,52.9,M,46.0,M,,*6F

$GPRMC,134546.40,A,4437.80125,N,01056.93534,E,7.400,230.67,140422,,,A*69

$GPRMC,134546.50,A,4437.80113,N,01056.93515,E,7.366,229.84,140422,,,A*6C

$GPRMC,134546.60,A,4437.80095,N,01056.93498,E,7.638,225.11,140422,,,A*6A

$GPRMC,134546.70,A,4437.80084,N,01056.93474,E,7.728,226.64,140422,,,A*68

$GPRMC,134546.80,A,4437.80070,N,01056.93457,E,7.278,225.50,140422,,,A*69

$GPRMC,134546.90,A,4437.80059,N,01056.93433,E,7.296,228.23,140422,,,A*68

$GPRMC,134547.00,A,4437.80045,N,01056.93414,E,7.510,227.77,140422,,,A*6F

$GPRMC,134547.10,A,4437.80033,N,01056.93398,E,7.460,226.17,140422,,,A*6D

$GPRMC,134547.20,A,4437.80027,N,01056.93377,E,7.359,228.41,140422,,,A*6A

$GPRMC,134547.30,A,4437.80018,N,01056.93360,E,7.173,228.97,140422,,,A*60

$GPGGA,134547.30,4437.80018,N,01056.93360,E,1,10,0.84,57.5,M,46.0,M,,*6F

$GPRMC,134547.40,A,4437.80010,N,01056.93346,E,6.997,227.67,140422,,,A*68

$GPRMC,134547.50,A,4437.80007,N,01056.93326,E,6.896,230.87,140422,,,A*61

$GPRMC,134547.60,A,4437.80006,N,01056.93317,E,6.058,230.76,140422,,,A*65

$GPRMC,134547.70,A,4437.80009,N,01056.93300,E,6.320,234.93,140422,,,A*6E

$GPRMC,134547.80,A,4437.80009,N,01056.93278,E,6.347,240.66,140422,,,A*67

$GPRMC,134547.90,A,4437.80014,N,01056.93255,E,6.652,246.95,140422,,,A*6E

$GPRMC,134548.00,A,4437.80012,N,01056.93230,E,6.668,251.26,140422,,,A*6A

$GPRMC,134548.10,A,4437.80012,N,01056.93203,E,7.132,254.88,140422,,,A*63

$GPRMC,134548.20,A,4437.80009,N,01056.93179,E,7.075,255.24,140422,,,A*61

$GPRMC,134548.30,A,4437.79996,N,01056.93179,E,5.928,247.55,140422,,,A*6F

$GPGGA,134548.30,4437.79996,N,01056.93179,E,1,10,0.84,63.8,M,46.0,M,,*69

$GPRMC,134548.40,A,4437.79984,N,01056.93158,E,6.267,238.76,140422,,,A*62

$GPRMC,134548.50,A,4437.79970,N,01056.93143,E,6.242,232.79,140422,,,A*60

$GPRMC,134548.60,A,4437.79960,N,01056.93121,E,6.298,232.76,140422,,,A*6E

$GPRMC,134548.70,A,4437.79949,N,01056.93098,E,6.550,233.73,140422,,,A*60

$GPRMC,134548.80,A,4437.79938,N,01056.93078,E,6.283,234.20,140422,,,A*6F

$GPRMC,134548.90,A,4437.79924,N,01056.93065,E,5.704,231.78,140422,,,A*6E

$GPRMC,134549.00,A,4437.79910,N,01056.93049,E,6.050,228.21,140422,,,A*6E

$GPRMC,134549.10,A,4437.79893,N,01056.93039,E,5.767,222.11,140422,,,A*6B

$GPRMC,134549.20,A,4437.79884,N,01056.93017,E,6.038,224.73,140422,,,A*6E

$GPRMC,134549.30,A,4437.79870,N,01056.93002,E,6.234,224.36,140422,,,A*6F

$GPGGA,134549.30,4437.79870,N,01056.93002,E,1,10,0.84,68.4,M,46.0,M,,*6B

$GPRMC,134549.40,A,4437.79855,N,01056.92989,E,5.845,220.98,140422,,,A*6B

$GPRMC,134549.50,A,4437.79838,N,01056.92974,E,6.458,217.27,140422,,,A*60

$GPRMC,134549.60,A,4437.79828,N,01056.92955,E,6.168,219.71,140422,,,A*6A

$GPRMC,134549.70,A,4437.79814,N,01056.92936,E,6.266,221.92,140422,,,A*6A

$GPRMC,134549.80,A,4437.79802,N,01056.92916,E,6.387,224.18,140422,,,A*69

$GPRMC,134549.90,A,4437.79793,N,01056.92892,E,6.502,228.37,140422,,,A*68

$GPRMC,134550.00,A,4437.79787,N,01056.92864,E,6.676,234.28,140422,,,A*66

$GPRMC,134550.10,A,4437.79799,N,01056.92829,E,7.515,250.48,140422,,,A*62

$GPRMC,134550.20,A,4437.79794,N,01056.92799,E,7.495,254.36,140422,,,A*6C

$GPRMC,134550.30,A,4437.79790,N,01056.92767,E,7.714,256.86,140422,,,A*6B

$GPGGA,134550.30,4437.79790,N,01056.92767,E,1,10,0.91,73.2,M,46.0,M,,*6F

$GPRMC,134550.40,A,4437.79787,N,01056.92734,E,7.964,258.18,140422,,,A*6C

$GPRMC,134550.50,A,4437.79785,N,01056.92704,E,7.777,259.86,140422,,,A*66

$GPRMC,134550.60,A,4437.79782,N,01056.92668,E,8.335,260.52,140422,,,A*67

$GPRMC,134550.70,A,4437.79776,N,01056.92637,E,8.316,259.67,140422,,,A*6A

$GPRMC,134550.80,A,4437.79770,N,01056.92604,E,8.215,259.10,140422,,,A*61

$GPRMC,134550.90,A,4437.79767,N,01056.92569,E,8.399,259.13,140422,,,A*68

$GPRMC,134551.00,A,4437.79764,N,01056.92531,E,8.693,259.91,140422,,,A*6B

$GPRMC,134551.10,A,4437.79765,N,01056.92496,E,8.640,262.02,140422,,,A*6B

$GPRMC,134551.20,A,4437.79767,N,01056.92459,E,8.838,264.24,140422,,,A*6A

$GPRMC,134551.30,A,4437.79759,N,01056.92436,E,8.072,262.70,140422,,,A*6E

$GPGGA,134551.30,4437.79759,N,01056.92436,E,1,09,0.89,78.0,M,46.0,M,,*64

$GPRMC,134551.40,A,4437.79751,N,01056.92406,E,7.821,261.07,140422,,,A*60

$GPRMC,134551.50,A,4437.79734,N,01056.92384,E,7.409,256.04,140422,,,A*6E

$GPRMC,134551.60,A,4437.79725,N,01056.92350,E,7.589,253.90,140422,,,A*65

$GPRMC,134551.70,A,4437.79710,N,01056.92318,E,7.666,251.91,140422,,,A*6F

$GPRMC,134551.80,A,4437.79689,N,01056.92291,E,7.498,248.21,140422,,,A*61

$GPRMC,134551.90,A,4437.79662,N,01056.92272,E,6.864,241.12,140422,,,A*6F

$GPRMC,134552.00,A,4437.79641,N,01056.92242,E,7.332,236.41,140422,,,A*68

$GPRMC,134552.10,A,4437.79611,N,01056.92215,E,7.600,231.45,140422,,,A*69

$GPRMC,134552.20,A,4437.79587,N,01056.92190,E,7.735,227.40,140422,,,A*6D

$GPRMC,134552.30,A,4437.79568,N,01056.92158,E,7.995,228.07,140422,,,A*61

$GPGGA,134552.30,4437.79568,N,01056.92158,E,1,09,0.88,80.5,M,46.0,M,,*69

$GPRMC,134552.40,A,4437.79547,N,01056.92131,E,7.799,228.80,140422,,,A*69

$GPRMC,134552.50,A,4437.79536,N,01056.92088,E,8.280,234.93,140422,,,A*60

$GPRMC,134552.60,A,4437.79517,N,01056.92059,E,8.080,237.07,140422,,,A*60

$GPRMC,134552.70,A,4437.79496,N,01056.92033,E,7.724,237.05,140422,,,A*61

$GPRMC,134552.80,A,4437.79479,N,01056.92006,E,7.495,237.06,140422,,,A*63

$GPRMC,134552.90,A,4437.79465,N,01056.91977,E,7.671,237.83,140422,,,A*66

$GPRMC,134553.00,A,4437.79455,N,01056.91956,E,7.495,237.64,140422,,,A*6F

$GPRMC,134553.10,A,4437.79436,N,01056.91928,E,7.345,237.07,140422,,,A*6D

$GPRMC,134553.20,A,4437.79413,N,01056.91903,E,7.373,235.13,140422,,,A*62

$GPRMC,134553.30,A,4437.79390,N,01056.91876,E,7.121,234.13,140422,,,A*68

$GPGGA,134553.30,4437.79390,N,01056.91876,E,1,09,0.88,82.7,M,46.0,M,,*6F

$GPRMC,134553.40,A,4437.79360,N,01056.91852,E,7.088,231.90,140422,,,A*6A

$GPRMC,134553.50,A,4437.79330,N,01056.91828,E,6.937,230.10,140422,,,A*66

$GPRMC,134553.60,A,4437.79302,N,01056.91802,E,6.588,229.87,140422,,,A*62

$GPRMC,134553.70,A,4437.79272,N,01056.91778,E,6.351,229.43,140422,,,A*6D

$GPRMC,134553.80,A,4437.79240,N,01056.91758,E,6.089,227.47,140422,,,A*6D

$GPRMC,134553.90,A,4437.79208,N,01056.91738,E,6.102,224.68,140422,,,A*6A

$GPRMC,134554.00,A,4437.79157,N,01056.91720,E,6.306,216.27,140422,,,A*68

$GPRMC,134554.10,A,4437.79107,N,01056.91709,E,6.774,206.61,140422,,,A*65

$GPRMC,134554.20,A,4437.79062,N,01056.91693,E,7.199,199.26,140422,,,A*64

$GPRMC,134554.30,A,4437.79008,N,01056.91679,E,7.917,192.00,140422,,,A*6C

$GPGGA,134554.30,4437.79008,N,01056.91679,E,1,10,0.88,80.4,M,46.0,M,,*62

$GPRMC,134554.40,A,4437.78991,N,01056.91657,E,5.488,196.33,140422,,,A*62

$GPRMC,134554.50,A,4437.78967,N,01056.91641,E,5.241,202.34,140422,,,A*67

$GPRMC,134554.60,A,4437.78949,N,01056.91622,E,5.050,208.17,140422,,,A*64

$GPRMC,134554.70,A,4437.78927,N,01056.91604,E,4.719,212.06,140422,,,A*69

$GPRMC,134554.80,A,4437.78905,N,01056.91588,E,4.314,215.49,140422,,,A*64

$GPRMC,134554.90,A,4437.78882,N,01056.91570,E,4.669,218.91,140422,,,A*6B

$GPRMC,134555.00,A,4437.78861,N,01056.91549,E,4.123,222.64,140422,,,A*6E

$GPRMC,134555.10,A,4437.78837,N,01056.91535,E,3.942,223.43,140422,,,A*6B

$GPRMC,134555.20,A,4437.78813,N,01056.91522,E,3.557,221.97,140422,,,A*6B

$GPRMC,134555.30,A,4437.78785,N,01056.91511,E,3.190,213.86,140422,,,A*64

$GPGGA,134555.30,4437.78785,N,01056.91511,E,1,09,0.88,78.9,M,46.0,M,,*6F

$GPRMC,134555.40,A,4437.78766,N,01056.91496,E,3.317,212.76,140422,,,A*63

$GPRMC,134555.50,A,4437.78747,N,01056.91473,E,4.984,220.11,140422,,,A*6D

$GPRMC,134555.60,A,4437.78722,N,01056.91460,E,4.219,220.95,140422,,,A*6C

$GPRMC,134555.70,A,4437.78708,N,01056.91450,E,3.759,219.35,140422,,,A*60

$GPRMC,134555.80,A,4437.78697,N,01056.91434,E,3.160,220.97,140422,,,A*64

$GPRMC,134555.90,A,4437.78689,N,01056.91420,E,2.193,223.99,140422,,,A*6F

$GPRMC,134556.00,A,4437.78672,N,01056.91403,E,5.285,222.13,140422,,,A*60

$GPRMC,134556.10,A,4437.78659,N,01056.91385,E,5.297,223.47,140422,,,A*62

$GPRMC,134556.20,A,4437.78647,N,01056.91370,E,4.710,224.91,140422,,,A*63

$GPRMC,134556.30,A,4437.78633,N,01056.91357,E,4.326,224.93,140422,,,A*67

$GPGGA,134556.30,4437.78633,N,01056.91357,E,1,10,0.88,78.3,M,46.0,M,,*66

$GPRMC,134556.40,A,4437.78623,N,01056.91343,E,4.188,225.49,140422,,,A*64

$GPRMC,134556.50,A,4437.78612,N,01056.91323,E,4.875,226.96,140422,,,A*6B

$GPRMC,134556.60,A,4437.78604,N,01056.91302,E,5.243,229.84,140422,,,A*6E

$GPRMC,134556.70,A,4437.78595,N,01056.91282,E,5.366,232.43,140422,,,A*6A

$GPRMC,134556.80,A,4437.78589,N,01056.91261,E,5.271,236.01,140422,,,A*60

$GPRMC,134556.90,A,4437.78580,N,01056.91242,E,5.200,237.94,140422,,,A*62

$GPRMC,134557.00,A,4437.78571,N,01056.91225,E,5.058,238.51,140422,,,A*6C

$GPRMC,134557.10,A,4437.78564,N,01056.91209,E,4.883,239.00,140422,,,A*6D

$GPRMC,134557.20,A,4437.78556,N,01056.91195,E,4.704,238.61,140422,,,A*6F

$GPRMC,134557.30,A,4437.78550,N,01056.91178,E,5.007,238.70,140422,,,A*6E

$GPGGA,134557.30,4437.78550,N,01056.91178,E,1,10,0.88,79.5,M,46.0,M,,*69

$GPRMC,134557.40,A,4437.78540,N,01056.91163,E,4.741,238.72,140422,,,A*64

$GPRMC,134557.50,A,4437.78530,N,01056.91150,E,4.783,237.24,140422,,,A*60

$GPRMC,134557.60,A,4437.78518,N,01056.91134,E,4.707,235.81,140422,,,A*6A

$GPRMC,134557.70,A,4437.78506,N,01056.91120,E,4.794,234.69,140422,,,A*6C

$GPRMC,134557.80,A,4437.78495,N,01056.91106,E,4.636,234.25,140422,,,A*6D

$GPRMC,134557.90,A,4437.78485,N,01056.91094,E,4.510,234.30,140422,,,A*64

$GPRMC,134558.00,A,4437.78488,N,01056.91089,E,3.813,236.41,140422,,,A*6E

$GPRMC,134558.10,A,4437.78484,N,01056.91103,E,3.006,229.46,140422,,,A*65

$GPRMC,134558.20,A,4437.78473,N,01056.91094,E,3.612,222.75,140422,,,A*69

$GPRMC,134558.30,A,4437.78466,N,01056.91076,E,3.993,225.16,140422,,,A*64

$GPGGA,134558.30,4437.78466,N,01056.91076,E,1,10,0.84,81.9,M,46.0,M,,*6A

$GPRMC,134558.40,A,4437.78455,N,01056.91056,E,4.606,228.55,140422,,,A*6F

$GPRMC,134558.50,A,4437.78445,N,01056.91038,E,4.549,231.09,140422,,,A*6E

$GPRMC,134558.60,A,4437.78434,N,01056.91025,E,4.194,230.50,140422,,,A*6E

$GPRMC,134558.70,A,4437.78429,N,01056.91005,E,4.573,234.69,140422,,,A*62

$GPRMC,134558.80,A,4437.78421,N,01056.90989,E,4.510,236.69,140422,,,A*6E

$GPRMC,134558.90,A,4437.78418,N,01056.90970,E,4.122,242.88,140422,,,A*6A

$GPRMC,134559.00,A,4437.78433,N,01056.90969,E,3.100,251.46,140422,,,A*64

$GPRMC,134559.10,A,4437.78439,N,01056.90962,E,2.984,263.94,140422,,,A*6F

$GPRMC,134559.20,A,4437.78435,N,01056.90947,E,3.413,265.72,140422,,,A*6B

$GPRMC,134559.30,A,4437.78425,N,01056.90934,E,3.468,261.39,140422,,,A*68

$GPGGA,134559.30,4437.78425,N,01056.90934,E,1,09,0.89,85.2,M,46.0,M,,*68

$GPRMC,134559.40,A,4437.78415,N,01056.90918,E,3.651,257.27,140422,,,A*60

$GPRMC,134559.50,A,4437.78407,N,01056.90901,E,3.746,254.48,140422,,,A*67

$GPRMC,134559.60,A,4437.78394,N,01056.90890,E,3.410,248.56,140422,,,A*62

$GPRMC,134559.70,A,4437.78382,N,01056.90873,E,3.898,244.12,140422,,,A*69

$GPRMC,134559.80,A,4437.78372,N,01056.90856,E,4.122,242.50,140422,,,A*61

$GPRMC,134559.90,A,4437.78363,N,01056.90843,E,4.073,241.25,140422,,,A*60

$GPRMC,134600.00,A,4437.78351,N,01056.90827,E,4.157,239.75,140422,,,A*68

$GPRMC,134600.10,A,4437.78339,N,01056.90813,E,4.173,238.25,140422,,,A*62

$GPRMC,134600.20,A,4437.78327,N,01056.90798,E,4.334,235.79,140422,,,A*67

$GPRMC,134600.30,A,4437.78317,N,01056.90783,E,4.346,235.86,140422,,,A*6A

$GPGGA,134600.30,4437.78317,N,01056.90783,E,1,10,0.84,87.4,M,46.0,M,,*62

$GPRMC,134600.40,A,4437.78306,N,01056.90771,E,4.132,233.99,140422,,,A*69

$GPRMC,134600.50,A,4437.78295,N,01056.90759,E,3.827,233.82,140422,,,A*69

$GPRMC,134600.60,A,4437.78288,N,01056.90744,E,3.972,237.89,140422,,,A*64

$GPRMC,134600.70,A,4437.78276,N,01056.90727,E,4.183,237.80,140422,,,A*69

$GPRMC,134600.80,A,4437.78265,N,01056.90714,E,4.031,234.88,140422,,,A*67

$GPRMC,134600.90,A,4437.78255,N,01056.90702,E,3.831,233.52,140422,,,A*6D

$GPRMC,134601.00,A,4437.78242,N,01056.90687,E,3.937,234.48,140422,,,A*64

$GPRMC,134601.10,A,4437.78229,N,01056.90671,E,4.271,236.56,140422,,,A*62

$GPRMC,134601.20,A,4437.78227,N,01056.90664,E,3.322,239.53,140422,,,A*61

$GPRMC,134601.30,A,4437.78219,N,01056.90644,E,3.808,244.94,140422,,,A*6D

$GPGGA,134601.30,4437.78219,N,01056.90644,E,1,10,0.84,90.0,M,46.0,M,,*64

$GPRMC,134601.40,A,4437.78207,N,01056.90627,E,4.127,243.53,140422,,,A*6F

$GPRMC,134601.50,A,4437.78202,N,01056.90616,E,3.598,246.39,140422,,,A*67

$GPRMC,134601.60,A,4437.78188,N,01056.90598,E,4.114,245.86,140422,,,A*60

$GPRMC,134601.70,A,4437.78180,N,01056.90575,E,4.796,249.74,140422,,,A*67

$GPRMC,134601.80,A,4437.78172,N,01056.90559,E,4.412,250.50,140422,,,A*6A

$GPRMC,134601.90,A,4437.78162,N,01056.90545,E,4.013,249.70,140422,,,A*68

$GPRMC,134602.00,A,4437.78153,N,01056.90526,E,4.414,251.60,140422,,,A*6E

$GPRMC,134602.10,A,4437.78141,N,01056.90511,E,4.507,252.31,140422,,,A*6C

$GPRMC,134602.20,A,4437.78130,N,01056.90495,E,4.284,251.62,140422,,,A*6D

$GPRMC,134602.30,A,4437.78117,N,01056.90480,E,4.259,246.99,140422,,,A*6F

$GPGGA,134602.30,4437.78117,N,01056.90480,E,1,10,0.84,92.6,M,46.0,M,,*64

$GPRMC,134602.40,A,4437.78104,N,01056.90461,E,4.514,244.14,140422,,,A*6C

$GPRMC,134602.50,A,4437.78088,N,01056.90448,E,4.244,237.72,140422,,,A*65

$GPRMC,134602.60,A,4437.78078,N,01056.90425,E,4.835,237.98,140422,,,A*6A

$GPRMC,134602.70,A,4437.78064,N,01056.90408,E,4.743,236.20,140422,,,A*65

$GPRMC,134602.80,A,4437.78053,N,01056.90390,E,4.573,237.28,140422,,,A*60

$GPRMC,134602.90,A,4437.78042,N,01056.90367,E,5.307,240.58,140422,,,A*6A

$GPRMC,134603.00,A,4437.78027,N,01056.90344,E,5.489,241.27,140422,,,A*68

$GPRMC,134603.10,A,4437.78016,N,01056.90323,E,5.478,242.38,140422,,,A*69

$GPRMC,134603.20,A,4437.78004,N,01056.90301,E,5.382,242.80,140422,,,A*68

$GPRMC,134603.30,A,4437.77989,N,01056.90282,E,5.412,240.76,140422,,,A*65

$GPGGA,134603.30,4437.77989,N,01056.90282,E,1,10,0.91,94.9,M,46.0,M,,*6C

$GPRMC,134603.40,A,4437.77976,N,01056.90265,E,5.246,237.88,140422,,,A*6D

$GPRMC,134603.50,A,4437.77964,N,01056.90244,E,5.464,236.15,140422,,,A*6F

$GPRMC,134603.60,A,4437.77955,N,01056.90219,E,5.630,238.92,140422,,,A*64

$GPRMC,134603.70,A,4437.77945,N,01056.90195,E,5.487,240.95,140422,,,A*65

$GPRMC,134603.80,A,4437.77935,N,01056.90167,E,5.911,243.98,140422,,,A*6C

$GPRMC,134603.90,A,4437.77925,N,01056.90140,E,5.946,246.94,140422,,,A*62

$GPRMC,134604.00,A,4437.77911,N,01056.90116,E,5.886,247.46,140422,,,A*6B

$GPRMC,134604.10,A,4437.77899,N,01056.90087,E,6.044,249.09,140422,,,A*62

$GPRMC,134604.20,A,4437.77889,N,01056.90057,E,6.205,251.41,140422,,,A*6F

$GPRMC,134604.30,A,4437.77879,N,01056.90022,E,6.980,252.93,140422,,,A*69

$GPGGA,134604.30,4437.77879,N,01056.90022,E,1,10,0.84,97.2,M,46.0,M,,*61

$GPRMC,134604.40,A,4437.77872,N,01056.89992,E,6.635,255.71,140422,,,A*65

$GPRMC,134604.50,A,4437.77862,N,01056.89960,E,6.982,256.59,140422,,,A*62

$GPRMC,134604.60,A,4437.77848,N,01056.89931,E,6.841,256.43,140422,,,A*68

$GPRMC,134604.70,A,4437.77829,N,01056.89901,E,6.673,255.42,140422,,,A*60

$GPRMC,134604.80,A,4437.77823,N,01056.89865,E,6.909,257.30,140422,,,A*63

$GPRMC,134604.90,A,4437.77806,N,01056.89839,E,6.719,255.96,140422,,,A*6D

$GPRMC,134605.00,A,4437.77789,N,01056.89811,E,6.705,253.33,140422,,,A*63

$GPRMC,134605.10,A,4437.77768,N,01056.89786,E,6.578,249.75,140422,,,A*6D

$GPRMC,134605.20,A,4437.77753,N,01056.89765,E,6.204,246.30,140422,,,A*69

$GPRMC,134605.30,A,4437.77735,N,01056.89738,E,6.421,243.15,140422,,,A*63

$GPGGA,134605.30,4437.77735,N,01056.89738,E,1,09,0.91,98.6,M,46.0,M,,*64

$GPRMC,134605.40,A,4437.77715,N,01056.89709,E,6.732,241.58,140422,,,A*6E

$GPRMC,134605.50,A,4437.77690,N,01056.89685,E,6.788,238.27,140422,,,A*61

$GPRMC,134605.60,A,4437.77664,N,01056.89660,E,6.848,234.35,140422,,,A*6E

$GPRMC,134605.70,A,4437.77640,N,01056.89633,E,7.024,231.95,140422,,,A*63

$GPRMC,134605.80,A,4437.77620,N,01056.89606,E,7.059,231.29,140422,,,A*61

$GPRMC,134605.90,A,4437.77604,N,01056.89582,E,7.153,230.59,140422,,,A*64

$GPRMC,134606.00,A,4437.77590,N,01056.89552,E,7.113,232.35,140422,,,A*61

$GPRMC,134606.10,A,4437.77575,N,01056.89522,E,7.236,234.73,140422,,,A*6C

$GPRMC,134606.20,A,4437.77550,N,01056.89494,E,7.532,234.46,140422,,,A*61

$GPRMC,134606.30,A,4437.77522,N,01056.89468,E,7.303,233.20,140422,,,A*65

$GPGGA,134606.30,4437.77522,N,01056.89468,E,1,09,0.96,99.2,M,46.0,M,,*67

$GPRMC,134606.40,A,4437.77492,N,01056.89442,E,7.479,231.10,140422,,,A*6B

$GPRMC,134606.50,A,4437.77472,N,01056.89414,E,7.690,230.95,140422,,,A*6E

$GPRMC,134606.60,A,4437.77442,N,01056.89389,E,7.722,229.94,140422,,,A*6C

$GPRMC,134606.70,A,4437.77419,N,01056.89364,E,7.712,228.99,140422,,,A*6F

$GPRMC,134606.80,A,4437.77388,N,01056.89339,E,7.667,227.38,140422,,,A*60

$GPRMC,134606.90,A,4437.77358,N,01056.89310,E,7.965,226.90,140422,,,A*69

$GPRMC,134607.00,A,4437.77328,N,01056.89281,E,8.145,226.88,140422,,,A*63

$GPRMC,134607.10,A,4437.77293,N,01056.89251,E,7.970,227.46,140422,,,A*6C

$GPRMC,134607.20,A,4437.77265,N,01056.89225,E,8.285,227.37,140422,,,A*6D

$GPRMC,134607.30,A,4437.77234,N,01056.89201,E,8.395,226.13,140422,,,A*69

$GPGGA,134607.30,4437.77234,N,01056.89201,E,1,09,0.99,98.6,M,46.0,M,,*65

$GPRMC,134607.40,A,4437.77192,N,01056.89173,E,8.245,225.57,140422,,,A*68

$GPRMC,134607.50,A,4437.77143,N,01056.89152,E,8.481,223.45,140422,,,A*6D

$GPRMC,134607.60,A,4437.77086,N,01056.89129,E,8.764,221.36,140422,,,A*64

$GPRMC,134607.70,A,4437.77039,N,01056.89105,E,8.887,219.82,140422,,,A*69

$GPRMC,134607.80,A,4437.77005,N,01056.89079,E,8.638,219.67,140422,,,A*62

$GPRMC,134607.90,A,4437.76963,N,01056.89054,E,8.664,219.95,140422,,,A*60

$GPRMC,134608.00,A,4437.76920,N,01056.89028,E,9.002,220.37,140422,,,A*6F

$GPRMC,134608.10,A,4437.76874,N,01056.89005,E,9.159,219.98,140422,,,A*61

$GPRMC,134608.20,A,4437.76841,N,01056.88981,E,9.183,220.06,140422,,,A*6A

$GPRMC,134608.30,A,4437.76812,N,01056.88948,E,8.782,223.46,140422,,,A*69

$GPGGA,134608.30,4437.76812,N,01056.88948,E,1,09,0.91,95.7,M,46.0,M,,*66

$GPRMC,134608.40,A,4437.76789,N,01056.88918,E,8.934,227.70,140422,,,A*64

$GPRMC,134608.50,A,4437.76753,N,01056.88888,E,8.934,231.36,140422,,,A*6F

$GPRMC,134608.60,A,4437.76714,N,01056.88856,E,9.190,233.86,140422,,,A*62

$GPRMC,134608.70,A,4437.76678,N,01056.88823,E,9.270,235.16,140422,,,A*68

$GPRMC,134608.80,A,4437.76646,N,01056.88788,E,9.346,236.44,140422,,,A*64

$GPRMC,134608.90,A,4437.76614,N,01056.88755,E,9.394,237.92,140422,,,A*67

$GPRMC,134609.00,A,4437.76585,N,01056.88723,E,9.346,238.53,140422,,,A*68

$GPRMC,134609.10,A,4437.76545,N,01056.88692,E,9.676,237.22,140422,,,A*61

$GPRMC,134609.20,A,4437.76516,N,01056.88659,E,9.313,236.61,140422,,,A*63

$GPRMC,134609.30,A,4437.76483,N,01056.88620,E,9.775,235.58,140422,,,A*6C

$GPGGA,134609.30,4437.76483,N,01056.88620,E,1,09,0.96,93.8,M,46.0,M,,*6C

$GPRMC,134609.40,A,4437.76446,N,01056.88578,E,9.809,234.59,140422,,,A*68

$GPRMC,134609.50,A,4437.76405,N,01056.88535,E,9.898,234.29,140422,,,A*68

$GPRMC,134609.60,A,4437.76366,N,01056.88491,E,9.960,234.48,140422,,,A*67

$GPRMC,134609.70,A,4437.76327,N,01056.88446,E,10.179,234.32,140422,,,A*5C

$GPRMC,134609.80,A,4437.76287,N,01056.88403,E,10.481,234.75,140422,,,A*58

$GPRMC,134609.90,A,4437.76258,N,01056.88361,E,10.345,235.02,140422,,,A*56

$GPRMC,134610.00,A,4437.76228,N,01056.88308,E,10.389,236.71,140422,,,A*58

$GPRMC,134610.10,A,4437.76200,N,01056.88255,E,10.361,237.11,140422,,,A*5B

$GPRMC,134610.20,A,4437.76172,N,01056.88199,E,10.302,237.21,140422,,,A*5B

$GPRMC,134610.30,A,4437.76142,N,01056.88142,E,10.384,237.36,140422,,,A*57

$GPGGA,134610.30,4437.76142,N,01056.88142,E,1,09,0.91,89.9,M,46.0,M,,*62

$GPRMC,134610.40,A,4437.76110,N,01056.88095,E,10.569,236.83,140422,,,A*56

$GPRMC,134610.50,A,4437.76082,N,01056.88053,E,10.085,234.45,140422,,,A*58

$GPRMC,134610.60,A,4437.76054,N,01056.88006,E,9.872,232.71,140422,,,A*69

$GPRMC,134610.70,A,4437.76025,N,01056.87965,E,9.652,229.62,140422,,,A*69

$GPRMC,134610.80,A,4437.75992,N,01056.87927,E,9.851,226.68,140422,,,A*6E

$GPRMC,134610.90,A,4437.75960,N,01056.87886,E,10.185,225.54,140422,,,A*5C

$GPRMC,134611.00,A,4437.75912,N,01056.87836,E,11.095,226.87,140422,,,A*56

$GPRMC,134611.10,A,4437.75872,N,01056.87806,E,10.181,223.24,140422,,,A*5A

$GPRMC,134611.20,A,4437.75846,N,01056.87770,E,9.804,223.79,140422,,,A*64

$GPRMC,134611.30,A,4437.75820,N,01056.87737,E,9.792,224.54,140422,,,A*6E

$GPGGA,134611.30,4437.75820,N,01056.87737,E,1,09,0.94,87.2,M,46.0,M,,*66

$GPRMC,134611.40,A,4437.75791,N,01056.87708,E,9.864,223.34,140422,,,A*67

$GPRMC,134611.50,A,4437.75764,N,01056.87674,E,9.942,224.69,140422,,,A*6C

$GPRMC,134611.60,A,4437.75733,N,01056.87643,E,10.105,224.74,140422,,,A*56

$GPRMC,134611.70,A,4437.75705,N,01056.87610,E,10.049,224.97,140422,,,A*50

$GPRMC,134611.80,A,4437.75674,N,01056.87574,E,10.523,224.88,140422,,,A*5E

$GPRMC,134611.90,A,4437.75646,N,01056.87538,E,10.253,225.78,140422,,,A*58

$GPRMC,134612.00,A,4437.75618,N,01056.87501,E,10.329,225.93,140422,,,A*5A

$GPRMC,134612.10,A,4437.75588,N,01056.87464,E,10.518,225.53,140422,,,A*5B

$GPRMC,134612.20,A,4437.75559,N,01056.87428,E,10.229,226.99,140422,,,A*5C

$GPRMC,134612.30,A,4437.75528,N,01056.87395,E,10.474,226.96,140422,,,A*5B

$GPGGA,134612.30,4437.75528,N,01056.87395,E,1,09,0.94,86.1,M,46.0,M,,*6E

$GPRMC,134612.40,A,4437.75515,N,01056.87364,E,9.973,226.62,140422,,,A*65

$GPRMC,134612.50,A,4437.75488,N,01056.87335,E,10.054,226.28,140422,,,A*5F

$GPRMC,134612.60,A,4437.75455,N,01056.87303,E,10.395,226.92,140422,,,A*56

$GPRMC,134612.70,A,4437.75421,N,01056.87261,E,10.548,227.98,140422,,,A*5C

$GPRMC,134612.80,A,4437.75384,N,01056.87221,E,10.940,227.56,140422,,,A*59

$GPRMC,134612.90,A,4437.75350,N,01056.87181,E,10.996,227.76,140422,,,A*51

$GPRMC,134613.00,A,4437.75301,N,01056.87137,E,11.502,227.92,140422,,,A*5A

$GPRMC,134613.10,A,4437.75256,N,01056.87091,E,11.502,227.83,140422,,,A*55

$GPRMC,134613.20,A,4437.75209,N,01056.87045,E,11.872,227.25,140422,,,A*53

$GPRMC,134613.30,A,4437.75168,N,01056.87006,E,11.615,225.98,140422,,,A*5A

$GPGGA,134613.30,4437.75168,N,01056.87006,E,1,09,0.94,83.5,M,46.0,M,,*67

$GPRMC,134613.40,A,4437.75128,N,01056.86967,E,11.613,225.39,140422,,,A*5B

$GPRMC,134613.50,A,4437.75085,N,01056.86931,E,11.755,224.36,140422,,,A*52

$GPRMC,134613.60,A,4437.75047,N,01056.86895,E,11.758,223.46,140422,,,A*5D

$GPRMC,134613.70,A,4437.74988,N,01056.86855,E,12.294,222.22,140422,,,A*5E

$GPRMC,134613.80,A,4437.74944,N,01056.86814,E,12.527,221.54,140422,,,A*59

$GPRMC,134613.90,A,4437.74902,N,01056.86772,E,12.177,221.98,140422,,,A*54

$GPRMC,134614.00,A,4437.74848,N,01056.86732,E,12.705,220.55,140422,,,A*52

$GPRMC,134614.10,A,4437.74804,N,01056.86689,E,12.484,220.97,140422,,,A*5E

$GPRMC,134614.20,A,4437.74760,N,01056.86652,E,12.484,219.91,140422,,,A*5A

$GPRMC,134614.30,A,4437.74714,N,01056.86616,E,12.681,218.71,140422,,,A*50

$GPGGA,134614.30,4437.74714,N,01056.86616,E,1,09,1.11,79.3,M,46.0,M,,*65

$GPRMC,134614.40,A,4437.74660,N,01056.86581,E,12.988,216.31,140422,,,A*54

$GPRMC,134614.50,A,4437.74609,N,01056.86548,E,12.472,215.71,140422,,,A*50

$GPRMC,134614.60,A,4437.74563,N,01056.86515,E,12.436,214.55,140422,,,A*53

$GPRMC,134614.70,A,4437.74519,N,01056.86480,E,12.120,214.36,140422,,,A*55

$GPRMC,134614.80,A,4437.74466,N,01056.86451,E,11.880,213.61,140422,,,A*5A

$GPRMC,134614.90,A,4437.74416,N,01056.86425,E,11.484,211.54,140422,,,A*53

$GPRMC,134615.00,A,4437.74366,N,01056.86401,E,10.962,209.16,140422,,,A*56

$GPRMC,134615.10,A,4437.74317,N,01056.86380,E,10.931,206.94,140422,,,A*5C

$GPRMC,134615.20,A,4437.74268,N,01056.86361,E,10.603,205.40,140422,,,A*5D

$GPRMC,134615.30,A,4437.74220,N,01056.86348,E,10.124,202.03,140422,,,A*59

$GPGGA,134615.30,4437.74220,N,01056.86348,E,1,09,1.11,74.6,M,46.0,M,,*60

$GPRMC,134615.40,A,4437.74170,N,01056.86333,E,10.448,200.62,140422,,,A*5E

$GPRMC,134615.50,A,4437.74123,N,01056.86322,E,9.806,197.11,140422,,,A*6E

$GPRMC,134615.60,A,4437.74081,N,01056.86310,E,9.482,195.23,140422,,,A*66

$GPRMC,134615.70,A,4437.74049,N,01056.86300,E,9.638,193.29,140422,,,A*6D

$GPRMC,134615.80,A,4437.74022,N,01056.86289,E,8.667,192.42,140422,,,A*68

$GPRMC,134615.90,A,4437.73993,N,01056.86284,E,9.477,189.15,140422,,,A*6A

$GPRMC,134616.00,A,4437.73966,N,01056.86278,E,8.814,184.86,140422,,,A*66

$GPRMC,134616.10,A,4437.73938,N,01056.86274,E,8.950,183.12,140422,,,A*6B

$GPRMC,134616.20,A,4437.73910,N,01056.86272,E,8.834,180.20,140422,,,A*65

$GPRMC,134616.30,A,4437.73882,N,01056.86272,E,8.668,175.81,140422,,,A*68

$GPGGA,134616.30,4437.73882,N,01056.86272,E,1,09,1.11,72.7,M,46.0,M,,*69

$GPRMC,134616.40,A,4437.73853,N,01056.86268,E,8.876,175.37,140422,,,A*64

$GPRMC,134616.50,A,4437.73830,N,01056.86267,E,8.506,173.25,140422,,,A*60

$GPRMC,134616.60,A,4437.73803,N,01056.86267,E,8.639,171.48,140422,,,A*65

$GPRMC,134616.70,A,4437.73774,N,01056.86267,E,8.911,169.96,140422,,,A*64

$GPRMC,134616.80,A,4437.73749,N,01056.86267,E,8.548,168.57,140422,,,A*69

$GPRMC,134616.90,A,4437.73725,N,01056.86268,E,8.200,166.90,140422,,,A*63

$GPRMC,134617.00,A,4437.73706,N,01056.86276,E,7.780,162.35,140422,,,A*6C

