
$GPRMC,134827.90,A,4437.78775,N,01057.00146,E,0.292,,140422,,,A*74

$GPRMC,134828.00,A,4437.78775,N,01057.00144,E,0.144,,140422,,,A*78

$GPRMC,134828.10,A,4437.78774,N,01057.00144,E,0.078,,140422,,,A*76

$GPRMC,134828.20,A,4437.78774,N,01057.00143,E,0.104,,140422,,,A*78

$GPGGA,134828.20,4437.78774,N,01057.00143,E,1,10,1.37,33.3,M,46.0,M,,*65

$GPRMC,134828.30,A,4437.78773,N,01057.00143,E,0.109,,140422,,,A*73

$GPRMC,134828.40,A,4437.78774,N,01057.00142,E,0.038,,140422,,,A*71

$GPRMC,134828.50,A,4437.78774,N,01057.00141,E,0.090,,140422,,,A*71

$GPRMC,134828.60,A,4437.78774,N,01057.00141,E,0.038,,140422,,,A*70

$GPRMC,134828.70,A,4437.78775,N,01057.00140,E,0.114,,140422,,,A*7E

$GPRMC,134828.80,A,4437.78774,N,01057.00140,E,0.061,,140422,,,A*73

$GPRMC,134828.90,A,4437.78776,N,01057.00138,E,0.058,,140422,,,A*75

$GPRMC,134829.00,A,4437.78776,N,01057.00138,E,0.257,,140422,,,A*70

$GPRMC,134829.10,A,4437.78777,N,01057.00138,E,0.638,52.27,140422,,,A*51

$GPRMC,134829.20,A,4437.78780,N,01057.00137,E,0.710,41.24,140422,,,A*5F

$GPGGA,134829.20,4437.78780,N,01057.00137,E,1,10,1.37,33.4,M,46.0,M,,*6B

$GPRMC,134829.30,A,4437.78780,N,01057.00139,E,0.540,45.39,140422,,,A*5F

$GPRMC,134829.40,A,4437.78781,N,01057.00142,E,0.839,47.73,140422,,,A*5A

$GPRMC,134829.50,A,4437.78781,N,01057.00146,E,1.041,52.01,140422,,,A*58

$GPRMC,134829.60,A,4437.78782,N,01057.00151,E,0.983,50.80,140422,,,A*53

$GPRMC,134829.70,A,4437.78782,N,01057.00157,E,1.094,54.50,140422,,,A*53

$GPRMC,134829.80,A,4437.78781,N,01057.00155,E,0.426,44.83,140422,,,A*5E

$GPRMC,134829.90,A,4437.78782,N,01057.00150,E,1.095,312.90,140422,,,A*66

$GPRMC,134830.00,A,4437.78783,N,01057.00153,E,0.682,335.50,140422,,,A*6D

$GPRMC,134830.10,A,4437.78784,N,01057.00154,E,0.460,357.25,140422,,,A*64

$GPRMC,134830.20,A,4437.78785,N,01057.00156,E,0.611,12.82,140422,,,A*5F

$GPGGA,134830.20,4437.78785,N,01057.00156,E,1,10,1.12,33.6,M,46.0,M,,*64

$GPRMC,134830.30,A,4437.78786,N,01057.00160,E,0.943,22.66,140422,,,A*59

$GPRMC,134830.40,A,4437.78788,N,01057.00161,E,0.796,24.65,140422,,,A*52

$GPRMC,134830.50,A,4437.78793,N,01057.00164,E,1.136,29.56,140422,,,A*5C

$GPRMC,134830.60,A,4437.78793,N,01057.00167,E,1.219,38.77,140422,,,A*51

$GPRMC,134830.70,A,4437.78794,N,01057.00173,E,1.121,53.38,140422,,,A*5C

$GPRMC,134830.80,A,4437.78801,N,01057.00176,E,1.423,41.93,140422,,,A*50

$GPRMC,134830.90,A,4437.78804,N,01057.00181,E,2.429,40.44,140422,,,A*5E

$GPRMC,134831.00,A,4437.78812,N,01057.00192,E,4.818,35.81,140422,,,A*50

$GPRMC,134831.10,A,4437.78820,N,01057.00200,E,4.019,36.28,140422,,,A*51

$GPRMC,134831.20,A,4437.78824,N,01057.00207,E,3.614,37.36,140422,,,A*53

$GPGGA,134831.20,4437.78824,N,01057.00207,E,1,10,1.04,33.9,M,46.0,M,,*6E

$GPRMC,134831.30,A,4437.78831,N,01057.00215,E,3.997,36.72,140422,,,A*50

$GPRMC,134831.40,A,4437.78837,N,01057.00220,E,3.548,35.73,140422,,,A*5B

$GPRMC,134831.50,A,4437.78846,N,01057.00233,E,4.252,38.34,140422,,,A*5B

$GPRMC,134831.60,A,4437.78852,N,01057.00243,E,4.010,40.62,140422,,,A*52

$GPRMC,134831.70,A,4437.78860,N,01057.00253,E,3.881,42.52,140422,,,A*55

$GPRMC,134831.80,A,4437.78869,N,01057.00261,E,4.000,40.80,140422,,,A*59

$GPRMC,134831.90,A,4437.78876,N,01057.00271,E,3.955,42.21,140422,,,A*50

$GPRMC,134832.00,A,4437.78886,N,01057.00282,E,4.422,42.81,140422,,,A*59

$GPRMC,134832.10,A,4437.78893,N,01057.00288,E,3.744,39.37,140422,,,A*53

$GPRMC,134832.20,A,4437.78902,N,01057.00295,E,3.712,37.57,140422,,,A*5E

$GPGGA,134832.20,4437.78902,N,01057.00295,E,1,10,0.84,34.3,M,46.0,M,,*67

$GPRMC,134832.30,A,4437.78908,N,01057.00305,E,3.805,39.60,140422,,,A*5E

$GPRMC,134832.40,A,4437.78917,N,01057.00310,E,3.682,35.63,140422,,,A*5D

$GPRMC,134832.50,A,4437.78926,N,01057.00320,E,3.884,36.77,140422,,,A*53

$GPRMC,134832.60,A,4437.78930,N,01057.00327,E,3.911,35.46,140422,,,A*5C

$GPRMC,134832.70,A,4437.78939,N,01057.00338,E,4.119,37.82,140422,,,A*57

$GPRMC,134832.80,A,4437.78948,N,01057.00346,E,3.741,37.20,140422,,,A*53

$GPRMC,134832.90,A,4437.78954,N,01057.00356,E,3.950,39.92,140422,,,A*57

$GPRMC,134833.00,A,4437.78964,N,01057.00366,E,4.388,39.45,140422,,,A*5D

$GPRMC,134833.10,A,4437.78974,N,01057.00376,E,4.612,38.01,140422,,,A*5B

$GPRMC,134833.20,A,4437.78979,N,01057.00388,E,4.733,39.07,140422,,,A*51

$GPGGA,134833.20,4437.78979,N,01057.00388,E,1,10,0.84,34.9,M,46.0,M,,*6D

$GPRMC,134833.30,A,4437.78986,N,01057.00396,E,4.265,38.92,140422,,,A*54

$GPRMC,134833.40,A,4437.78997,N,01057.00408,E,4.903,39.26,140422,,,A*56

$GPRMC,134833.50,A,4437.79009,N,01057.00418,E,4.602,39.23,140422,,,A*52

$GPRMC,134833.60,A,4437.79022,N,01057.00428,E,4.655,39.24,140422,,,A*5E

$GPRMC,134833.70,A,4437.79031,N,01057.00437,E,4.373,39.58,140422,,,A*59

$GPRMC,134833.80,A,4437.79040,N,01057.00447,E,4.509,39.23,140422,,,A*50

$GPRMC,134833.90,A,4437.79049,N,01057.00463,E,5.026,41.76,140422,,,A*58

$GPRMC,134834.00,A,4437.79055,N,01057.00464,E,4.417,36.53,140422,,,A*5C

$GPRMC,134834.10,A,4437.79066,N,01057.00465,E,3.773,31.98,140422,,,A*5A

$GPRMC,134834.30,A,4437.79084,N,01057.00478,E,4.022,30.45,140422,,,A*5D

$GPGGA,134834.30,4437.79084,N,01057.00478,E,1,10,1.14,35.3,M,46.0,M,,*6A

$GPRMC,134834.40,A,4437.79091,N,01057.00481,E,3.570,27.40,140422,,,A*5E

$GPRMC,134834.50,A,4437.79102,N,01057.00479,E,3.835,19.96,140422,,,A*59

$GPRMC,134834.60,A,4437.79111,N,01057.00483,E,3.724,19.13,140422,,,A*5F

$GPRMC,134834.70,A,4437.79122,N,01057.00500,E,4.202,29.94,140422,,,A*5E

$GPRMC,134834.80,A,4437.79134,N,01057.00510,E,4.439,32.35,140422,,,A*58

$GPRMC,134834.90,A,4437.79142,N,01057.00516,E,4.047,33.00,140422,,,A*54

$GPRMC,134835.00,A,4437.79153,N,01057.00528,E,4.617,34.50,140422,,,A*50

$GPRMC,134835.10,A,4437.79163,N,01057.00534,E,4.499,33.53,140422,,,A*5F

$GPRMC,134835.30,A,4437.79189,N,01057.00576,E,6.317,47.52,140422,,,A*5E

$GPRMC,134835.40,A,4437.79202,N,01057.00592,E,6.313,47.61,140422,,,A*57

$GPGGA,134835.40,4437.79202,N,01057.00592,E,1,10,0.91,35.5,M,46.0,M,,*6F

$GPRMC,134835.50,A,4437.79213,N,01057.00606,E,6.468,46.73,140422,,,A*51

$GPRMC,134835.70,A,4437.79241,N,01057.00645,E,7.011,47.91,140422,,,A*55

$GPRMC,134835.80,A,4437.79251,N,01057.00663,E,6.935,46.51,140422,,,A*5C

$GPRMC,134835.90,A,4437.79259,N,01057.00680,E,6.616,46.84,140422,,,A*5E

$GPRMC,134836.00,A,4437.79265,N,01057.00699,E,6.618,46.69,140422,,,A*5E

$GPRMC,134836.10,A,4437.79276,N,01057.00720,E,6.752,48.28,140422,,,A*5A

$GPRMC,134836.30,A,4437.79304,N,01057.00755,E,6.948,44.93,140422,,,A*57

$GPRMC,134836.40,A,4437.79328,N,01057.00775,E,7.516,42.57,140422,,,A*54

$GPRMC,134836.60,A,4437.79359,N,01057.00812,E,7.686,40.02,140422,,,A*56

$GPRMC,134836.80,A,4437.79389,N,01057.00839,E,7.159,34.81,140422,,,A*51

$GPGGA,134836.80,4437.79389,N,01057.00839,E,1,10,0.84,36.6,M,46.0,M,,*6A

$GPRMC,134837.00,A,4437.79417,N,01057.00870,E,6.893,34.56,140422,,,A*51

$GPRMC,134837.10,A,4437.79436,N,01057.00893,E,7.430,37.34,140422,,,A*5D

$GPRMC,134837.30,A,4437.79471,N,01057.00928,E,7.812,35.34,140422,,,A*53

$GPRMC,134837.40,A,4437.79485,N,01057.00944,E,7.555,34.08,140422,,,A*55

$GPRMC,134837.50,A,4437.79503,N,01057.00960,E,7.435,33.25,140422,,,A*52

$GPRMC,134837.60,A,4437.79524,N,01057.00973,E,6.755,31.88,140422,,,A*57

$GPRMC,134837.70,A,4437.79535,N,01057.00989,E,6.810,31.17,140422,,,A*5B

$GPRMC,134837.80,A,4437.79560,N,01057.01003,E,7.682,28.09,140422,,,A*5D

$GPRMC,134837.90,A,4437.79577,N,01057.01016,E,7.464,26.79,140422,,,A*5D

$GPRMC,134838.00,A,4437.79592,N,01057.01030,E,7.217,26.29,140422,,,A*53

$GPGGA,134838.00,4437.79592,N,01057.01030,E,1,10,1.12,37.2,M,46.0,M,,*6B

$GPRMC,134838.20,A,4437.79629,N,01057.01057,E,7.484,25.75,140422,,,A*55

$GPRMC,134838.30,A,4437.79650,N,01057.01063,E,7.193,20.22,140422,,,A*59

$GPRMC,134838.40,A,4437.79670,N,01057.01068,E,7.906,12.50,140422,,,A*57

$GPRMC,134838.50,A,4437.79688,N,01057.01074,E,7.404,9.74,140422,,,A*6F

$GPRMC,134838.60,A,4437.79720,N,01057.01077,E,8.396,5.78,140422,,,A*6F

$GPRMC,134838.70,A,4437.79742,N,01057.01078,E,8.286,2.15,140422,,,A*69

$GPRMC,134838.80,A,4437.79765,N,01057.01077,E,8.071,357.86,140422,,,A*6F

$GPRMC,134838.90,A,4437.79784,N,01057.01074,E,7.778,354.59,140422,,,A*62

$GPRMC,134839.00,A,4437.79806,N,01057.01068,E,7.923,350.68,140422,,,A*64

$GPRMC,134839.10,A,4437.79830,N,01057.01063,E,7.967,349.34,140422,,,A*6A

$GPGGA,134839.10,4437.79830,N,01057.01063,E,1,09,0.89,37.4,M,46.0,M,,*65

$GPRMC,134839.20,A,4437.79856,N,01057.01056,E,8.324,347.12,140422,,,A*67

$GPRMC,134839.30,A,4437.79880,N,01057.01043,E,8.505,342.06,140422,,,A*6C

$GPRMC,134839.40,A,4437.79905,N,01057.01035,E,8.465,340.20,140422,,,A*67

$GPRMC,134839.50,A,4437.79929,N,01057.01020,E,8.743,335.94,140422,,,A*66

$GPRMC,134839.60,A,4437.79952,N,01057.01005,E,9.041,333.96,140422,,,A*6E

$GPRMC,134839.70,A,4437.79974,N,01057.00985,E,9.005,327.85,140422,,,A*6C

$GPRMC,134839.80,A,4437.79999,N,01057.00968,E,9.027,327.17,140422,,,A*68

$GPRMC,134839.90,A,4437.80018,N,01057.00949,E,9.018,323.96,140422,,,A*6D

$GPRMC,134840.00,A,4437.80024,N,01057.00923,E,8.636,314.26,140422,,,A*6D

$GPRMC,134840.10,A,4437.80040,N,01057.00897,E,9.051,312.18,140422,,,A*6D

$GPGGA,134840.10,4437.80040,N,01057.00897,E,1,09,0.95,37.4,M,46.0,M,,*6D

$GPRMC,134840.20,A,4437.80059,N,01057.00875,E,8.902,312.78,140422,,,A*62

$GPRMC,134840.30,A,4437.80077,N,01057.00853,E,8.743,312.69,140422,,,A*60

$GPRMC,134840.40,A,4437.80095,N,01057.00828,E,9.156,311.44,140422,,,A*68

$GPRMC,134840.50,A,4437.80116,N,01057.00807,E,9.226,312.82,140422,,,A*63

$GPRMC,134840.60,A,4437.80135,N,01057.00783,E,9.083,312.55,140422,,,A*65

$GPRMC,134840.70,A,4437.80158,N,01057.00758,E,9.459,312.20,140422,,,A*68

$GPRMC,134840.80,A,4437.80179,N,01057.00732,E,9.901,310.87,140422,,,A*67

$GPRMC,134840.90,A,4437.80198,N,01057.00705,E,9.829,308.80,140422,,,A*68

$GPRMC,134841.00,A,4437.80219,N,01057.00680,E,9.810,309.99,140422,,,A*65

$GPRMC,134841.10,A,4437.80240,N,01057.00657,E,9.289,310.30,140422,,,A*63

$GPGGA,134841.10,4437.80240,N,01057.00657,E,1,09,0.89,36.8,M,46.0,M,,*6C

$GPRMC,134841.20,A,4437.80259,N,01057.00636,E,8.906,309.66,140422,,,A*69

$GPRMC,134841.30,A,4437.80275,N,01057.00611,E,8.869,308.92,140422,,,A*61

$GPRMC,134841.40,A,4437.80294,N,01057.00585,E,9.056,308.16,140422,,,A*6E

$GPRMC,134841.50,A,4437.80311,N,01057.00555,E,9.270,306.19,140422,,,A*69

$GPRMC,134841.60,A,4437.80327,N,01057.00528,E,9.427,306.06,140422,,,A*6F

$GPRMC,134841.70,A,4437.80345,N,01057.00500,E,9.733,307.60,140422,,,A*67

$GPRMC,134841.80,A,4437.80363,N,01057.00470,E,9.962,307.19,140422,,,A*6E

$GPRMC,134841.90,A,4437.80381,N,01057.00441,E,9.787,306.23,140422,,,A*6C

$GPRMC,134842.00,A,4437.80401,N,01057.00410,E,10.165,306.25,140422,,,A*59

$GPRMC,134842.10,A,4437.80422,N,01057.00379,E,10.325,306.03,140422,,,A*53

$GPGGA,134842.10,4437.80422,N,01057.00379,E,1,09,0.89,36.4,M,46.0,M,,*68

$GPRMC,134842.20,A,4437.80440,N,01057.00353,E,9.943,305.98,140422,,,A*6F

$GPRMC,134842.30,A,4437.80457,N,01057.00323,E,10.107,305.34,140422,,,A*59

$GPRMC,134842.40,A,4437.80475,N,01057.00294,E,10.043,306.89,140422,,,A*57

$GPRMC,134842.50,A,4437.80492,N,01057.00266,E,9.866,306.17,140422,,,A*62

$GPRMC,134842.60,A,4437.80511,N,01057.00235,E,10.036,305.92,140422,,,A*56

$GPRMC,134842.70,A,4437.80532,N,01057.00203,E,10.388,307.03,140422,,,A*5F

$GPRMC,134842.80,A,4437.80550,N,01057.00174,E,10.195,306.93,140422,,,A*51

$GPRMC,134842.90,A,4437.80572,N,01057.00134,E,11.154,305.76,140422,,,A*50

$GPRMC,134843.00,A,4437.80591,N,01057.00109,E,10.502,308.65,140422,,,A*52

$GPRMC,134843.10,A,4437.80611,N,01057.00072,E,11.128,306.53,140422,,,A*53

$GPGGA,134843.10,4437.80611,N,01057.00072,E,1,09,0.89,35.9,M,46.0,M,,*6D

$GPRMC,134843.20,A,4437.80631,N,01057.00039,E,11.053,305.87,140422,,,A*5A

$GPRMC,134843.30,A,4437.80651,N,01057.00012,E,10.757,308.77,140422,,,A*54

$GPRMC,134843.40,A,4437.80672,N,01056.99975,E,11.246,307.16,140422,,,A*57

$GPRMC,134843.50,A,4437.80692,N,01056.99942,E,11.015,306.27,140422,,,A*5B

$GPRMC,134843.60,A,4437.80712,N,01056.99911,E,11.141,306.99,140422,,,A*52

$GPRMC,134843.70,A,4437.80732,N,01056.99880,E,10.999,307.63,140422,,,A*50

$GPRMC,134843.80,A,4437.80752,N,01056.99846,E,11.145,307.10,140422,,,A*5F

$GPRMC,134843.90,A,4437.80774,N,01056.99811,E,11.320,307.52,140422,,,A*5F

$GPRMC,134844.00,A,4437.80794,N,01056.99778,E,11.178,307.82,140422,,,A*5D

$GPRMC,134844.10,A,4437.80814,N,01056.99744,E,11.394,307.21,140422,,,A*5D

$GPGGA,134844.10,4437.80814,N,01056.99744,E,1,08,0.90,35.5,M,46.0,M,,*67

$GPRMC,134844.20,A,4437.80833,N,01056.99710,E,11.367,307.47,140422,,,A*56

$GPRMC,134844.30,A,4437.80851,N,01056.99680,E,11.112,307.74,140422,,,A*5B

$GPRMC,134844.40,A,4437.80871,N,01056.99644,E,11.530,307.57,140422,,,A*53

$GPRMC,134844.50,A,4437.80892,N,01056.99612,E,11.276,308.57,140422,,,A*56

$GPRMC,134844.60,A,4437.80911,N,01056.99579,E,11.296,308.14,140422,,,A*58

$GPRMC,134844.70,A,4437.80928,N,01056.99545,E,11.328,306.26,140422,,,A*57

$GPRMC,134844.80,A,4437.80948,N,01056.99515,E,11.233,308.87,140422,,,A*55

$GPRMC,134844.90,A,4437.80965,N,01056.99482,E,11.170,307.72,140422,,,A*55

$GPRMC,134845.00,A,4437.80980,N,01056.99454,E,11.060,307.48,140422,,,A*54

$GPRMC,134845.10,A,4437.80999,N,01056.99423,E,10.802,307.93,140422,,,A*56

$GPGGA,134845.10,4437.80999,N,01056.99423,E,1,09,0.89,35.8,M,46.0,M,,*64

$GPRMC,134845.20,A,4437.81018,N,01056.99393,E,10.984,309.26,140422,,,A*57

$GPRMC,134845.30,A,4437.81039,N,01056.99355,E,11.403,308.57,140422,,,A*5B

$GPRMC,134845.40,A,4437.81058,N,01056.99321,E,11.023,306.77,140422,,,A*52

$GPRMC,134845.50,A,4437.81081,N,01056.99281,E,11.625,307.31,140422,,,A*5F

$GPRMC,134845.60,A,4437.81100,N,01056.99242,E,11.740,304.26,140422,,,A*5C

$GPRMC,134845.70,A,4437.81119,N,01056.99205,E,11.598,304.22,140422,,,A*55

$GPRMC,134845.80,A,4437.81140,N,01056.99168,E,11.647,304.55,140422,,,A*5F

$GPRMC,134845.90,A,4437.81157,N,01056.99135,E,11.567,303.11,140422,,,A*56

$GPRMC,134846.00,A,4437.81180,N,01056.99089,E,12.041,302.35,140422,,,A*55

$GPRMC,134846.10,A,4437.81200,N,01056.99052,E,11.864,303.20,140422,,,A*50

$GPGGA,134846.10,4437.81200,N,01056.99052,E,1,09,0.96,35.3,M,46.0,M,,*6A

$GPRMC,134846.20,A,4437.81218,N,01056.99013,E,11.990,301.30,140422,,,A*56

$GPRMC,134846.30,A,4437.81238,N,01056.98975,E,11.897,301.91,140422,,,A*50

$GPRMC,134846.40,A,4437.81258,N,01056.98935,E,11.860,302.00,140422,,,A*56

$GPRMC,134846.50,A,4437.81275,N,01056.98896,E,11.897,300.27,140422,,,A*5F

$GPRMC,134846.60,A,4437.81297,N,01056.98856,E,12.172,302.72,140422,,,A*5F

$GPRMC,134846.70,A,4437.81313,N,01056.98813,E,12.188,299.78,140422,,,A*5E

$GPRMC,134846.80,A,4437.81329,N,01056.98778,E,11.861,300.12,140422,,,A*5A

$GPRMC,134846.90,A,4437.81345,N,01056.98734,E,12.180,298.54,140422,,,A*5E

$GPRMC,134847.00,A,4437.81361,N,01056.98709,E,11.393,301.98,140422,,,A*5C

$GPRMC,134847.10,A,4437.81374,N,01056.98674,E,11.382,300.91,140422,,,A*5A

$GPGGA,134847.10,4437.81374,N,01056.98674,E,1,10,0.96,35.2,M,46.0,M,,*63

$GPRMC,134847.20,A,4437.81390,N,01056.98639,E,11.415,301.54,140422,,,A*5B

$GPRMC,134847.30,A,4437.81407,N,01056.98601,E,11.510,301.83,140422,,,A*56

$GPRMC,134847.40,A,4437.81423,N,01056.98563,E,11.670,301.87,140422,,,A*51

$GPRMC,134847.50,A,4437.81439,N,01056.98527,E,11.614,301.56,140422,,,A*55

$GPRMC,134847.60,A,4437.81454,N,01056.98490,E,11.560,300.91,140422,,,A*5A

$GPRMC,134847.70,A,4437.81474,N,01056.98454,E,11.923,303.46,140422,,,A*53

$GPRMC,134847.80,A,4437.81491,N,01056.98420,E,11.643,303.82,140422,,,A*55

$GPRMC,134847.90,A,4437.81509,N,01056.98383,E,11.910,304.10,140422,,,A*5F

$GPRMC,134848.00,A,4437.81522,N,01056.98358,E,11.227,304.10,140422,,,A*59

$GPRMC,134848.10,A,4437.81540,N,01056.98330,E,11.296,305.31,140422,,,A*5A

$GPGGA,134848.10,4437.81540,N,01056.98330,E,1,10,0.91,35.7,M,46.0,M,,*6A

$GPRMC,134848.20,A,4437.81556,N,01056.98298,E,11.218,304.71,140422,,,A*5E

$GPRMC,134848.30,A,4437.81576,N,01056.98276,E,10.738,307.39,140422,,,A*54

$GPRMC,134848.40,A,4437.81598,N,01056.98240,E,11.002,308.96,140422,,,A*53

$GPRMC,134848.50,A,4437.81620,N,01056.98184,E,12.104,306.58,140422,,,A*51

$GPRMC,134848.60,A,4437.81639,N,01056.98134,E,12.819,302.93,140422,,,A*57

$GPRMC,134848.70,A,4437.81665,N,01056.98083,E,13.413,304.53,140422,,,A*5F

$GPRMC,134848.80,A,4437.81686,N,01056.98041,E,13.206,303.59,140422,,,A*5C

$GPRMC,134848.90,A,4437.81706,N,01056.98011,E,12.601,303.93,140422,,,A*55

$GPRMC,134849.00,A,4437.81728,N,01056.97966,E,12.633,303.81,140422,,,A*55

$GPRMC,134849.10,A,4437.81748,N,01056.97932,E,12.152,304.36,140422,,,A*58

$GPGGA,134849.10,4437.81748,N,01056.97932,E,1,10,1.31,35.5,M,46.0,M,,*6F

$GPRMC,134849.20,A,4437.81767,N,01056.97907,E,11.449,305.80,140422,,,A*50

$GPRMC,134849.30,A,4437.81788,N,01056.97864,E,11.655,304.26,140422,,,A*56

$GPRMC,134849.40,A,4437.81809,N,01056.97826,E,11.758,305.40,140422,,,A*5C

$GPRMC,134849.50,A,4437.81827,N,01056.97793,E,11.399,305.53,140422,,,A*5B

$GPRMC,134849.60,A,4437.81846,N,01056.97749,E,11.548,304.27,140422,,,A*50

$GPRMC,134849.70,A,4437.81864,N,01056.97717,E,11.231,304.82,140422,,,A*5C

$GPRMC,134849.80,A,4437.81882,N,01056.97686,E,11.141,305.76,140422,,,A*5C

$GPRMC,134849.90,A,4437.81898,N,01056.97665,E,10.408,306.72,140422,,,A*55

$GPRMC,134850.00,A,4437.81915,N,01056.97632,E,10.369,306.35,140422,,,A*51

$GPRMC,134850.10,A,4437.81930,N,01056.97597,E,10.395,303.53,140422,,,A*5D

$GPGGA,134850.10,4437.81930,N,01056.97597,E,1,08,1.31,35.5,M,46.0,M,,*6C

$GPRMC,134850.20,A,4437.81949,N,01056.97546,E,11.136,301.65,140422,,,A*51

$GPRMC,134850.30,A,4437.81965,N,01056.97520,E,10.458,302.39,140422,,,A*58

$GPRMC,134850.40,A,4437.81981,N,01056.97490,E,10.405,303.60,140422,,,A*5A

$GPRMC,134850.50,A,4437.81994,N,01056.97475,E,9.385,304.11,140422,,,A*62

$GPRMC,134850.60,A,4437.82011,N,01056.97447,E,9.550,305.53,140422,,,A*6E

$GPRMC,134850.70,A,4437.82024,N,01056.97425,E,9.021,304.39,140422,,,A*63

$GPRMC,134850.80,A,4437.82045,N,01056.97382,E,9.872,306.27,140422,,,A*62

$GPRMC,134850.90,A,4437.82061,N,01056.97358,E,9.540,306.37,140422,,,A*6F

$GPRMC,134851.00,A,4437.82076,N,01056.97324,E,9.553,303.68,140422,,,A*67

$GPRMC,134851.10,A,4437.82092,N,01056.97298,E,9.655,304.65,140422,,,A*65

$GPGGA,134851.10,4437.82092,N,01056.97298,E,1,09,1.31,35.3,M,46.0,M,,*60

$GPRMC,134851.20,A,4437.82106,N,01056.97273,E,9.282,304.67,140422,,,A*63

$GPRMC,134851.30,A,4437.82119,N,01056.97237,E,9.592,301.61,140422,,,A*69

$GPRMC,134851.40,A,4437.82133,N,01056.97218,E,8.922,303.43,140422,,,A*6F

$GPRMC,134851.50,A,4437.82145,N,01056.97193,E,8.600,303.32,140422,,,A*66

$GPRMC,134851.60,A,4437.82157,N,01056.97170,E,8.254,302.75,140422,,,A*6C

$GPRMC,134851.70,A,4437.82170,N,01056.97140,E,8.489,302.36,140422,,,A*6A

$GPRMC,134851.80,A,4437.82179,N,01056.97122,E,7.586,301.46,140422,,,A*6D

$GPRMC,134851.90,A,4437.82188,N,01056.97095,E,7.777,299.48,140422,,,A*6D

$GPRMC,134852.00,A,4437.82201,N,01056.97063,E,8.147,299.51,140422,,,A*6E

$GPRMC,134852.10,A,4437.82208,N,01056.97052,E,7.230,298.49,140422,,,A*60

$GPGGA,134852.10,4437.82208,N,01056.97052,E,1,08,1.31,35.5,M,46.0,M,,*61

$GPRMC,134852.20,A,4437.82213,N,01056.97056,E,6.143,299.84,140422,,,A*6B

$GPRMC,134852.30,A,4437.82223,N,01056.97018,E,6.706,296.41,140422,,,A*62

$GPRMC,134852.40,A,4437.82229,N,01056.97006,E,5.999,295.13,140422,,,A*6F

$GPRMC,134852.50,A,4437.82235,N,01056.96986,E,5.864,292.39,140422,,,A*6F

$GPRMC,134852.60,A,4437.82240,N,01056.96975,E,5.360,291.62,140422,,,A*60

$GPRMC,134852.70,A,4437.82245,N,01056.96954,E,5.203,288.06,140422,,,A*69

$GPRMC,134852.80,A,4437.82248,N,01056.96940,E,5.194,284.70,140422,,,A*6E

$GPRMC,134852.90,A,4437.82252,N,01056.96923,E,5.236,284.64,140422,,,A*6F

$GPRMC,134853.00,A,4437.82258,N,01056.96899,E,5.077,284.34,140422,,,A*6F

$GPRMC,134853.10,A,4437.82258,N,01056.96887,E,5.149,277.32,140422,,,A*67

$GPGGA,134853.10,4437.82258,N,01056.96887,E,1,09,1.06,35.9,M,46.0,M,,*6D

$GPRMC,134853.20,A,4437.82261,N,01056.96859,E,5.368,275.41,140422,,,A*6A

$GPRMC,134853.30,A,4437.82262,N,01056.96837,E,5.418,271.95,140422,,,A*6D

$GPRMC,134853.40,A,4437.82262,N,01056.96812,E,5.514,268.15,140422,,,A*60

$GPRMC,134853.50,A,4437.82261,N,01056.96790,E,5.545,266.20,140422,,,A*6B

$GPRMC,134853.60,A,4437.82259,N,01056.96765,E,5.698,262.99,140422,,,A*6C

$GPRMC,134853.70,A,4437.82258,N,01056.96741,E,5.807,260.75,140422,,,A*62

$GPRMC,134853.80,A,4437.82253,N,01056.96727,E,5.503,256.36,140422,,,A*6D

$GPRMC,134853.90,A,4437.82251,N,01056.96711,E,5.239,254.41,140422,,,A*67

$GPRMC,134854.00,A,4437.82250,N,01056.96699,E,4.786,254.62,140422,,,A*68

$GPRMC,134854.10,A,4437.82245,N,01056.96687,E,4.498,250.83,140422,,,A*65

$GPGGA,134854.10,4437.82245,N,01056.96687,E,1,10,0.84,35.3,M,46.0,M,,*61

$GPRMC,134854.20,A,4437.82240,N,01056.96669,E,4.582,247.20,140422,,,A*66

$GPRMC,134854.30,A,4437.82235,N,01056.96657,E,4.282,243.69,140422,,,A*66

$GPRMC,134854.40,A,4437.82229,N,01056.96648,E,4.128,239.28,140422,,,A*69

$GPRMC,134854.50,A,4437.82225,N,01056.96634,E,4.030,236.85,140422,,,A*6F

$GPRMC,134854.60,A,4437.82218,N,01056.96626,E,4.045,232.16,140422,,,A*6D

$GPRMC,134854.70,A,4437.82210,N,01056.96618,E,3.879,227.78,140422,,,A*65

$GPRMC,134854.80,A,4437.82205,N,01056.96610,E,3.590,225.86,140422,,,A*6F

$GPRMC,134854.90,A,4437.82199,N,01056.96603,E,3.367,221.83,140422,,,A*65

$GPRMC,134855.00,A,4437.82193,N,01056.96596,E,3.345,215.41,140422,,,A*61

$GPRMC,134855.10,A,4437.82187,N,01056.96582,E,3.214,212.02,140422,,,A*65

$GPGGA,134855.10,4437.82187,N,01056.96582,E,1,10,0.84,35.4,M,46.0,M,,*6C

$GPRMC,134855.20,A,4437.82181,N,01056.96567,E,3.193,206.62,140422,,,A*64

$GPRMC,134855.30,A,4437.82174,N,01056.96552,E,3.337,205.14,140422,,,A*67

$GPRMC,134855.40,A,4437.82171,N,01056.96541,E,2.503,206.94,140422,,,A*6C

$GPRMC,134855.50,A,4437.82168,N,01056.96542,E,2.211,198.36,140422,,,A*6E

$GPRMC,134855.60,A,4437.82168,N,01056.96540,E,1.732,189.10,140422,,,A*6C

$GPRMC,134855.70,A,4437.82168,N,01056.96540,E,1.637,195.23,140422,,,A*64

$GPRMC,134855.80,A,4437.82175,N,01056.96542,E,0.766,203.42,140422,,,A*6A

$GPRMC,134855.90,A,4437.82176,N,01056.96538,E,1.232,225.39,140422,,,A*68

$GPRMC,134856.00,A,4437.82173,N,01056.96537,E,1.653,223.33,140422,,,A*67

$GPRMC,134856.10,A,4437.82179,N,01056.96543,E,0.872,223.49,140422,,,A*6E

$GPGGA,134856.10,4437.82179,N,01056.96543,E,1,10,0.84,37.0,M,46.0,M,,*65

$GPRMC,134856.20,A,4437.82182,N,01056.96541,E,0.996,235.07,140422,,,A*6D

$GPRMC,134856.30,A,4437.82189,N,01056.96545,E,0.418,,140422,,,A*75

$GPRMC,134856.40,A,4437.82194,N,01056.96547,E,0.613,269.34,140422,,,A*61

$GPRMC,134856.50,A,4437.82196,N,01056.96549,E,0.223,,140422,,,A*7F

$GPRMC,134856.60,A,4437.82196,N,01056.96546,E,0.962,251.76,140422,,,A*64

$GPRMC,134856.70,A,4437.82197,N,01056.96541,E,1.491,250.83,140422,,,A*68

$GPRMC,134856.80,A,4437.82196,N,01056.96542,E,1.103,241.01,140422,,,A*61

$GPRMC,134856.90,A,4437.82199,N,01056.96538,E,0.724,,140422,,,A*78

$GPRMC,134857.00,A,4437.82199,N,01056.96531,E,0.913,,140422,,,A*73

$GPRMC,134857.10,A,4437.82198,N,01056.96522,E,1.588,231.20,140422,,,A*62

$GPGGA,134857.10,4437.82198,N,01056.96522,E,1,10,0.88,40.2,M,46.0,M,,*62

$GPRMC,134857.20,A,4437.82196,N,01056.96509,E,2.401,232.85,140422,,,A*69

$GPRMC,134857.30,A,4437.82191,N,01056.96500,E,2.546,228.71,140422,,,A*64

$GPRMC,134857.40,A,4437.82183,N,01056.96478,E,3.989,232.68,140422,,,A*63

$GPRMC,134857.50,A,4437.82181,N,01056.96460,E,3.853,236.92,140422,,,A*6E

$GPRMC,134857.60,A,4437.82179,N,01056.96437,E,4.152,242.52,140422,,,A*68

$GPRMC,134857.70,A,4437.82173,N,01056.96421,E,3.995,239.79,140422,,,A*65

$GPRMC,134857.80,A,4437.82168,N,01056.96401,E,4.113,238.43,140422,,,A*6B

$GPRMC,134857.90,A,4437.82163,N,01056.96382,E,4.214,237.73,140422,,,A*65

$GPRMC,134858.00,A,4437.82156,N,01056.96363,E,4.359,235.40,140422,,,A*60

$GPRMC,134858.10,A,4437.82151,N,01056.96344,E,4.454,234.81,140422,,,A*65

$GPGGA,134858.10,4437.82151,N,01056.96344,E,1,10,0.88,41.2,M,46.0,M,,*6F

$GPRMC,134858.20,A,4437.82159,N,01056.96330,E,3.543,241.85,140422,,,A*6B

$GPRMC,134858.30,A,4437.82154,N,01056.96313,E,4.103,243.58,140422,,,A*63

$GPRMC,134858.40,A,4437.82146,N,01056.96293,E,4.409,239.75,140422,,,A*63

$GPRMC,134858.50,A,4437.82137,N,01056.96275,E,4.840,237.36,140422,,,A*64

$GPRMC,134858.60,A,4437.82128,N,01056.96255,E,5.172,235.41,140422,,,A*60

$GPRMC,134858.70,A,4437.82119,N,01056.96236,E,5.252,234.21,140422,,,A*60

$GPRMC,134858.80,A,4437.82111,N,01056.96215,E,5.527,233.85,140422,,,A*6A

$GPRMC,134858.90,A,4437.82101,N,01056.96194,E,5.476,233.11,140422,,,A*68

$GPRMC,134859.00,A,4437.82095,N,01056.96173,E,5.552,235.26,140422,,,A*60

$GPRMC,134859.10,A,4437.82084,N,01056.96153,E,5.632,233.38,140422,,,A*6F

$GPGGA,134859.10,4437.82084,N,01056.96153,E,1,09,0.91,42.2,M,46.0,M,,*60

$GPRMC,134859.30,A,4437.82069,N,01056.96114,E,5.664,235.19,140422,,,A*6B

$GPRMC,134859.40,A,4437.82063,N,01056.96099,E,5.040,233.43,140422,,,A*6B

$GPRMC,134859.50,A,4437.82056,N,01056.96084,E,5.076,232.21,140422,,,A*60

$GPRMC,134859.60,A,4437.82051,N,01056.96067,E,4.943,232.36,140422,,,A*61

$GPRMC,134859.70,A,4437.82043,N,01056.96050,E,5.227,230.43,140422,,,A*6F

$GPRMC,134859.80,A,4437.82042,N,01056.96035,E,4.923,232.90,140422,,,A*60

$GPRMC,134859.90,A,4437.82040,N,01056.96019,E,4.700,235.58,140422,,,A*61

$GPRMC,134900.00,A,4437.82034,N,01056.96001,E,5.127,237.17,140422,,,A*64

$GPRMC,134900.10,A,4437.82027,N,01056.95988,E,4.936,234.80,140422,,,A*68

$GPRMC,134900.20,A,4437.82020,N,01056.95973,E,5.007,233.44,140422,,,A*6D

$GPGGA,134900.20,4437.82020,N,01056.95973,E,1,09,0.91,44.7,M,46.0,M,,*6A

$GPRMC,134900.30,A,4437.82014,N,01056.95956,E,5.031,234.38,140422,,,A*65

$GPRMC,134900.40,A,4437.82008,N,01056.95942,E,5.017,233.74,140422,,,A*61

$GPRMC,134900.50,A,4437.82001,N,01056.95926,E,5.059,234.04,140422,,,A*61

$GPRMC,134900.60,A,4437.81992,N,01056.95912,E,4.940,232.41,140422,,,A*62

$GPRMC,134900.70,A,4437.81986,N,01056.95896,E,5.047,232.44,140422,,,A*61

$GPRMC,134900.80,A,4437.81981,N,01056.95879,E,5.028,233.75,140422,,,A*62

$GPRMC,134900.90,A,4437.81968,N,01056.95854,E,5.871,235.97,140422,,,A*65

$GPRMC,134901.00,A,4437.81963,N,01056.95840,E,5.261,236.49,140422,,,A*68

$GPRMC,134901.10,A,4437.81973,N,01056.95835,E,3.841,238.20,140422,,,A*65

$GPRMC,134901.20,A,4437.81984,N,01056.95831,E,2.952,242.91,140422,,,A*6F

$GPGGA,134901.20,4437.81984,N,01056.95831,E,1,10,0.89,47.6,M,46.0,M,,*6B

$GPRMC,134901.30,A,4437.81981,N,01056.95819,E,3.811,239.52,140422,,,A*65

$GPRMC,134901.40,A,4437.81977,N,01056.95807,E,3.852,237.88,140422,,,A*6A

$GPRMC,134901.50,A,4437.81971,N,01056.95793,E,4.477,235.23,140422,,,A*60

$GPRMC,134901.60,A,4437.81965,N,01056.95779,E,4.369,232.93,140422,,,A*66

$GPRMC,134901.70,A,4437.81958,N,01056.95763,E,4.688,231.65,140422,,,A*62

$GPRMC,134901.80,A,4437.81953,N,01056.95750,E,4.531,231.77,140422,,,A*64

$GPRMC,134901.90,A,4437.81947,N,01056.95736,E,4.606,231.36,140422,,,A*62

$GPRMC,134902.00,A,4437.81965,N,01056.95733,E,2.983,236.55,140422,,,A*6B

$GPRMC,134902.10,A,4437.81976,N,01056.95727,E,2.870,247.38,140422,,,A*6D

$GPRMC,134902.20,A,4437.81986,N,01056.95719,E,2.817,257.77,140422,,,A*67

$GPGGA,134902.20,4437.81986,N,01056.95719,E,1,08,0.95,52.3,M,46.0,M,,*6A

$GPRMC,134902.30,A,4437.81990,N,01056.95712,E,2.572,259.22,140422,,,A*6A

$GPRMC,134902.40,A,4437.81994,N,01056.95703,E,2.584,259.27,140422,,,A*65

$GPRMC,134902.50,A,4437.81990,N,01056.95689,E,3.191,253.34,140422,,,A*6A

$GPRMC,134902.60,A,4437.81986,N,01056.95674,E,3.465,250.46,140422,,,A*64

$GPRMC,134902.70,A,4437.81985,N,01056.95661,E,3.500,250.41,140422,,,A*67

$GPRMC,134902.80,A,4437.81972,N,01056.95633,E,5.031,251.53,140422,,,A*64

$GPRMC,134902.90,A,4437.81974,N,01056.95621,E,3.856,252.49,140422,,,A*67

$GPRMC,134903.00,A,4437.81969,N,01056.95605,E,3.961,251.53,140422,,,A*68

$GPRMC,134903.10,A,4437.81967,N,01056.95586,E,4.355,252.44,140422,,,A*60

$GPRMC,134903.20,A,4437.81962,N,01056.95568,E,4.123,251.84,140422,,,A*6A

$GPGGA,134903.20,4437.81962,N,01056.95568,E,1,09,0.89,56.4,M,46.0,M,,*6A

$GPRMC,134903.30,A,4437.81956,N,01056.95548,E,4.496,250.33,140422,,,A*68

$GPRMC,134903.40,A,4437.81946,N,01056.95527,E,4.575,247.43,140422,,,A*6A

$GPRMC,134903.50,A,4437.81939,N,01056.95505,E,4.762,246.48,140422,,,A*6D

$GPRMC,134903.60,A,4437.81923,N,01056.95474,E,5.689,246.37,140422,,,A*6F

$GPRMC,134903.70,A,4437.81906,N,01056.95441,E,6.664,246.64,140422,,,A*69

$GPRMC,134903.80,A,4437.81887,N,01056.95414,E,6.536,242.91,140422,,,A*64

$GPRMC,134903.90,A,4437.81873,N,01056.95382,E,6.889,242.64,140422,,,A*65

$GPRMC,134904.00,A,4437.81856,N,01056.95350,E,7.180,242.11,140422,,,A*60

$GPRMC,134904.10,A,4437.81842,N,01056.95319,E,7.228,242.36,140422,,,A*6D

$GPRMC,134904.20,A,4437.81824,N,01056.95286,E,7.545,241.96,140422,,,A*6C

$GPGGA,134904.20,4437.81824,N,01056.95286,E,1,10,0.94,56.9,M,46.0,M,,*60

$GPRMC,134904.30,A,4437.81782,N,01056.95261,E,8.575,227.95,140422,,,A*68

$GPRMC,134904.40,A,4437.81752,N,01056.95234,E,9.130,222.68,140422,,,A*61

$GPRMC,134904.50,A,4437.81717,N,01056.95204,E,9.658,218.90,140422,,,A*65

$GPRMC,134904.60,A,4437.81686,N,01056.95178,E,9.792,216.30,140422,,,A*64

$GPRMC,134904.70,A,4437.81658,N,01056.95153,E,10.000,214.93,140422,,,A*50

$GPRMC,134904.80,A,4437.81633,N,01056.95132,E,9.521,213.37,140422,,,A*62

$GPRMC,134904.90,A,4437.81605,N,01056.95116,E,9.396,210.42,140422,,,A*6B

$GPRMC,134905.00,A,4437.81581,N,01056.95099,E,9.005,210.04,140422,,,A*61

$GPRMC,134905.10,A,4437.81557,N,01056.95079,E,8.866,211.17,140422,,,A*6A

$GPRMC,134905.20,A,4437.81535,N,01056.95060,E,8.560,212.04,140422,,,A*6F

$GPGGA,134905.20,4437.81535,N,01056.95060,E,1,09,0.91,56.5,M,46.0,M,,*67

$GPRMC,134905.30,A,4437.81507,N,01056.95036,E,9.410,213.01,140422,,,A*6F

$GPRMC,134905.40,A,4437.81481,N,01056.95015,E,9.396,212.95,140422,,,A*63

$GPRMC,134905.50,A,4437.81458,N,01056.94996,E,8.818,213.68,140422,,,A*6A

$GPRMC,134905.60,A,4437.81436,N,01056.94974,E,8.757,215.18,140422,,,A*68

$GPRMC,134905.70,A,4437.81415,N,01056.94952,E,8.689,217.00,140422,,,A*65

$GPRMC,134905.80,A,4437.81396,N,01056.94924,E,8.796,220.41,140422,,,A*69

$GPRMC,134905.90,A,4437.81378,N,01056.94896,E,8.711,223.89,140422,,,A*68

$GPRMC,134906.00,A,4437.81361,N,01056.94873,E,8.611,225.41,140422,,,A*62

$GPRMC,134906.10,A,4437.81341,N,01056.94849,E,8.682,225.45,140422,,,A*66

$GPRMC,134906.20,A,4437.81321,N,01056.94827,E,8.635,224.89,140422,,,A*66

$GPGGA,134906.20,4437.81321,N,01056.94827,E,1,09,0.91,56.9,M,46.0,M,,*61

$GPRMC,134906.30,A,4437.81300,N,01056.94805,E,8.604,224.09,140422,,,A*6E

$GPRMC,134906.40,A,4437.81279,N,01056.94780,E,8.803,223.87,140422,,,A*6C

$GPRMC,134906.50,A,4437.81248,N,01056.94756,E,9.561,219.46,140422,,,A*68

$GPRMC,134906.60,A,4437.81217,N,01056.94732,E,9.974,215.89,140422,,,A*64

$GPRMC,134906.70,A,4437.81191,N,01056.94712,E,9.839,214.29,140422,,,A*69

$GPRMC,134906.80,A,4437.81165,N,01056.94697,E,9.722,211.85,140422,,,A*67

$GPRMC,134906.90,A,4437.81138,N,01056.94680,E,9.683,209.63,140422,,,A*63

$GPRMC,134907.00,A,4437.81113,N,01056.94670,E,9.489,207.36,140422,,,A*6B

$GPRMC,134907.10,A,4437.81089,N,01056.94645,E,9.606,208.63,140422,,,A*64

$GPRMC,134907.20,A,4437.81064,N,01056.94625,E,9.632,209.00,140422,,,A*61

$GPGGA,134907.20,4437.81064,N,01056.94625,E,1,09,1.04,57.1,M,46.0,M,,*6A

$GPRMC,134907.30,A,4437.81040,N,01056.94599,E,9.804,211.16,140422,,,A*67

$GPRMC,134907.40,A,4437.81018,N,01056.94575,E,9.851,212.63,140422,,,A*6E

$GPRMC,134907.50,A,4437.80996,N,01056.94547,E,9.972,215.37,140422,,,A*66

$GPRMC,134907.60,A,4437.80976,N,01056.94523,E,9.657,216.88,140422,,,A*66

$GPRMC,134907.70,A,4437.80954,N,01056.94499,E,9.797,217.90,140422,,,A*62

$GPRMC,134907.80,A,4437.80933,N,01056.94473,E,9.662,218.58,140422,,,A*68

$GPRMC,134907.90,A,4437.80912,N,01056.94448,E,9.670,218.98,140422,,,A*6D

$GPRMC,134908.00,A,4437.80890,N,01056.94427,E,9.756,217.83,140422,,,A*69

$GPRMC,134908.10,A,4437.80868,N,01056.94403,E,9.784,217.50,140422,,,A*68

$GPRMC,134908.20,A,4437.80849,N,01056.94381,E,9.676,217.90,140422,,,A*65

$GPGGA,134908.20,4437.80849,N,01056.94381,E,1,07,1.21,57.7,M,46.0,M,,*67

$GPRMC,134908.30,A,4437.80828,N,01056.94356,E,9.848,218.61,140422,,,A*6B

$GPRMC,134908.40,A,4437.80810,N,01056.94331,E,9.791,220.12,140422,,,A*62

$GPRMC,134908.50,A,4437.80793,N,01056.94310,E,9.487,220.57,140422,,,A*61

$GPRMC,134908.60,A,4437.80774,N,01056.94290,E,9.538,219.73,140422,,,A*6B

$GPRMC,134908.70,A,4437.80757,N,01056.94271,E,9.146,219.17,140422,,,A*6B

$GPRMC,134908.80,A,4437.80740,N,01056.94253,E,9.137,218.84,140422,,,A*6F

$GPRMC,134908.90,A,4437.80724,N,01056.94238,E,8.784,217.45,140422,,,A*6C

$GPRMC,134909.00,A,4437.80710,N,01056.94218,E,8.632,219.22,140422,,,A*62

$GPRMC,134909.10,A,4437.80695,N,01056.94204,E,8.596,218.18,140422,,,A*67

$GPRMC,134909.20,A,4437.80681,N,01056.94188,E,8.249,218.42,140422,,,A*6C

$GPGGA,134909.20,4437.80681,N,01056.94188,E,1,08,1.19,59.8,M,46.0,M,,*62

$GPRMC,134909.30,A,4437.80666,N,01056.94180,E,8.098,215.69,140422,,,A*66

$GPRMC,134909.40,A,4437.80654,N,01056.94165,E,7.809,216.38,140422,,,A*63

$GPRMC,134909.50,A,4437.80642,N,01056.94160,E,7.591,213.95,140422,,,A*6E

$GPRMC,134909.60,A,4437.80635,N,01056.94145,E,7.494,216.41,140422,,,A*62

$GPRMC,134909.70,A,4437.80625,N,01056.94131,E,7.572,218.25,140422,,,A*64

$GPRMC,134909.80,A,4437.80610,N,01056.94118,E,7.565,217.72,140422,,,A*6D

$GPRMC,134909.90,A,4437.80594,N,01056.94104,E,7.520,216.20,140422,,,A*69

$GPRMC,134910.00,A,4437.80578,N,01056.94089,E,7.626,215.61,140422,,,A*6D

$GPRMC,134910.10,A,4437.80566,N,01056.94074,E,7.424,216.51,140422,,,A*61

$GPRMC,134910.20,A,4437.80554,N,01056.94066,E,7.161,215.85,140422,,,A*6E

$GPGGA,134910.20,4437.80554,N,01056.94066,E,1,08,1.19,63.2,M,46.0,M,,*63

$GPRMC,134910.30,A,4437.80544,N,01056.94051,E,7.203,217.26,140422,,,A*66

$GPRMC,134910.40,A,4437.80535,N,01056.94038,E,7.056,219.38,140422,,,A*6B

$GPRMC,134910.50,A,4437.80516,N,01056.94021,E,7.467,217.87,140422,,,A*6F

$GPRMC,134910.60,A,4437.80499,N,01056.94002,E,7.425,217.70,140422,,,A*65

$GPRMC,134910.70,A,4437.80478,N,01056.93979,E,7.761,218.03,140422,,,A*61

$GPRMC,134910.80,A,4437.80456,N,01056.93953,E,8.043,219.34,140422,,,A*67

$GPRMC,134910.90,A,4437.80436,N,01056.93941,E,7.632,217.17,140422,,,A*63

$GPRMC,134911.00,A,4437.80417,N,01056.93923,E,7.404,217.03,140422,,,A*6E

$GPRMC,134911.10,A,4437.80397,N,01056.93918,E,7.374,212.99,140422,,,A*6E

$GPRMC,134911.20,A,4437.80380,N,01056.93905,E,7.020,212.13,140422,,,A*67

$GPGGA,134911.20,4437.80380,N,01056.93905,E,1,09,1.04,65.5,M,46.0,M,,*6A

$GPRMC,134911.30,A,4437.80363,N,01056.93897,E,6.787,210.71,140422,,,A*6C

$GPRMC,134911.40,A,4437.80350,N,01056.93886,E,6.526,211.35,140422,,,A*63

$GPRMC,134911.50,A,4437.80334,N,01056.93891,E,6.673,206.62,140422,,,A*61

$GPRMC,134911.60,A,4437.80326,N,01056.93874,E,6.358,210.38,140422,,,A*6E

$GPRMC,134911.70,A,4437.80318,N,01056.93873,E,6.071,210.20,140422,,,A*64

$GPRMC,134911.80,A,4437.80310,N,01056.93873,E,5.916,208.94,140422,,,A*6E

$GPRMC,134911.90,A,4437.80304,N,01056.93874,E,5.589,207.80,140422,,,A*6D

$GPRMC,134912.00,A,4437.80303,N,01056.93868,E,5.279,210.86,140422,,,A*65

$GPRMC,134912.10,A,4437.80302,N,01056.93871,E,4.897,211.74,140422,,,A*6A

$GPRMC,134912.20,A,4437.80301,N,01056.93846,E,5.554,220.89,140422,,,A*6D

$GPGGA,134912.20,4437.80301,N,01056.93846,E,1,09,1.04,70.2,M,46.0,M,,*65

$GPRMC,134912.30,A,4437.80290,N,01056.93853,E,5.609,216.87,140422,,,A*61

$GPRMC,134912.40,A,4437.80291,N,01056.93849,E,4.638,218.04,140422,,,A*6A

$GPRMC,134912.50,A,4437.80310,N,01056.93888,E,3.068,213.02,140422,,,A*67

$GPRMC,134912.60,A,4437.80319,N,01056.93906,E,2.350,203.82,140422,,,A*6A

$GPRMC,134912.70,A,4437.80328,N,01056.93925,E,1.941,190.17,140422,,,A*64

$GPRMC,134912.80,A,4437.80332,N,01056.93941,E,1.932,169.03,140422,,,A*65

$GPRMC,134912.90,A,4437.80335,N,01056.93949,E,1.861,166.89,140422,,,A*61

$GPRMC,134913.00,A,4437.80337,N,01056.93962,E,1.880,153.93,140422,,,A*60

$GPRMC,134913.10,A,4437.80335,N,01056.93959,E,1.299,157.76,140422,,,A*66

$GPRMC,134913.20,A,4437.80323,N,01056.93956,E,2.406,176.22,140422,,,A*6C

$GPGGA,134913.20,4437.80323,N,01056.93956,E,1,09,1.04,77.8,M,46.0,M,,*69

$GPRMC,134913.30,A,4437.80318,N,01056.93951,E,2.336,185.02,140422,,,A*68

$GPRMC,134913.40,A,4437.80312,N,01056.93947,E,2.215,194.12,140422,,,A*63

$GPRMC,134913.50,A,4437.80305,N,01056.93933,E,3.593,211.98,140422,,,A*63

$GPRMC,134913.60,A,4437.80301,N,01056.93915,E,3.840,224.88,140422,,,A*64

$GPRMC,134913.70,A,4437.80291,N,01056.93912,E,3.436,222.67,140422,,,A*60

$GPRMC,134913.80,A,4437.80281,N,01056.93902,E,3.353,221.14,140422,,,A*6C

$GPRMC,134913.90,A,4437.80273,N,01056.93893,E,3.111,220.53,140422,,,A*6F

$GPRMC,134914.00,A,4437.80263,N,01056.93887,E,3.131,216.60,140422,,,A*62

$GPRMC,134914.10,A,4437.80265,N,01056.93879,E,2.589,224.87,140422,,,A*6A

$GPRMC,134914.20,A,4437.80262,N,01056.93865,E,2.979,233.58,140422,,,A*64

$GPGGA,134914.20,4437.80262,N,01056.93865,E,1,09,1.04,83.2,M,46.0,M,,*6A

$GPRMC,134914.30,A,4437.80260,N,01056.93852,E,3.044,242.76,140422,,,A*6F

$GPRMC,134914.40,A,4437.80260,N,01056.93838,E,3.229,250.67,140422,,,A*6E

$GPRMC,134914.50,A,4437.80258,N,01056.93824,E,3.460,253.22,140422,,,A*60

$GPRMC,134914.60,A,4437.80259,N,01056.93791,E,4.495,264.02,140422,,,A*68

$GPRMC,134914.70,A,4437.80255,N,01056.93778,E,4.340,261.99,140422,,,A*6A

$GPRMC,134914.80,A,4437.80256,N,01056.93760,E,4.254,264.18,140422,,,A*67

$GPRMC,134914.90,A,4437.80253,N,01056.93745,E,4.092,263.76,140422,,,A*63

$GPRMC,134915.00,A,4437.80248,N,01056.93733,E,3.953,260.24,140422,,,A*67

$GPRMC,134915.10,A,4437.80244,N,01056.93714,E,4.015,258.20,140422,,,A*6C

$GPRMC,134915.20,A,4437.80239,N,01056.93692,E,4.476,255.85,140422,,,A*69

$GPGGA,134915.20,4437.80239,N,01056.93692,E,1,09,1.04,88.5,M,46.0,M,,*6F

$GPRMC,134915.30,A,4437.80234,N,01056.93672,E,4.478,255.66,140422,,,A*68

$GPRMC,134915.40,A,4437.80229,N,01056.93651,E,4.512,255.29,140422,,,A*64

$GPRMC,134915.50,A,4437.80228,N,01056.93609,E,5.820,257.77,140422,,,A*6D

$GPRMC,134915.60,A,4437.80228,N,01056.93574,E,6.135,261.99,140422,,,A*6C

$GPRMC,134915.70,A,4437.80226,N,01056.93541,E,6.575,263.78,140422,,,A*68

$GPRMC,134915.80,A,4437.80223,N,01056.93507,E,6.966,264.25,140422,,,A*61

$GPRMC,134915.90,A,4437.80217,N,01056.93481,E,6.859,263.36,140422,,,A*60

$GPRMC,134916.00,A,4437.80210,N,01056.93451,E,7.000,261.50,140422,,,A*67

$GPRMC,134916.10,A,4437.80206,N,01056.93416,E,7.128,261.49,140422,,,A*61

$GPRMC,134916.20,A,4437.80201,N,01056.93385,E,7.177,261.53,140422,,,A*69

$GPGGA,134916.20,4437.80201,N,01056.93385,E,1,09,1.04,93.0,M,46.0,M,,*6B

$GPRMC,134916.30,A,4437.80193,N,01056.93356,E,7.162,260.49,140422,,,A*60

$GPRMC,134916.40,A,4437.80189,N,01056.93317,E,7.328,261.32,140422,,,A*68

$GPRMC,134916.50,A,4437.80183,N,01056.93283,E,7.448,261.39,140422,,,A*65

$GPRMC,134916.60,A,4437.80174,N,01056.93248,E,7.637,260.55,140422,,,A*68

$GPRMC,134916.70,A,4437.80163,N,01056.93218,E,7.401,259.42,140422,,,A*61

$GPRMC,134916.80,A,4437.80140,N,01056.93206,E,6.670,254.58,140422,,,A*63

$GPRMC,134916.90,A,4437.80129,N,01056.93182,E,6.453,250.97,140422,,,A*66

$GPRMC,134917.00,A,4437.80118,N,01056.93156,E,6.399,248.34,140422,,,A*64

$GPRMC,134917.10,A,4437.80098,N,01056.93135,E,6.216,245.04,140422,,,A*61

$GPRMC,134917.20,A,4437.80082,N,01056.93115,E,5.924,241.96,140422,,,A*6D

$GPGGA,134917.20,4437.80082,N,01056.93115,E,1,08,1.26,96.7,M,46.0,M,,*6B

$GPRMC,134917.30,A,4437.80063,N,01056.93099,E,5.559,237.51,140422,,,A*6A

$GPRMC,134917.40,A,4437.80050,N,01056.93077,E,5.484,235.10,140422,,,A*6B

$GPRMC,134917.50,A,4437.80039,N,01056.93052,E,5.391,235.73,140422,,,A*64

$GPRMC,134917.60,A,4437.80028,N,01056.93024,E,5.545,238.04,140422,,,A*64

$GPRMC,134917.70,A,4437.80020,N,01056.93001,E,5.390,240.65,140422,,,A*6C

$GPRMC,134917.80,A,4437.80007,N,01056.92981,E,5.322,241.66,140422,,,A*6D

$GPRMC,134917.90,A,4437.79996,N,01056.92963,E,4.890,242.51,140422,,,A*63

$GPRMC,134918.00,A,4437.79986,N,01056.92949,E,4.648,241.94,140422,,,A*6D

$GPRMC,134918.10,A,4437.79974,N,01056.92933,E,4.538,240.78,140422,,,A*6B

$GPRMC,134918.20,A,4437.79958,N,01056.92914,E,4.476,239.18,140422,,,A*60

$GPGGA,134918.20,4437.79958,N,01056.92914,E,1,08,1.21,99.5,M,46.0,M,,*6E

$GPRMC,134918.30,A,4437.79935,N,01056.92901,E,4.420,235.27,140422,,,A*6D

$GPRMC,134918.40,A,4437.79915,N,01056.92871,E,4.744,235.64,140422,,,A*68

$GPRMC,134918.50,A,4437.79892,N,01056.92859,E,4.372,233.53,140422,,,A*6E

$GPRMC,134918.60,A,4437.79872,N,01056.92838,E,4.659,232.18,140422,,,A*66

$GPRMC,134918.70,A,4437.79851,N,01056.92828,E,4.396,229.09,140422,,,A*6B

$GPRMC,134918.80,A,4437.79833,N,01056.92809,E,4.095,229.40,140422,,,A*6E

$GPRMC,134918.90,A,4437.79821,N,01056.92792,E,3.834,230.30,140422,,,A*6A

$GPRMC,134919.00,A,4437.79808,N,01056.92777,E,3.129,232.56,140422,,,A*65

$GPRMC,134919.10,A,4437.79802,N,01056.92766,E,2.768,236.88,140422,,,A*6B

$GPRMC,134919.20,A,4437.79794,N,01056.92747,E,3.087,243.49,140422,,,A*63

$GPGGA,134919.20,4437.79794,N,01056.92747,E,1,07,1.21,100.9,M,46.0,M,,*5B

$GPRMC,134919.30,A,4437.79795,N,01056.92736,E,2.633,250.71,140422,,,A*64

$GPRMC,134919.40,A,4437.79795,N,01056.92727,E,2.337,258.38,140422,,,A*67

$GPRMC,134919.50,A,4437.79788,N,01056.92718,E,2.106,261.35,140422,,,A*61

$GPRMC,134919.60,A,4437.79781,N,01056.92711,E,1.814,263.49,140422,,,A*62

$GPRMC,134919.70,A,4437.79775,N,01056.92697,E,1.622,273.35,140422,,,A*66

$GPRMC,134919.80,A,4437.79766,N,01056.92698,E,1.137,274.11,140422,,,A*66

$GPRMC,134919.90,A,4437.79757,N,01056.92704,E,0.451,,140422,,,A*7A

$GPRMC,134920.00,A,4437.79746,N,01056.92707,E,0.159,,140422,,,A*77

$GPRMC,134920.10,A,4437.79738,N,01056.92705,E,0.221,,140422,,,A*71

$GPRMC,134920.20,A,4437.79724,N,01056.92705,E,0.485,,140422,,,A*77

$GPGGA,134920.20,4437.79724,N,01056.92705,E,1,07,1.08,102.9,M,46.0,M,,*55

$GPRMC,134920.30,A,4437.79707,N,01056.92709,E,0.891,193.41,140422,,,A*62

$GPRMC,134920.40,A,4437.79690,N,01056.92715,E,1.196,146.68,140422,,,A*6B

$GPRMC,134920.50,A,4437.79674,N,01056.92727,E,1.590,130.70,140422,,,A*6B

$GPRMC,134920.60,A,4437.79650,N,01056.92744,E,2.192,126.73,140422,,,A*6A

$GPRMC,134920.70,A,4437.79630,N,01056.92756,E,2.818,125.73,140422,,,A*66

$GPRMC,134920.80,A,4437.79611,N,01056.92764,E,3.253,129.33,140422,,,A*67

$GPRMC,134920.90,A,4437.79590,N,01056.92777,E,3.671,131.46,140422,,,A*61

$GPRMC,134921.00,A,4437.79563,N,01056.92792,E,3.844,125.09,140422,,,A*68

$GPRMC,134921.10,A,4437.79539,N,01056.92798,E,3.917,128.23,140422,,,A*6E

$GPRMC,134921.20,A,4437.79522,N,01056.92805,E,3.971,135.20,140422,,,A*63

$GPGGA,134921.20,4437.79522,N,01056.92805,E,1,09,1.05,102.9,M,46.0,M,,*5C

$GPRMC,134921.30,A,4437.79505,N,01056.92807,E,3.212,129.08,140422,,,A*6C

$GPRMC,134921.40,A,4437.79487,N,01056.92806,E,2.933,127.89,140422,,,A*6F

$GPRMC,134921.50,A,4437.79471,N,01056.92807,E,2.774,129.10,140422,,,A*65

$GPRMC,134921.60,A,4437.79451,N,01056.92804,E,2.546,130.86,140422,,,A*63

$GPRMC,134921.70,A,4437.79426,N,01056.92799,E,2.423,134.91,140422,,,A*69

$GPRMC,134921.80,A,4437.79412,N,01056.92795,E,2.461,138.41,140422,,,A*6A

$GPRMC,134921.90,A,4437.79398,N,01056.92788,E,2.343,142.20,140422,,,A*6F

$GPRMC,134922.00,A,4437.79388,N,01056.92769,E,1.838,147.92,140422,,,A*63

$GPRMC,134922.10,A,4437.79376,N,01056.92751,E,1.664,158.79,140422,,,A*64

$GPRMC,134922.20,A,4437.79363,N,01056.92739,E,1.831,172.66,140422,,,A*65

$GPGGA,134922.20,4437.79363,N,01056.92739,E,1,09,1.07,101.7,M,46.0,M,,*53

$GPRMC,134922.30,A,4437.79348,N,01056.92724,E,1.979,180.74,140422,,,A*62

$GPRMC,134922.40,A,4437.79335,N,01056.92702,E,2.021,188.98,140422,,,A*66

$GPRMC,134922.50,A,4437.79319,N,01056.92689,E,2.171,196.09,140422,,,A*68

$GPRMC,134922.60,A,4437.79296,N,01056.92694,E,2.427,193.09,140422,,,A*62

$GPRMC,134922.70,A,4437.79273,N,01056.92695,E,2.553,189.63,140422,,,A*6C

$GPRMC,134922.80,A,4437.79247,N,01056.92688,E,2.812,188.77,140422,,,A*64

$GPRMC,134922.90,A,4437.79218,N,01056.92683,E,3.071,186.60,140422,,,A*60

$GPRMC,134923.00,A,4437.79187,N,01056.92690,E,3.535,180.96,140422,,,A*65

$GPRMC,134923.10,A,4437.79159,N,01056.92695,E,3.805,178.36,140422,,,A*61

$GPRMC,134923.20,A,4437.79138,N,01056.92682,E,3.678,178.48,140422,,,A*6E

$GPGGA,134923.20,4437.79138,N,01056.92682,E,1,10,0.84,100.0,M,46.0,M,,*5B

$GPRMC,134923.30,A,4437.79120,N,01056.92669,E,3.683,182.56,140422,,,A*6D

$GPRMC,134923.40,A,4437.79104,N,01056.92661,E,3.737,185.70,140422,,,A*69

$GPRMC,134923.50,A,4437.79089,N,01056.92656,E,3.679,188.48,140422,,,A*65

$GPRMC,134923.60,A,4437.79073,N,01056.92648,E,3.833,192.10,140422,,,A*6A

$GPRMC,134923.70,A,4437.79060,N,01056.92636,E,3.750,197.66,140422,,,A*6E

$GPRMC,134923.80,A,4437.79046,N,01056.92625,E,3.811,201.80,140422,,,A*69

$GPRMC,134923.90,A,4437.79029,N,01056.92621,E,3.768,202.57,140422,,,A*6D

$GPRMC,134924.00,A,4437.79015,N,01056.92604,E,4.059,210.61,140422,,,A*6F

$GPRMC,134924.10,A,4437.79003,N,01056.92598,E,3.980,214.73,140422,,,A*62

$GPRMC,134924.20,A,4437.78991,N,01056.92594,E,3.868,216.38,140422,,,A*64

$GPGGA,134924.20,4437.78991,N,01056.92594,E,1,08,1.05,100.4,M,46.0,M,,*57

$GPRMC,134924.30,A,4437.78976,N,01056.92591,E,3.768,213.00,140422,,,A*68

$GPRMC,134924.40,A,4437.78977,N,01056.92613,E,2.295,211.60,140422,,,A*65

$GPRMC,134924.50,A,4437.78972,N,01056.92629,E,2.073,200.88,140422,,,A*64

$GPRMC,134924.60,A,4437.78963,N,01056.92637,E,2.062,194.62,140422,,,A*62

$GPRMC,134924.70,A,4437.78952,N,01056.92634,E,2.247,197.04,140422,,,A*64

$GPRMC,134924.80,A,4437.78940,N,01056.92640,E,2.675,193.16,140422,,,A*69

$GPRMC,134924.90,A,4437.78934,N,01056.92635,E,2.260,200.00,140422,,,A*67

$GPRMC,134925.00,A,4437.78924,N,01056.92632,E,2.439,204.17,140422,,,A*61

$GPRMC,134925.10,A,4437.78915,N,01056.92626,E,2.600,209.15,140422,,,A*60

$GPRMC,134925.20,A,4437.78907,N,01056.92614,E,2.637,218.75,140422,,,A*63

$GPGGA,134925.20,4437.78907,N,01056.92614,E,1,09,1.04,102.7,M,46.0,M,,*53

$GPRMC,134925.30,A,4437.78900,N,01056.92602,E,2.830,224.79,140422,,,A*68

$GPRMC,134925.40,A,4437.78892,N,01056.92588,E,2.831,231.37,140422,,,A*6B

$GPRMC,134925.50,A,4437.78884,N,01056.92573,E,3.152,236.45,140422,,,A*66

$GPRMC,134925.60,A,4437.78876,N,01056.92559,E,3.284,238.80,140422,,,A*6F

$GPRMC,134925.70,A,4437.78869,N,01056.92546,E,3.334,239.69,140422,,,A*62

$GPRMC,134925.80,A,4437.78860,N,01056.92537,E,3.598,237.48,140422,,,A*6F

$GPRMC,134925.90,A,4437.78853,N,01056.92528,E,3.401,237.75,140422,,,A*6F

$GPRMC,134926.00,A,4437.78845,N,01056.92508,E,3.864,239.82,140422,,,A*69

$GPRMC,134926.10,A,4437.78834,N,01056.92502,E,3.594,234.82,140422,,,A*6B

$GPRMC,134926.20,A,4437.78824,N,01056.92486,E,3.753,233.92,140422,,,A*6B

$GPGGA,134926.20,4437.78824,N,01056.92486,E,1,09,1.04,104.2,M,46.0,M,,*5A

$GPRMC,134926.30,A,4437.78813,N,01056.92473,E,3.830,232.28,140422,,,A*6E

$GPRMC,134926.40,A,4437.78802,N,01056.92461,E,3.777,230.10,140422,,,A*6F

$GPRMC,134926.50,A,4437.78794,N,01056.92446,E,4.123,230.10,140422,,,A*6B

$GPRMC,134926.60,A,4437.78785,N,01056.92424,E,3.959,231.73,140422,,,A*6A

$GPRMC,134926.70,A,4437.78773,N,01056.92413,E,4.196,228.20,140422,,,A*64

$GPRMC,134926.80,A,4437.78763,N,01056.92387,E,3.957,230.49,140422,,,A*64

$GPRMC,134926.90,A,4437.78752,N,01056.92365,E,4.180,232.15,140422,,,A*65

$GPRMC,134927.00,A,4437.78743,N,01056.92349,E,4.070,232.49,140422,,,A*64

$GPRMC,134927.10,A,4437.78734,N,01056.92335,E,3.939,234.06,140422,,,A*60

$GPRMC,134927.20,A,4437.78722,N,01056.92331,E,3.397,230.50,140422,,,A*69

$GPGGA,134927.20,4437.78722,N,01056.92331,E,1,09,1.07,105.9,M,46.0,M,,*50

$GPRMC,134927.30,A,4437.78712,N,01056.92322,E,3.070,229.08,140422,,,A*66

$GPRMC,134927.40,A,4437.78701,N,01056.92313,E,3.084,228.81,140422,,,A*6A

$GPRMC,134927.50,A,4437.78690,N,01056.92311,E,2.923,223.46,140422,,,A*65

$GPRMC,134927.60,A,4437.78682,N,01056.92301,E,2.898,223.67,140422,,,A*66

$GPRMC,134927.70,A,4437.78672,N,01056.92296,E,2.672,219.50,140422,,,A*60

$GPRMC,134927.80,A,4437.78665,N,01056.92284,E,2.755,220.64,140422,,,A*63

$GPRMC,134927.90,A,4437.78649,N,01056.92273,E,2.503,219.97,140422,,,A*63

$GPRMC,134928.00,A,4437.78639,N,01056.92257,E,2.538,224.72,140422,,,A*69

$GPRMC,134928.10,A,4437.78628,N,01056.92252,E,2.711,218.48,140422,,,A*62

$GPRMC,134928.20,A,4437.78618,N,01056.92235,E,3.032,221.36,140422,,,A*67

$GPGGA,134928.20,4437.78618,N,01056.92235,E,1,09,1.04,108.1,M,46.0,M,,*54

$GPRMC,134928.30,A,4437.78606,N,01056.92225,E,3.148,221.66,140422,,,A*61

$GPRMC,134928.40,A,4437.78596,N,01056.92216,E,3.012,222.02,140422,,,A*63

$GPRMC,134928.50,A,4437.78585,N,01056.92206,E,2.881,223.76,140422,,,A*60

$GPRMC,134928.60,A,4437.78572,N,01056.92199,E,2.690,220.67,140422,,,A*63

$GPRMC,134928.70,A,4437.78561,N,01056.92178,E,3.128,225.28,140422,,,A*64

$GPRMC,134928.80,A,4437.78550,N,01056.92159,E,2.957,229.53,140422,,,A*6B

$GPRMC,134928.90,A,4437.78539,N,01056.92141,E,3.076,235.50,140422,,,A*69

$GPRMC,134929.00,A,4437.78531,N,01056.92125,E,3.220,238.75,140422,,,A*60

$GPRMC,134929.10,A,4437.78523,N,01056.92104,E,3.311,242.22,140422,,,A*6D

$GPRMC,134929.20,A,4437.78511,N,01056.92094,E,2.986,234.58,140422,,,A*6E

$GPGGA,134929.20,4437.78511,N,01056.92094,E,1,08,1.19,110.0,M,46.0,M,,*53

$GPRMC,134929.30,A,4437.78503,N,01056.92052,E,3.754,238.86,140422,,,A*69

$GPRMC,134929.40,A,4437.78489,N,01056.92040,E,3.505,235.53,140422,,,A*6D

$GPRMC,134929.50,A,4437.78482,N,01056.92020,E,3.888,237.54,140422,,,A*6C

$GPRMC,134929.60,A,4437.78478,N,01056.91996,E,4.352,244.32,140422,,,A*62

$GPRMC,134929.70,A,4437.78473,N,01056.91973,E,4.569,250.18,140422,,,A*60

$GPRMC,134929.80,A,4437.78467,N,01056.91950,E,4.723,253.11,140422,,,A*6D

$GPRMC,134929.90,A,4437.78463,N,01056.91929,E,4.519,254.51,140422,,,A*6E

$GPRMC,134930.00,A,4437.78454,N,01056.91910,E,4.433,252.12,140422,,,A*69

$GPRMC,134930.10,A,4437.78449,N,01056.91885,E,4.420,253.00,140422,,,A*69

$GPRMC,134930.20,A,4437.78436,N,01056.91871,E,4.106,248.94,140422,,,A*6F

$GPGGA,134930.20,4437.78436,N,01056.91871,E,1,09,1.07,112.1,M,46.0,M,,*52

$GPRMC,134930.30,A,4437.78424,N,01056.91859,E,3.687,242.85,140422,,,A*64

$GPRMC,134930.40,A,4437.78406,N,01056.91861,E,3.565,226.56,140422,,,A*6B

$GPRMC,134930.50,A,4437.78395,N,01056.91854,E,3.401,218.39,140422,,,A*66

$GPRMC,134930.60,A,4437.78384,N,01056.91846,E,3.515,212.12,140422,,,A*61

$GPRMC,134930.70,A,4437.78372,N,01056.91824,E,3.745,212.03,140422,,,A*6A

$GPRMC,134930.80,A,4437.78362,N,01056.91765,E,4.467,226.50,140422,,,A*6B

$GPRMC,134930.90,A,4437.78351,N,01056.91731,E,4.858,232.27,140422,,,A*6E

$GPRMC,134931.00,A,4437.78339,N,01056.91703,E,4.811,235.19,140422,,,A*6E

$GPRMC,134931.10,A,4437.78326,N,01056.91678,E,5.025,237.13,140422,,,A*6A

$GPRMC,134931.20,A,4437.78313,N,01056.91650,E,5.320,239.31,140422,,,A*6D

$GPGGA,134931.20,4437.78313,N,01056.91650,E,1,07,1.26,113.5,M,46.0,M,,*56

$GPRMC,134931.30,A,4437.78305,N,01056.91625,E,5.305,241.98,140422,,,A*62

$GPRMC,134931.40,A,4437.78296,N,01056.91600,E,5.335,242.80,140422,,,A*60

$GPRMC,134931.50,A,4437.78286,N,01056.91576,E,5.327,242.85,140422,,,A*64

$GPRMC,134931.60,A,4437.78281,N,01056.91547,E,5.086,245.59,140422,,,A*6C

$GPRMC,134931.70,A,4437.78274,N,01056.91520,E,5.137,247.56,140422,,,A*60

$GPRMC,134931.80,A,4437.78270,N,01056.91497,E,4.971,249.08,140422,,,A*68

$GPRMC,134931.90,A,4437.78263,N,01056.91468,E,5.184,251.00,140422,,,A*69

$GPRMC,134932.00,A,4437.78256,N,01056.91440,E,4.902,252.88,140422,,,A*6B

$GPRMC,134932.10,A,4437.78244,N,01056.91416,E,4.560,252.26,140422,,,A*66

$GPRMC,134932.20,A,4437.78235,N,01056.91401,E,3.996,251.83,140422,,,A*6B

$GPGGA,134932.20,4437.78235,N,01056.91401,E,1,07,1.40,115.5,M,46.0,M,,*50

$GPRMC,134932.30,A,4437.78223,N,01056.91385,E,3.802,249.58,140422,,,A*65

$GPRMC,134932.40,A,4437.78213,N,01056.91361,E,3.865,248.13,140422,,,A*64

$GPRMC,134932.50,A,4437.78196,N,01056.91337,E,3.932,245.93,140422,,,A*6E

$GPRMC,134932.60,A,4437.78171,N,01056.91322,E,4.142,239.30,140422,,,A*6A

$GPRMC,134932.70,A,4437.78146,N,01056.91316,E,3.508,233.96,140422,,,A*63

$GPRMC,134932.80,A,4437.78126,N,01056.91305,E,3.944,226.24,140422,,,A*61

$GPRMC,134932.90,A,4437.78102,N,01056.91304,E,3.680,219.20,140422,,,A*68

$GPRMC,134933.00,A,4437.78059,N,01056.91325,E,3.759,205.12,140422,,,A*65

$GPRMC,134933.10,A,4437.78022,N,01056.91347,E,4.170,187.14,140422,,,A*69

$GPRMC,134933.20,A,4437.77973,N,01056.91367,E,5.142,174.16,140422,,,A*64

$GPGGA,134933.20,4437.77973,N,01056.91367,E,1,08,1.31,116.0,M,46.0,M,,*5F

$GPRMC,134933.30,A,4437.77932,N,01056.91374,E,5.487,168.59,140422,,,A*68

$GPRMC,134933.40,A,4437.77885,N,01056.91386,E,5.566,164.13,140422,,,A*63

$GPRMC,134933.50,A,4437.77870,N,01056.91375,E,5.237,163.81,140422,,,A*6B

$GPRMC,134933.60,A,4437.77849,N,01056.91367,E,5.110,165.54,140422,,,A*69

$GPRMC,134933.70,A,4437.77830,N,01056.91356,E,4.822,167.96,140422,,,A*61

$GPRMC,134933.80,A,4437.77806,N,01056.91351,E,4.526,169.25,140422,,,A*63

$GPRMC,134933.90,A,4437.77794,N,01056.91297,E,4.529,181.04,140422,,,A*67

$GPRMC,134934.00,A,4437.77781,N,01056.91242,E,4.226,194.12,140422,,,A*6E

$GPRMC,134934.10,A,4437.77760,N,01056.91221,E,4.284,205.27,140422,,,A*60

$GPRMC,134934.20,A,4437.77734,N,01056.91201,E,4.712,211.86,140422,,,A*64

$GPGGA,134934.20,4437.77734,N,01056.91201,E,1,09,1.07,116.3,M,46.0,M,,*53

$GPRMC,134934.30,A,4437.77707,N,01056.91182,E,4.583,215.03,140422,,,A*6E

$GPRMC,134934.40,A,4437.77670,N,01056.91159,E,4.981,218.38,140422,,,A*65

$GPRMC,134934.50,A,4437.77630,N,01056.91132,E,4.950,221.75,140422,,,A*62

$GPRMC,134934.60,A,4437.77582,N,01056.91110,E,5.215,223.79,140422,,,A*6E

$GPRMC,134934.70,A,4437.77609,N,01056.91117,E,3.643,230.15,140422,,,A*61

$GPRMC,134934.80,A,4437.77599,N,01056.91071,E,4.687,244.64,140422,,,A*6F

$GPRMC,134934.90,A,4437.77582,N,01056.91034,E,4.757,249.60,140422,,,A*60

$GPRMC,134935.00,A,4437.77564,N,01056.90986,E,5.233,253.55,140422,,,A*6A

$GPRMC,134935.10,A,4437.77543,N,01056.90942,E,5.484,255.32,140422,,,A*6B

$GPRMC,134935.20,A,4437.77519,N,01056.90900,E,5.509,255.48,140422,,,A*68

$GPGGA,134935.20,4437.77519,N,01056.90900,E,1,07,1.21,116.4,M,46.0,M,,*59

$GPRMC,134935.30,A,4437.77497,N,01056.90879,E,5.344,252.63,140422,,,A*60

$GPRMC,134935.40,A,4437.77478,N,01056.90850,E,5.467,251.49,140422,,,A*60

$GPRMC,134935.50,A,4437.77451,N,01056.90825,E,5.208,250.56,140422,,,A*68

$GPRMC,134935.60,A,4437.77431,N,01056.90803,E,4.950,249.39,140422,,,A*6F

$GPRMC,134935.70,A,4437.77395,N,01056.90787,E,4.515,246.75,140422,,,A*6E

$GPRMC,134935.80,A,4437.77350,N,01056.90779,E,4.273,240.06,140422,,,A*6C

$GPRMC,134935.90,A,4437.77316,N,01056.90773,E,4.202,231.95,140422,,,A*6F

$GPRMC,134936.00,A,4437.77287,N,01056.90753,E,4.318,227.78,140422,,,A*60

$GPRMC,134936.10,A,4437.77278,N,01056.90719,E,4.718,231.07,140422,,,A*64

$GPRMC,134936.30,A,4437.77239,N,01056.90709,E,4.076,225.97,140422,,,A*61

$GPGGA,134936.30,4437.77239,N,01056.90709,E,1,09,1.07,116.8,M,46.0,M,,*5F

$GPRMC,134936.40,A,4437.77217,N,01056.90697,E,3.758,220.15,140422,,,A*6F

$GPRMC,134936.50,A,4437.77189,N,01056.90689,E,3.620,214.51,140422,,,A*6C

$GPRMC,134936.60,A,4437.77164,N,01056.90670,E,3.777,213.71,140422,,,A*6C

$GPRMC,134936.70,A,4437.77145,N,01056.90646,E,4.044,214.64,140422,,,A*68

$GPRMC,134936.80,A,4437.77136,N,01056.90610,E,4.223,217.80,140422,,,A*6A

$GPRMC,134936.90,A,4437.77113,N,01056.90562,E,4.500,222.54,140422,,,A*63

$GPRMC,134937.00,A,4437.77091,N,01056.90518,E,4.514,223.42,140422,,,A*6E

$GPRMC,134937.20,A,4437.77069,N,01056.90427,E,5.758,231.66,140422,,,A*68

$GPRMC,134937.30,A,4437.77052,N,01056.90361,E,6.001,233.57,140422,,,A*6C

$GPRMC,134937.40,A,4437.77032,N,01056.90288,E,5.990,235.05,140422,,,A*68

$GPGGA,134937.40,4437.77032,N,01056.90288,E,1,08,1.26,116.7,M,46.0,M,,*51

$GPRMC,134937.50,A,4437.77009,N,01056.90216,E,6.443,231.49,140422,,,A*6A

$GPRMC,134937.60,A,4437.76993,N,01056.90168,E,6.388,230.27,140422,,,A*61

$GPRMC,134937.70,A,4437.76978,N,01056.90094,E,6.164,230.28,140422,,,A*68

$GPRMC,134937.80,A,4437.76968,N,01056.90024,E,5.785,228.96,140422,,,A*6B

$GPRMC,134937.90,A,4437.76946,N,01056.89975,E,6.196,230.34,140422,,,A*65

$GPRMC,134938.00,A,4437.76926,N,01056.89929,E,6.112,231.48,140422,,,A*6A

$GPRMC,134938.10,A,4437.76896,N,01056.89893,E,6.302,231.35,140422,,,A*68

$GPRMC,134938.20,A,4437.76872,N,01056.89847,E,6.221,233.32,140422,,,A*6D

$GPRMC,134938.30,A,4437.76843,N,01056.89805,E,6.339,234.99,140422,,,A*66

$GPRMC,134938.40,A,4437.76794,N,01056.89774,E,6.709,230.64,140422,,,A*6C

$GPGGA,134938.40,4437.76794,N,01056.89774,E,1,09,1.19,115.0,M,46.0,M,,*53

$GPRMC,134938.50,A,4437.76775,N,01056.89703,E,7.028,229.71,140422,,,A*6B

$GPRMC,134938.60,A,4437.76743,N,01056.89675,E,7.047,227.44,140422,,,A*6C

$GPRMC,134938.70,A,4437.76716,N,01056.89643,E,7.289,226.75,140422,,,A*6B

$GPRMC,134938.80,A,4437.76683,N,01056.89614,E,7.407,225.87,140422,,,A*65

$GPRMC,134938.90,A,4437.76648,N,01056.89584,E,7.428,225.30,140422,,,A*68

$GPRMC,134939.00,A,4437.76619,N,01056.89552,E,7.523,225.39,140422,,,A*6C

$GPRMC,134939.10,A,4437.76589,N,01056.89520,E,7.548,225.23,140422,,,A*64

$GPRMC,134939.20,A,4437.76560,N,01056.89488,E,7.716,225.06,140422,,,A*6D

$GPRMC,134939.30,A,4437.76534,N,01056.89458,E,7.664,225.39,140422,,,A*68

$GPRMC,134939.40,A,4437.76517,N,01056.89427,E,7.707,227.34,140422,,,A*6D

$GPGGA,134939.40,4437.76517,N,01056.89427,E,1,08,1.19,113.7,M,46.0,M,,*5E

$GPRMC,134939.50,A,4437.76497,N,01056.89396,E,7.678,227.08,140422,,,A*6E

$GPRMC,134939.60,A,4437.76469,N,01056.89357,E,7.859,227.39,140422,,,A*6E

$GPRMC,134939.70,A,4437.76374,N,01056.89299,E,9.168,221.96,140422,,,A*61

$GPRMC,134939.80,A,4437.76344,N,01056.89262,E,9.155,220.29,140422,,,A*62

$GPRMC,134939.90,A,4437.76317,N,01056.89224,E,9.202,220.31,140422,,,A*6F

$GPRMC,134940.00,A,4437.76285,N,01056.89188,E,9.152,220.82,140422,,,A*69

$GPRMC,134940.10,A,4437.76254,N,01056.89154,E,9.218,220.77,140422,,,A*62

$GPRMC,134940.20,A,4437.76220,N,01056.89114,E,9.321,220.88,140422,,,A*6D

$GPRMC,134940.30,A,4437.76199,N,01056.89071,E,9.212,221.82,140422,,,A*65

$GPRMC,134940.40,A,4437.76175,N,01056.89026,E,9.234,222.46,140422,,,A*6D

$GPGGA,134940.40,4437.76175,N,01056.89026,E,1,08,1.13,110.9,M,46.0,M,,*52

$GPRMC,134940.50,A,4437.76142,N,01056.88969,E,9.521,223.36,140422,,,A*6E

$GPRMC,134940.60,A,4437.76107,N,01056.88912,E,9.871,224.17,140422,,,A*6C

$GPRMC,134940.70,A,4437.76082,N,01056.88864,E,9.711,224.42,140422,,,A*68

$GPRMC,134940.80,A,4437.76058,N,01056.88819,E,9.644,224.66,140422,,,A*6D

$GPRMC,134940.90,A,4437.76029,N,01056.88782,E,9.669,224.39,140422,,,A*62

$GPRMC,134941.00,A,4437.76002,N,01056.88736,E,9.747,224.19,140422,,,A*63

$GPRMC,134941.20,A,4437.75954,N,01056.88662,E,9.760,224.28,140422,,,A*6F

$GPRMC,134941.30,A,4437.75923,N,01056.88614,E,9.651,223.79,140422,,,A*6F

$GPRMC,134941.40,A,4437.75886,N,01056.88563,E,9.819,223.04,140422,,,A*6D

$GPRMC,134941.50,A,4437.75850,N,01056.88512,E,9.894,223.20,140422,,,A*62

$GPGGA,134941.50,4437.75850,N,01056.88512,E,1,09,0.91,108.2,M,46.0,M,,*54

$GPRMC,134941.60,A,4437.75817,N,01056.88462,E,9.932,223.50,140422,,,A*6E

$GPRMC,134941.70,A,4437.75781,N,01056.88398,E,10.219,223.70,140422,,,A*55

$GPRMC,134941.80,A,4437.75750,N,01056.88335,E,10.102,223.93,140422,,,A*55

$GPRMC,134941.90,A,4437.75718,N,01056.88283,E,10.025,223.00,140422,,,A*5A

$GPRMC,134942.00,A,4437.75686,N,01056.88236,E,10.105,221.99,140422,,,A*59

$GPRMC,134942.10,A,4437.75644,N,01056.88185,E,10.117,219.13,140422,,,A*57

$GPRMC,134942.20,A,4437.75604,N,01056.88132,E,10.201,216.14,140422,,,A*50

$GPRMC,134942.30,A,4437.75562,N,01056.88084,E,10.135,213.21,140422,,,A*59

$GPRMC,134942.40,A,4437.75491,N,01056.88031,E,10.608,208.84,140422,,,A*51

$GPRMC,134942.50,A,4437.75442,N,01056.87989,E,10.541,205.59,140422,,,A*58

$GPGGA,134942.50,4437.75442,N,01056.87989,E,1,10,0.84,103.2,M,46.0,M,,*5E

$GPRMC,134942.60,A,4437.75406,N,01056.87947,E,10.239,203.59,140422,,,A*57

$GPRMC,134942.70,A,4437.75371,N,01056.87905,E,10.037,202.11,140422,,,A*56

$GPRMC,134942.80,A,4437.75332,N,01056.87866,E,9.816,200.63,140422,,,A*6E

$GPRMC,134942.90,A,4437.75294,N,01056.87831,E,9.698,198.42,140422,,,A*69

