
$GPRMC,133702.30,A,4437.78547,N,01057.00204,E,0.069,,140422,,,A*71

$GPRMC,133702.50,A,4437.78548,N,01057.00203,E,0.032,,140422,,,A*71

$GPRMC,133702.70,A,4437.78548,N,01057.00203,E,0.014,,140422,,,A*77

$GPRMC,133702.80,A,4437.78547,N,01057.00203,E,0.074,,140422,,,A*71

$GPRMC,133702.90,A,4437.78546,N,01057.00204,E,0.093,,140422,,,A*7F

$GPRMC,133703.00,A,4437.78545,N,01057.00204,E,0.080,,140422,,,A*76

$GPRMC,133703.10,A,4437.78543,N,01057.00205,E,0.140,,140422,,,A*7D

$GPRMC,133703.20,A,4437.78541,N,01057.00206,E,0.098,,140422,,,A*7B

$GPRMC,133703.30,A,4437.78540,N,01057.00206,E,0.089,,140422,,,A*7B

$GPRMC,133703.40,A,4437.78539,N,01057.00206,E,0.030,,140422,,,A*70

$GPGGA,133703.40,4437.78539,N,01057.00206,E,1,08,1.05,45.4,M,46.0,M,,*65

$GPRMC,133703.60,A,4437.78537,N,01057.00206,E,0.077,,140422,,,A*7F

$GPRMC,133703.70,A,4437.78536,N,01057.00206,E,0.058,,140422,,,A*72

$GPRMC,133703.80,A,4437.78534,N,01057.00206,E,0.063,,140422,,,A*77

$GPRMC,133703.90,A,4437.78532,N,01057.00207,E,0.003,,140422,,,A*77

$GPRMC,133704.00,A,4437.78530,N,01057.00207,E,0.054,,140422,,,A*79

$GPRMC,133704.10,A,4437.78527,N,01057.00209,E,0.077,,140422,,,A*71

$GPRMC,133704.30,A,4437.78526,N,01057.00210,E,0.090,,140422,,,A*73

$GPRMC,133704.40,A,4437.78524,N,01057.00210,E,0.036,,140422,,,A*7A

$GPRMC,133704.50,A,4437.78523,N,01057.00209,E,0.047,,140422,,,A*72

$GPRMC,133704.60,A,4437.78523,N,01057.00209,E,0.070,,140422,,,A*75

$GPGGA,133704.60,4437.78523,N,01057.00209,E,1,08,1.05,45.4,M,46.0,M,,*64

$GPRMC,133704.70,A,4437.78523,N,01057.00208,E,0.262,,140422,,,A*74

$GPRMC,133704.80,A,4437.78523,N,01057.00208,E,0.494,76.35,140422,,,A*5D

$GPRMC,133705.00,A,4437.78528,N,01057.00211,E,0.979,33.10,140422,,,A*5F

$GPRMC,133705.10,A,4437.78532,N,01057.00211,E,0.981,28.79,140422,,,A*57

$GPRMC,133705.30,A,4437.78541,N,01057.00218,E,1.942,40.30,140422,,,A*55

$GPRMC,133705.40,A,4437.78549,N,01057.00221,E,2.887,31.66,140422,,,A*5E

$GPRMC,133705.60,A,4437.78558,N,01057.00225,E,1.847,29.54,140422,,,A*5F

$GPRMC,133705.80,A,4437.78572,N,01057.00236,E,3.124,34.00,140422,,,A*58

$GPRMC,133705.90,A,4437.78584,N,01057.00234,E,3.252,26.73,140422,,,A*57

$GPRMC,133706.00,A,4437.78596,N,01057.00243,E,4.327,31.46,140422,,,A*5A

$GPGGA,133706.00,4437.78596,N,01057.00243,E,1,08,1.05,45.0,M,46.0,M,,*64

$GPRMC,133706.20,A,4437.78609,N,01057.00260,E,3.300,35.24,140422,,,A*5E

$GPRMC,133706.40,A,4437.78631,N,01057.00282,E,4.564,38.01,140422,,,A*56

$GPRMC,133706.60,A,4437.78657,N,01057.00306,E,5.625,36.12,140422,,,A*52

$GPRMC,133706.80,A,4437.78681,N,01057.00330,E,5.417,36.30,140422,,,A*51

$GPRMC,133707.00,A,4437.78699,N,01057.00346,E,4.121,33.73,140422,,,A*53

$GPRMC,133707.20,A,4437.78725,N,01057.00372,E,5.650,36.76,140422,,,A*50

$GPRMC,133707.30,A,4437.78742,N,01057.00383,E,5.922,35.46,140422,,,A*54

$GPRMC,133707.50,A,4437.78770,N,01057.00410,E,6.342,35.97,140422,,,A*5D

$GPRMC,133707.70,A,4437.78800,N,01057.00441,E,6.654,38.47,140422,,,A*51

$GPRMC,133707.90,A,4437.78833,N,01057.00470,E,6.782,37.88,140422,,,A*5B

$GPGGA,133707.90,4437.78833,N,01057.00470,E,1,08,1.31,44.8,M,46.0,M,,*66

$GPRMC,133708.10,A,4437.78866,N,01057.00503,E,7.156,37.19,140422,,,A*5F

$GPRMC,133708.30,A,4437.78898,N,01057.00531,E,6.877,35.72,140422,,,A*59

$GPRMC,133708.40,A,4437.78914,N,01057.00543,E,6.871,34.59,140422,,,A*50

$GPRMC,133708.50,A,4437.78930,N,01057.00555,E,6.617,35.24,140422,,,A*55

$GPRMC,133708.70,A,4437.78961,N,01057.00593,E,7.114,40.24,140422,,,A*5E

$GPRMC,133708.90,A,4437.78991,N,01057.00633,E,7.563,42.87,140422,,,A*59

$GPRMC,133709.10,A,4437.79021,N,01057.00669,E,7.289,44.43,140422,,,A*51

$GPRMC,133709.30,A,4437.79053,N,01057.00708,E,7.451,44.64,140422,,,A*56

$GPRMC,133709.50,A,4437.79088,N,01057.00749,E,7.996,43.52,140422,,,A*57

$GPRMC,133709.70,A,4437.79121,N,01057.00787,E,7.979,42.02,140422,,,A*50

$GPGGA,133709.70,4437.79121,N,01057.00787,E,1,08,1.31,44.8,M,46.0,M,,*66

$GPRMC,133709.90,A,4437.79154,N,01057.00826,E,7.967,41.34,140422,,,A*51

$GPRMC,133710.00,A,4437.79172,N,01057.00850,E,8.028,43.51,140422,,,A*59

$GPRMC,133710.10,A,4437.79193,N,01057.00874,E,8.381,43.43,140422,,,A*52

$GPRMC,133710.30,A,4437.79229,N,01057.00914,E,7.809,41.62,140422,,,A*50

$GPRMC,133710.50,A,4437.79258,N,01057.00952,E,7.162,42.68,140422,,,A*5F

$GPRMC,133710.70,A,4437.79281,N,01057.00987,E,6.497,44.86,140422,,,A*59

$GPRMC,133710.90,A,4437.79306,N,01057.01023,E,6.170,46.98,140422,,,A*5E

$GPRMC,133711.10,A,4437.79333,N,01057.01059,E,6.424,45.54,140422,,,A*5B

$GPRMC,133711.30,A,4437.79356,N,01057.01092,E,6.091,46.12,140422,,,A*56

$GPRMC,133711.40,A,4437.79371,N,01057.01107,E,5.506,45.70,140422,,,A*56

$GPGGA,133711.40,4437.79371,N,01057.01107,E,1,08,1.05,44.3,M,46.0,M,,*68

$GPRMC,133711.60,A,4437.79394,N,01057.01130,E,5.079,40.73,140422,,,A*50

$GPRMC,133711.80,A,4437.79419,N,01057.01154,E,5.077,38.70,140422,,,A*5C

$GPRMC,133712.00,A,4437.79439,N,01057.01170,E,4.632,32.24,140422,,,A*5E

$GPRMC,133712.20,A,4437.79461,N,01057.01185,E,4.519,29.51,140422,,,A*59

$GPRMC,133712.40,A,4437.79486,N,01057.01191,E,4.654,15.48,140422,,,A*5E

$GPRMC,133712.60,A,4437.79513,N,01057.01195,E,4.633,8.91,140422,,,A*6C

$GPRMC,133712.80,A,4437.79535,N,01057.01191,E,4.265,359.14,140422,,,A*6F

$GPRMC,133713.00,A,4437.79568,N,01057.01190,E,5.608,355.52,140422,,,A*6F

$GPRMC,133713.20,A,4437.79600,N,01057.01182,E,5.504,347.91,140422,,,A*60

$GPRMC,133713.40,A,4437.79629,N,01057.01167,E,5.545,337.86,140422,,,A*62

$GPGGA,133713.40,4437.79629,N,01057.01167,E,1,08,1.05,44.1,M,46.0,M,,*66

$GPRMC,133713.60,A,4437.79664,N,01057.01144,E,5.922,329.02,140422,,,A*66

$GPRMC,133713.70,A,4437.79682,N,01057.01137,E,6.013,329.94,140422,,,A*6C

$GPRMC,133713.90,A,4437.79715,N,01057.01116,E,6.102,328.76,140422,,,A*62

$GPRMC,133714.00,A,4437.79734,N,01057.01105,E,6.425,327.95,140422,,,A*6F

$GPRMC,133714.10,A,4437.79752,N,01057.01094,E,6.370,326.34,140422,,,A*6A

$GPRMC,133714.30,A,4437.79783,N,01057.01069,E,6.473,326.10,140422,,,A*64

$GPRMC,133714.50,A,4437.79815,N,01057.01045,E,6.599,323.63,140422,,,A*68

$GPRMC,133714.60,A,4437.79839,N,01057.01029,E,7.340,323.01,140422,,,A*68

$GPRMC,133714.80,A,4437.79872,N,01057.00994,E,7.212,318.58,140422,,,A*65

$GPRMC,133715.00,A,4437.79909,N,01057.00957,E,7.741,318.09,140422,,,A*69

$GPGGA,133715.00,4437.79909,N,01057.00957,E,1,07,1.39,42.5,M,46.0,M,,*61

$GPRMC,133715.20,A,4437.79943,N,01057.00921,E,7.542,316.11,140422,,,A*62

$GPRMC,133715.30,A,4437.79960,N,01057.00903,E,7.550,314.33,140422,,,A*63

$GPRMC,133715.40,A,4437.79981,N,01057.00884,E,7.623,314.63,140422,,,A*67

$GPRMC,133715.50,A,4437.79998,N,01057.00865,E,7.504,314.30,140422,,,A*61

$GPRMC,133715.60,A,4437.80014,N,01057.00844,E,7.919,311.46,140422,,,A*6E

$GPRMC,133715.70,A,4437.80032,N,01057.00822,E,7.990,310.63,140422,,,A*6C

$GPRMC,133715.80,A,4437.80053,N,01057.00803,E,8.024,312.82,140422,,,A*63

$GPRMC,133715.90,A,4437.80067,N,01057.00784,E,7.808,310.60,140422,,,A*62

$GPRMC,133716.00,A,4437.80085,N,01057.00764,E,8.221,311.38,140422,,,A*68

$GPRMC,133716.10,A,4437.80104,N,01057.00741,E,8.190,311.99,140422,,,A*64

$GPGGA,133716.10,4437.80104,N,01057.00741,E,1,07,1.39,41.4,M,46.0,M,,*6B

$GPRMC,133716.30,A,4437.80138,N,01057.00689,E,8.881,310.58,140422,,,A*69

$GPRMC,133716.50,A,4437.80169,N,01057.00639,E,8.510,309.04,140422,,,A*64

$GPRMC,133716.70,A,4437.80200,N,01057.00591,E,8.315,310.20,140422,,,A*66

$GPRMC,133716.80,A,4437.80217,N,01057.00568,E,8.526,311.24,140422,,,A*6A

$GPRMC,133716.90,A,4437.80234,N,01057.00545,E,8.559,312.36,140422,,,A*6D

$GPRMC,133717.00,A,4437.80253,N,01057.00524,E,8.538,313.06,140422,,,A*66

$GPRMC,133717.10,A,4437.80276,N,01057.00498,E,9.139,313.88,140422,,,A*64

$GPRMC,133717.20,A,4437.80298,N,01057.00475,E,9.120,314.13,140422,,,A*69

$GPRMC,133717.30,A,4437.80319,N,01057.00452,E,8.971,314.63,140422,,,A*6F

$GPRMC,133717.40,A,4437.80343,N,01057.00425,E,9.276,314.23,140422,,,A*6E

$GPGGA,133717.40,4437.80343,N,01057.00425,E,1,07,1.39,40.5,M,46.0,M,,*6F

$GPRMC,133717.60,A,4437.80387,N,01057.00377,E,9.198,317.93,140422,,,A*6F

$GPRMC,133717.80,A,4437.80427,N,01057.00327,E,9.416,315.88,140422,,,A*62

$GPRMC,133718.00,A,4437.80465,N,01057.00276,E,9.659,313.65,140422,,,A*6A

$GPRMC,133718.20,A,4437.80505,N,01057.00227,E,9.806,314.50,140422,,,A*6E

$GPRMC,133718.30,A,4437.80529,N,01057.00195,E,10.124,313.63,140422,,,A*5D

$GPRMC,133718.40,A,4437.80548,N,01057.00172,E,9.827,312.70,140422,,,A*65

$GPRMC,133718.60,A,4437.80587,N,01057.00112,E,10.279,309.94,140422,,,A*5B

$GPRMC,133718.80,A,4437.80625,N,01057.00053,E,10.246,310.14,140422,,,A*56

$GPRMC,133718.90,A,4437.80641,N,01057.00034,E,9.869,311.20,140422,,,A*6D

$GPRMC,133719.00,A,4437.80669,N,01056.99999,E,10.490,313.89,140422,,,A*53

$GPGGA,133719.00,4437.80669,N,01056.99999,E,1,07,1.39,39.7,M,46.0,M,,*6F

$GPRMC,133719.20,A,4437.80710,N,01056.99944,E,10.200,313.72,140422,,,A*55

$GPRMC,133719.40,A,4437.80748,N,01056.99895,E,9.887,314.80,140422,,,A*64

$GPRMC,133719.60,A,4437.80786,N,01056.99841,E,10.226,313.92,140422,,,A*50

$GPRMC,133719.70,A,4437.80802,N,01056.99811,E,10.142,310.54,140422,,,A*5F

$GPRMC,133719.80,A,4437.80823,N,01056.99782,E,10.391,311.01,140422,,,A*5B

$GPRMC,133719.90,A,4437.80842,N,01056.99755,E,10.353,311.57,140422,,,A*5A

$GPRMC,133720.00,A,4437.80857,N,01056.99734,E,10.032,310.71,140422,,,A*5B

$GPRMC,133720.10,A,4437.80874,N,01056.99707,E,10.256,310.30,140422,,,A*5E

$GPRMC,133720.20,A,4437.80894,N,01056.99681,E,10.310,311.66,140422,,,A*5D

$GPRMC,133720.30,A,4437.80910,N,01056.99653,E,10.114,309.96,140422,,,A*5E

$GPGGA,133720.30,4437.80910,N,01056.99653,E,1,07,1.39,40.4,M,46.0,M,,*63

$GPRMC,133720.50,A,4437.80947,N,01056.99596,E,10.187,310.80,140422,,,A*55

$GPRMC,133720.70,A,4437.80989,N,01056.99536,E,10.519,311.87,140422,,,A*5A

$GPRMC,133720.80,A,4437.81009,N,01056.99506,E,10.440,312.11,140422,,,A*57

$GPRMC,133720.90,A,4437.81033,N,01056.99469,E,10.633,311.72,140422,,,A*57

$GPRMC,133721.00,A,4437.81052,N,01056.99445,E,10.436,311.76,140422,,,A*55

$GPRMC,133721.10,A,4437.81071,N,01056.99421,E,10.538,312.22,140422,,,A*5A

$GPRMC,133721.30,A,4437.81113,N,01056.99361,E,10.496,312.57,140422,,,A*59

$GPRMC,133721.40,A,4437.81133,N,01056.99331,E,10.630,312.12,140422,,,A*56

$GPRMC,133721.60,A,4437.81175,N,01056.99268,E,10.687,312.48,140422,,,A*58

$GPRMC,133721.70,A,4437.81194,N,01056.99242,E,10.623,312.31,140422,,,A*5E

$GPGGA,133721.70,4437.81194,N,01056.99242,E,1,07,1.39,40.6,M,46.0,M,,*65

$GPRMC,133721.80,A,4437.81215,N,01056.99203,E,11.196,310.17,140422,,,A*50

$GPRMC,133721.90,A,4437.81237,N,01056.99170,E,11.166,310.95,140422,,,A*53

$GPRMC,133722.00,A,4437.81258,N,01056.99137,E,11.257,310.88,140422,,,A*5E

$GPRMC,133722.10,A,4437.81277,N,01056.99104,E,11.254,309.66,140422,,,A*59

$GPRMC,133722.20,A,4437.81298,N,01056.99072,E,11.467,310.00,140422,,,A*55

$GPRMC,133722.30,A,4437.81321,N,01056.99037,E,11.681,311.16,140422,,,A*5A

$GPRMC,133722.40,A,4437.81343,N,01056.99003,E,11.460,311.10,140422,,,A*55

$GPRMC,133722.50,A,4437.81364,N,01056.98963,E,11.612,308.71,140422,,,A*57

$GPRMC,133722.60,A,4437.81385,N,01056.98928,E,11.663,308.53,140422,,,A*52

$GPRMC,133722.70,A,4437.81406,N,01056.98897,E,11.734,309.80,140422,,,A*56

$GPGGA,133722.70,4437.81406,N,01056.98897,E,1,08,1.39,40.7,M,46.0,M,,*65

$GPRMC,133722.80,A,4437.81425,N,01056.98858,E,11.827,307.50,140422,,,A*55

$GPRMC,133722.90,A,4437.81445,N,01056.98823,E,12.053,307.97,140422,,,A*5D

$GPRMC,133723.00,A,4437.81465,N,01056.98791,E,11.845,308.97,140422,,,A*52

$GPRMC,133723.10,A,4437.81484,N,01056.98753,E,11.719,307.22,140422,,,A*55

$GPRMC,133723.20,A,4437.81505,N,01056.98716,E,11.916,307.60,140422,,,A*58

$GPRMC,133723.30,A,4437.81526,N,01056.98681,E,11.769,307.94,140422,,,A*5A

$GPRMC,133723.50,A,4437.81565,N,01056.98608,E,11.857,306.34,140422,,,A*53

$GPRMC,133723.60,A,4437.81586,N,01056.98571,E,11.922,306.50,140422,,,A*51

$GPRMC,133723.80,A,4437.81634,N,01056.98491,E,12.489,308.92,140422,,,A*55

$GPRMC,133723.90,A,4437.81658,N,01056.98449,E,12.282,308.51,140422,,,A*59

$GPGGA,133723.90,4437.81658,N,01056.98449,E,1,07,1.39,40.6,M,46.0,M,,*62

$GPRMC,133724.10,A,4437.81703,N,01056.98363,E,12.085,305.72,140422,,,A*5F

$GPRMC,133724.30,A,4437.81748,N,01056.98288,E,12.407,308.95,140422,,,A*5C

$GPRMC,133724.50,A,4437.81794,N,01056.98207,E,12.824,306.88,140422,,,A*53

$GPRMC,133724.70,A,4437.81836,N,01056.98130,E,12.612,305.69,140422,,,A*56

$GPRMC,133724.90,A,4437.81878,N,01056.98055,E,12.618,306.70,140422,,,A*51

$GPRMC,133725.00,A,4437.81900,N,01056.98014,E,12.793,306.26,140422,,,A*53

$GPRMC,133725.10,A,4437.81924,N,01056.97976,E,12.874,307.73,140422,,,A*51

$GPRMC,133725.20,A,4437.81945,N,01056.97937,E,12.920,307.03,140422,,,A*57

$GPRMC,133725.30,A,4437.81968,N,01056.97900,E,12.881,307.49,140422,,,A*59

$GPRMC,133725.40,A,4437.81989,N,01056.97860,E,12.982,307.15,140422,,,A*5D

$GPGGA,133725.40,4437.81989,N,01056.97860,E,1,07,1.39,40.2,M,46.0,M,,*66

$GPRMC,133725.50,A,4437.82007,N,01056.97825,E,12.926,306.23,140422,,,A*5B

$GPRMC,133725.60,A,4437.82020,N,01056.97802,E,12.360,305.61,140422,,,A*55

$GPRMC,133725.70,A,4437.82044,N,01056.97762,E,12.257,306.89,140422,,,A*5F

$GPRMC,133725.80,A,4437.82061,N,01056.97729,E,11.743,306.08,140422,,,A*52

$GPRMC,133725.90,A,4437.82080,N,01056.97695,E,11.572,305.45,140422,,,A*50

$GPRMC,133726.00,A,4437.82100,N,01056.97663,E,11.435,306.05,140422,,,A*5F

$GPRMC,133726.10,A,4437.82120,N,01056.97624,E,10.757,305.35,140422,,,A*59

$GPRMC,133726.20,A,4437.82139,N,01056.97590,E,10.913,304.24,140422,,,A*51

$GPRMC,133726.40,A,4437.82173,N,01056.97526,E,10.246,304.90,140422,,,A*50

$GPRMC,133726.50,A,4437.82185,N,01056.97504,E,9.758,303.53,140422,,,A*62

$GPGGA,133726.50,4437.82185,N,01056.97504,E,1,07,1.39,40.6,M,46.0,M,,*68

$GPRMC,133726.70,A,4437.82216,N,01056.97429,E,10.124,299.54,140422,,,A*57

$GPRMC,133726.90,A,4437.82242,N,01056.97371,E,8.912,299.09,140422,,,A*6E

$GPRMC,133727.10,A,4437.82263,N,01056.97320,E,8.131,296.83,140422,,,A*64

$GPRMC,133727.20,A,4437.82278,N,01056.97282,E,8.543,294.75,140422,,,A*6E

$GPRMC,133727.40,A,4437.82299,N,01056.97211,E,8.275,291.16,140422,,,A*6F

$GPRMC,133727.60,A,4437.82315,N,01056.97148,E,8.143,287.44,140422,,,A*61

$GPRMC,133727.80,A,4437.82324,N,01056.97089,E,7.664,281.35,140422,,,A*6C

$GPRMC,133728.00,A,4437.82330,N,01056.97028,E,7.277,275.87,140422,,,A*61

$GPRMC,133728.20,A,4437.82333,N,01056.96976,E,6.533,273.21,140422,,,A*6F

$GPRMC,133728.40,A,4437.82328,N,01056.96931,E,6.219,265.17,140422,,,A*6D

$GPGGA,133728.40,4437.82328,N,01056.96931,E,1,08,1.05,39.6,M,46.0,M,,*67

$GPRMC,133728.60,A,4437.82321,N,01056.96877,E,6.683,255.69,140422,,,A*68

$GPRMC,133728.80,A,4437.82314,N,01056.96825,E,6.064,253.63,140422,,,A*64

$GPRMC,133729.00,A,4437.82306,N,01056.96780,E,5.673,251.09,140422,,,A*63

$GPRMC,133729.10,A,4437.82302,N,01056.96760,E,5.674,248.37,140422,,,A*6A

$GPRMC,133729.30,A,4437.82293,N,01056.96721,E,5.393,248.21,140422,,,A*6F

$GPRMC,133729.50,A,4437.82283,N,01056.96691,E,4.668,242.41,140422,,,A*6E

$GPRMC,133729.70,A,4437.82270,N,01056.96658,E,5.149,238.33,140422,,,A*68

$GPRMC,133729.80,A,4437.82267,N,01056.96648,E,4.205,233.19,140422,,,A*69

$GPRMC,133730.00,A,4437.82250,N,01056.96610,E,5.298,229.54,140422,,,A*67

$GPRMC,133730.20,A,4437.82232,N,01056.96590,E,4.588,222.23,140422,,,A*66

$GPGGA,133730.20,4437.82232,N,01056.96590,E,1,08,1.05,39.1,M,46.0,M,,*62

$GPRMC,133730.40,A,4437.82220,N,01056.96570,E,3.864,219.56,140422,,,A*6F

$GPRMC,133730.60,A,4437.82214,N,01056.96545,E,3.479,225.12,140422,,,A*63

$GPRMC,133730.70,A,4437.82214,N,01056.96538,E,2.896,226.08,140422,,,A*6C

$GPRMC,133730.80,A,4437.82213,N,01056.96534,E,2.376,220.71,140422,,,A*65

$GPRMC,133731.00,A,4437.82206,N,01056.96521,E,2.755,219.58,140422,,,A*68

$GPRMC,133731.20,A,4437.82204,N,01056.96512,E,1.358,213.52,140422,,,A*62

$GPRMC,133731.30,A,4437.82203,N,01056.96510,E,1.709,186.75,140422,,,A*6C

$GPRMC,133731.40,A,4437.82200,N,01056.96506,E,1.951,183.78,140422,,,A*64

$GPRMC,133731.50,A,4437.82196,N,01056.96499,E,2.332,186.29,140422,,,A*63

$GPRMC,133731.70,A,4437.82192,N,01056.96498,E,2.251,179.82,140422,,,A*61

$GPGGA,133731.70,4437.82192,N,01056.96498,E,1,08,1.05,39.9,M,46.0,M,,*6E

$GPRMC,133731.80,A,4437.82196,N,01056.96496,E,2.222,177.59,140422,,,A*68

$GPRMC,133731.90,A,4437.82203,N,01056.96492,E,1.142,176.88,140422,,,A*69

$GPRMC,133732.00,A,4437.82208,N,01056.96491,E,1.493,174.16,140422,,,A*67

$GPRMC,133732.10,A,4437.82236,N,01056.96496,E,0.381,186.03,140422,,,A*60

$GPRMC,133732.20,A,4437.82246,N,01056.96495,E,0.404,,140422,,,A*7F

$GPRMC,133732.30,A,4437.82260,N,01056.96496,E,0.629,80.70,140422,,,A*55

$GPRMC,133732.40,A,4437.82274,N,01056.96497,E,0.881,16.06,140422,,,A*54

$GPRMC,133732.50,A,4437.82283,N,01056.96498,E,0.765,13.71,140422,,,A*52

$GPRMC,133732.60,A,4437.82291,N,01056.96493,E,0.937,340.48,140422,,,A*6F

$GPRMC,133732.70,A,4437.82295,N,01056.96487,E,0.900,321.38,140422,,,A*6B

$GPGGA,133732.70,4437.82295,N,01056.96487,E,1,08,1.05,43.5,M,46.0,M,,*66

$GPRMC,133732.80,A,4437.82303,N,01056.96484,E,0.774,311.26,140422,,,A*68

$GPRMC,133732.90,A,4437.82312,N,01056.96477,E,1.177,303.85,140422,,,A*6B

$GPRMC,133733.00,A,4437.82322,N,01056.96472,E,1.460,303.90,140422,,,A*62

$GPRMC,133733.10,A,4437.82326,N,01056.96464,E,1.503,295.75,140422,,,A*61

$GPRMC,133733.20,A,4437.82325,N,01056.96459,E,1.529,279.51,140422,,,A*63

$GPRMC,133733.30,A,4437.82325,N,01056.96453,E,1.818,263.85,140422,,,A*65

$GPRMC,133733.40,A,4437.82324,N,01056.96448,E,1.892,254.97,140422,,,A*6C

$GPRMC,133733.50,A,4437.82324,N,01056.96442,E,1.946,249.80,140422,,,A*65

$GPRMC,133733.60,A,4437.82326,N,01056.96429,E,2.635,254.93,140422,,,A*6F

$GPRMC,133733.70,A,4437.82326,N,01056.96420,E,2.440,257.05,140422,,,A*6B

$GPGGA,133733.70,4437.82326,N,01056.96420,E,1,08,1.05,46.9,M,46.0,M,,*6A

$GPRMC,133733.80,A,4437.82324,N,01056.96408,E,2.752,254.67,140422,,,A*6B

$GPRMC,133733.90,A,4437.82324,N,01056.96395,E,2.843,256.61,140422,,,A*62

$GPRMC,133734.00,A,4437.82322,N,01056.96386,E,2.862,254.55,140422,,,A*6E

$GPRMC,133734.10,A,4437.82321,N,01056.96372,E,3.266,254.25,140422,,,A*6F

$GPRMC,133734.20,A,4437.82319,N,01056.96363,E,3.196,252.19,140422,,,A*62

$GPRMC,133734.30,A,4437.82319,N,01056.96351,E,3.313,252.63,140422,,,A*60

$GPRMC,133734.40,A,4437.82318,N,01056.96341,E,3.485,252.19,140422,,,A*62

$GPRMC,133734.50,A,4437.82317,N,01056.96332,E,3.458,250.40,140422,,,A*66

$GPRMC,133734.60,A,4437.82316,N,01056.96319,E,3.508,251.72,140422,,,A*69

$GPRMC,133734.70,A,4437.82315,N,01056.96303,E,3.954,252.92,140422,,,A*68

$GPGGA,133734.70,4437.82315,N,01056.96303,E,1,08,1.05,50.0,M,46.0,M,,*65

$GPRMC,133734.80,A,4437.82314,N,01056.96290,E,3.713,254.24,140422,,,A*6B

$GPRMC,133734.90,A,4437.82312,N,01056.96279,E,3.744,252.70,140422,,,A*6E

$GPRMC,133735.00,A,4437.82313,N,01056.96267,E,3.662,253.64,140422,,,A*69

$GPRMC,133735.10,A,4437.82315,N,01056.96250,E,3.997,256.06,140422,,,A*6E

$GPRMC,133735.30,A,4437.82313,N,01056.96218,E,4.202,257.56,140422,,,A*62

$GPRMC,133735.40,A,4437.82318,N,01056.96202,E,4.392,261.28,140422,,,A*61

$GPRMC,133735.60,A,4437.82327,N,01056.96165,E,4.894,268.10,140422,,,A*62

$GPRMC,133735.80,A,4437.82339,N,01056.96127,E,5.216,273.18,140422,,,A*66

$GPRMC,133736.00,A,4437.82343,N,01056.96085,E,5.525,273.35,140422,,,A*61

$GPRMC,133736.20,A,4437.82341,N,01056.96047,E,5.140,270.76,140422,,,A*6C

$GPGGA,133736.20,4437.82341,N,01056.96047,E,1,07,1.10,55.6,M,46.0,M,,*68

$GPRMC,133736.40,A,4437.82335,N,01056.96015,E,4.605,264.74,140422,,,A*6E

$GPRMC,133736.60,A,4437.82329,N,01056.95980,E,4.604,260.30,140422,,,A*62

$GPRMC,133736.80,A,4437.82323,N,01056.95945,E,4.667,256.49,140422,,,A*61

$GPRMC,133737.00,A,4437.82308,N,01056.95914,E,4.681,248.86,140422,,,A*61

$GPRMC,133737.20,A,4437.82304,N,01056.95875,E,4.878,252.20,140422,,,A*66

$GPRMC,133737.40,A,4437.82292,N,01056.95839,E,4.957,248.16,140422,,,A*64

$GPRMC,133737.50,A,4437.82285,N,01056.95821,E,4.742,245.27,140422,,,A*6F

$GPRMC,133737.60,A,4437.82277,N,01056.95803,E,5.114,241.73,140422,,,A*60

$GPRMC,133737.70,A,4437.82275,N,01056.95784,E,4.833,241.17,140422,,,A*6C

$GPRMC,133737.80,A,4437.82269,N,01056.95764,E,5.081,240.38,140422,,,A*6C

$GPGGA,133737.80,4437.82269,N,01056.95764,E,1,07,1.10,61.2,M,46.0,M,,*6E

$GPRMC,133737.90,A,4437.82262,N,01056.95744,E,5.053,239.73,140422,,,A*6A

$GPRMC,133738.00,A,4437.82253,N,01056.95722,E,5.394,239.68,140422,,,A*6C

$GPRMC,133738.10,A,4437.82241,N,01056.95699,E,5.458,237.99,140422,,,A*68

$GPRMC,133738.20,A,4437.82227,N,01056.95680,E,5.583,234.65,140422,,,A*64

$GPRMC,133738.30,A,4437.82228,N,01056.95649,E,5.942,241.01,140422,,,A*6E

$GPRMC,133738.40,A,4437.82235,N,01056.95631,E,5.640,244.35,140422,,,A*65

$GPRMC,133738.50,A,4437.82237,N,01056.95613,E,5.734,245.76,140422,,,A*62

$GPRMC,133738.60,A,4437.82238,N,01056.95593,E,5.641,247.39,140422,,,A*6F

$GPRMC,133738.70,A,4437.82230,N,01056.95573,E,5.547,246.93,140422,,,A*6C

$GPRMC,133738.80,A,4437.82221,N,01056.95550,E,5.906,245.30,140422,,,A*61

$GPGGA,133738.80,4437.82221,N,01056.95550,E,1,07,1.10,64.6,M,46.0,M,,*69

$GPRMC,133738.90,A,4437.82211,N,01056.95527,E,5.540,244.62,140422,,,A*6B

$GPRMC,133739.00,A,4437.82203,N,01056.95507,E,5.954,243.30,140422,,,A*6B

$GPRMC,133739.10,A,4437.82198,N,01056.95489,E,5.949,243.38,140422,,,A*68

$GPRMC,133739.20,A,4437.82190,N,01056.95474,E,5.839,241.68,140422,,,A*60

$GPRMC,133739.40,A,4437.82179,N,01056.95437,E,5.919,242.94,140422,,,A*65

$GPRMC,133739.60,A,4437.82160,N,01056.95394,E,6.202,243.73,140422,,,A*6B

$GPRMC,133739.80,A,4437.82133,N,01056.95348,E,6.581,242.55,140422,,,A*6B

$GPRMC,133740.00,A,4437.82090,N,01056.95299,E,6.801,238.40,140422,,,A*64

$GPRMC,133740.20,A,4437.81928,N,01056.95218,E,9.539,217.92,140422,,,A*6D

$GPRMC,133740.30,A,4437.81832,N,01056.95168,E,10.370,214.75,140422,,,A*5B

$GPGGA,133740.30,4437.81832,N,01056.95168,E,1,08,1.27,64.6,M,46.0,M,,*62

$GPRMC,133740.40,A,4437.81765,N,01056.95127,E,10.573,214.08,140422,,,A*55

$GPRMC,133740.50,A,4437.81718,N,01056.95093,E,10.999,213.62,140422,,,A*53

$GPRMC,133740.60,A,4437.81690,N,01056.95064,E,10.380,215.41,140422,,,A*5C

$GPRMC,133740.70,A,4437.81688,N,01056.95043,E,8.983,220.79,140422,,,A*6C

$GPRMC,133740.90,A,4437.81646,N,01056.94988,E,9.532,222.58,140422,,,A*69

$GPRMC,133741.10,A,4437.81598,N,01056.94932,E,10.211,221.93,140422,,,A*5B

$GPRMC,133741.20,A,4437.81569,N,01056.94902,E,10.080,221.71,140422,,,A*53

$GPRMC,133741.30,A,4437.81539,N,01056.94872,E,10.304,221.02,140422,,,A*5A

$GPRMC,133741.40,A,4437.81508,N,01056.94842,E,10.549,220.20,140422,,,A*52

$GPRMC,133741.50,A,4437.81476,N,01056.94811,E,10.557,219.82,140422,,,A*50

$GPGGA,133741.50,4437.81476,N,01056.94811,E,1,07,1.27,63.3,M,46.0,M,,*62

$GPRMC,133741.70,A,4437.81427,N,01056.94753,E,10.325,221.19,140422,,,A*55

$GPRMC,133741.80,A,4437.81373,N,01056.94717,E,11.510,215.77,140422,,,A*52

$GPRMC,133742.00,A,4437.81300,N,01056.94655,E,12.206,215.08,140422,,,A*51

$GPRMC,133742.20,A,4437.81236,N,01056.94599,E,12.029,213.77,140422,,,A*55

$GPRMC,133742.40,A,4437.81173,N,01056.94540,E,11.908,215.27,140422,,,A*5F

$GPRMC,133742.60,A,4437.81116,N,01056.94483,E,12.115,216.17,140422,,,A*57

$GPRMC,133742.80,A,4437.81054,N,01056.94424,E,11.906,216.97,140422,,,A*52

$GPRMC,133743.00,A,4437.80984,N,01056.94363,E,12.656,215.10,140422,,,A*5F

$GPRMC,133743.20,A,4437.80916,N,01056.94304,E,12.702,214.84,140422,,,A*5B

$GPRMC,133743.40,A,4437.80849,N,01056.94241,E,12.713,216.42,140422,,,A*5E

$GPGGA,133743.40,4437.80849,N,01056.94241,E,1,07,1.27,61.4,M,46.0,M,,*6A

$GPRMC,133743.60,A,4437.80782,N,01056.94178,E,12.663,217.03,140422,,,A*5F

$GPRMC,133743.70,A,4437.80753,N,01056.94145,E,12.343,218.73,140422,,,A*53

$GPRMC,133743.90,A,4437.80689,N,01056.94081,E,12.828,219.03,140422,,,A*52

$GPRMC,133744.10,A,4437.80629,N,01056.94025,E,12.363,216.96,140422,,,A*5E

$GPRMC,133744.30,A,4437.80564,N,01056.93968,E,12.570,216.01,140422,,,A*5B

$GPRMC,133744.40,A,4437.80528,N,01056.93938,E,12.554,215.53,140422,,,A*53

$GPRMC,133744.50,A,4437.80482,N,01056.93905,E,13.275,213.93,140422,,,A*52

$GPRMC,133744.60,A,4437.80445,N,01056.93875,E,12.989,214.04,140422,,,A*5C

$GPRMC,133744.80,A,4437.80376,N,01056.93819,E,13.307,213.86,140422,,,A*5F

$GPRMC,133745.00,A,4437.80307,N,01056.93756,E,13.081,214.60,140422,,,A*56

$GPGGA,133745.00,4437.80307,N,01056.93756,E,1,07,1.27,59.7,M,46.0,M,,*65

$GPRMC,133745.20,A,4437.80241,N,01056.93698,E,12.851,214.98,140422,,,A*57

$GPRMC,133745.40,A,4437.80179,N,01056.93640,E,13.104,215.41,140422,,,A*51

$GPRMC,133745.60,A,4437.80120,N,01056.93579,E,12.630,217.01,140422,,,A*51

$GPRMC,133745.70,A,4437.80090,N,01056.93548,E,12.515,218.37,140422,,,A*56

$GPRMC,133745.80,A,4437.80060,N,01056.93518,E,12.637,218.52,140422,,,A*53

$GPRMC,133745.90,A,4437.80031,N,01056.93486,E,12.434,219.16,140422,,,A*50

$GPRMC,133746.00,A,4437.79999,N,01056.93457,E,12.705,218.77,140422,,,A*5C

$GPRMC,133746.20,A,4437.79947,N,01056.93390,E,12.391,220.92,140422,,,A*58

$GPRMC,133746.40,A,4437.79908,N,01056.93330,E,11.424,223.59,140422,,,A*51

$GPRMC,133746.60,A,4437.79854,N,01056.93286,E,12.824,219.74,140422,,,A*5E

$GPGGA,133746.60,4437.79854,N,01056.93286,E,1,06,2.15,60.3,M,46.0,M,,*6E

$GPRMC,133746.80,A,4437.79818,N,01056.93223,E,11.984,222.01,140422,,,A*55

$GPRMC,133746.90,A,4437.79816,N,01056.93195,E,11.220,226.45,140422,,,A*55

$GPRMC,133747.10,A,4437.79782,N,01056.93137,E,11.214,228.30,140422,,,A*5D

$GPRMC,133747.30,A,4437.79750,N,01056.93083,E,11.143,228.47,140422,,,A*5F

$GPRMC,133747.50,A,4437.79730,N,01056.93021,E,10.558,231.94,140422,,,A*5E

$GPRMC,133747.70,A,4437.79725,N,01056.92965,E,9.980,237.24,140422,,,A*6C

$GPRMC,133747.90,A,4437.79724,N,01056.92915,E,9.966,241.73,140422,,,A*6F

$GPRMC,133748.10,A,4437.79726,N,01056.92861,E,9.210,247.35,140422,,,A*66

$GPRMC,133748.30,A,4437.79714,N,01056.92833,E,8.714,242.71,140422,,,A*67

$GPRMC,133748.50,A,4437.79708,N,01056.92796,E,8.341,241.49,140422,,,A*60

$GPGGA,133748.50,4437.79708,N,01056.92796,E,1,08,1.05,69.3,M,46.0,M,,*65

$GPRMC,133748.70,A,4437.79698,N,01056.92741,E,8.574,244.26,140422,,,A*6C

$GPRMC,133748.90,A,4437.79682,N,01056.92682,E,8.657,245.90,140422,,,A*69

$GPRMC,133749.10,A,4437.79662,N,01056.92623,E,8.406,246.33,140422,,,A*69

$GPRMC,133749.30,A,4437.79646,N,01056.92565,E,8.141,247.17,140422,,,A*6D

$GPRMC,133749.50,A,4437.79633,N,01056.92509,E,8.436,247.54,140422,,,A*61

$GPRMC,133749.60,A,4437.79630,N,01056.92481,E,8.169,249.40,140422,,,A*64

$GPRMC,133749.80,A,4437.79609,N,01056.92435,E,7.000,248.28,140422,,,A*61

$GPRMC,133749.90,A,4437.79602,N,01056.92409,E,7.148,247.99,140422,,,A*6C

$GPRMC,133750.00,A,4437.79594,N,01056.92383,E,7.213,248.02,140422,,,A*64

$GPRMC,133750.10,A,4437.79589,N,01056.92358,E,6.957,248.71,140422,,,A*61

$GPGGA,133750.10,4437.79589,N,01056.92358,E,1,07,1.13,75.9,M,46.0,M,,*6A

$GPRMC,133750.20,A,4437.79578,N,01056.92345,E,6.911,246.36,140422,,,A*6F

$GPRMC,133750.30,A,4437.79575,N,01056.92322,E,6.328,247.20,140422,,,A*64

$GPRMC,133750.40,A,4437.79556,N,01056.92297,E,6.363,245.75,140422,,,A*60

$GPRMC,133750.50,A,4437.79540,N,01056.92264,E,6.176,246.00,140422,,,A*6D

$GPRMC,133750.60,A,4437.79528,N,01056.92237,E,6.555,245.36,140422,,,A*65

$GPRMC,133750.70,A,4437.79515,N,01056.92215,E,5.950,245.06,140422,,,A*63

$GPRMC,133750.80,A,4437.79503,N,01056.92192,E,5.945,244.36,140422,,,A*61

$GPRMC,133750.90,A,4437.79498,N,01056.92173,E,5.420,245.23,140422,,,A*67

$GPRMC,133751.00,A,4437.79489,N,01056.92157,E,4.881,245.30,140422,,,A*6D

$GPRMC,133751.10,A,4437.79475,N,01056.92141,E,4.599,243.54,140422,,,A*68

$GPGGA,133751.10,4437.79475,N,01056.92141,E,1,06,1.35,78.4,M,46.0,M,,*66

$GPRMC,133751.30,A,4437.79461,N,01056.92102,E,3.987,245.88,140422,,,A*6B

$GPRMC,133751.40,A,4437.79447,N,01056.92075,E,4.373,247.86,140422,,,A*63

$GPRMC,133751.50,A,4437.79436,N,01056.92060,E,4.174,246.58,140422,,,A*67

$GPRMC,133751.60,A,4437.79426,N,01056.92041,E,3.912,247.58,140422,,,A*68

$GPRMC,133751.70,A,4437.79406,N,01056.92029,E,3.430,245.59,140422,,,A*6B

$GPRMC,133751.80,A,4437.79387,N,01056.92004,E,3.456,246.11,140422,,,A*6A

$GPRMC,133751.90,A,4437.79371,N,01056.91991,E,3.122,244.63,140422,,,A*65

$GPRMC,133752.00,A,4437.79363,N,01056.91976,E,2.706,247.51,140422,,,A*66

$GPRMC,133752.10,A,4437.79352,N,01056.91963,E,2.352,252.06,140422,,,A*62

$GPRMC,133752.20,A,4437.79336,N,01056.91953,E,2.522,249.80,140422,,,A*65

$GPGGA,133752.20,4437.79336,N,01056.91953,E,1,07,1.10,79.0,M,46.0,M,,*6D

$GPRMC,133752.40,A,4437.79311,N,01056.91937,E,2.325,245.61,140422,,,A*66

$GPRMC,133752.50,A,4437.79227,N,01056.91931,E,4.138,196.55,140422,,,A*67

$GPRMC,133752.60,A,4437.79168,N,01056.91908,E,4.478,193.11,140422,,,A*62

$GPRMC,133752.70,A,4437.79122,N,01056.91902,E,4.104,187.42,140422,,,A*6A

$GPRMC,133752.80,A,4437.79084,N,01056.91905,E,4.198,181.49,140422,,,A*67

$GPRMC,133752.90,A,4437.79046,N,01056.91907,E,4.340,176.97,140422,,,A*66

$GPRMC,133753.00,A,4437.79009,N,01056.91907,E,3.868,172.75,140422,,,A*6B

$GPRMC,133753.10,A,4437.78974,N,01056.91901,E,4.181,173.82,140422,,,A*6E

$GPRMC,133753.20,A,4437.78938,N,01056.91884,E,2.977,179.95,140422,,,A*62

$GPRMC,133753.30,A,4437.78908,N,01056.91878,E,2.097,184.22,140422,,,A*6A

$GPGGA,133753.30,4437.78908,N,01056.91878,E,1,08,1.05,74.4,M,46.0,M,,*61

$GPRMC,133753.40,A,4437.78884,N,01056.91865,E,1.343,195.09,140422,,,A*64

$GPRMC,133753.50,A,4437.78861,N,01056.91854,E,1.187,207.23,140422,,,A*66

$GPRMC,133753.60,A,4437.78833,N,01056.91842,E,1.119,214.84,140422,,,A*6D

$GPRMC,133753.70,A,4437.78804,N,01056.91838,E,1.000,206.59,140422,,,A*6F

$GPRMC,133753.80,A,4437.78779,N,01056.91831,E,1.131,192.42,140422,,,A*6B

$GPRMC,133753.90,A,4437.78733,N,01056.91819,E,2.239,167.90,140422,,,A*63

$GPRMC,133754.00,A,4437.78701,N,01056.91812,E,2.105,167.93,140422,,,A*68

$GPRMC,133754.10,A,4437.78671,N,01056.91812,E,2.341,157.18,140422,,,A*6D

$GPRMC,133754.20,A,4437.78651,N,01056.91813,E,2.051,154.64,140422,,,A*67

$GPRMC,133754.30,A,4437.78625,N,01056.91798,E,1.881,154.97,140422,,,A*63

$GPGGA,133754.30,4437.78625,N,01056.91798,E,1,08,1.05,69.4,M,46.0,M,,*6B

$GPRMC,133754.40,A,4437.78603,N,01056.91792,E,1.795,157.93,140422,,,A*67

$GPRMC,133754.50,A,4437.78573,N,01056.91781,E,2.160,161.58,140422,,,A*6D

$GPRMC,133754.60,A,4437.78557,N,01056.91769,E,2.193,168.64,140422,,,A*64

$GPRMC,133754.70,A,4437.78543,N,01056.91764,E,1.957,173.90,140422,,,A*6F

$GPRMC,133754.80,A,4437.78535,N,01056.91757,E,1.897,184.17,140422,,,A*6B

$GPRMC,133754.90,A,4437.78524,N,01056.91740,E,2.922,207.70,140422,,,A*69

$GPRMC,133755.00,A,4437.78505,N,01056.91747,E,2.313,209.47,140422,,,A*67

$GPRMC,133755.10,A,4437.78468,N,01056.91732,E,3.394,197.07,140422,,,A*60

$GPRMC,133755.20,A,4437.78447,N,01056.91727,E,3.038,196.46,140422,,,A*6B

$GPRMC,133755.30,A,4437.78421,N,01056.91720,E,3.093,196.84,140422,,,A*62

$GPGGA,133755.30,4437.78421,N,01056.91720,E,1,08,1.05,66.6,M,46.0,M,,*62

$GPRMC,133755.40,A,4437.78392,N,01056.91707,E,3.001,200.55,140422,,,A*64

$GPRMC,133755.50,A,4437.78367,N,01056.91703,E,3.227,201.01,140422,,,A*6D

$GPRMC,133755.60,A,4437.78352,N,01056.91698,E,3.116,200.07,140422,,,A*6D

$GPRMC,133755.70,A,4437.78321,N,01056.91691,E,4.094,195.05,140422,,,A*60

$GPRMC,133755.80,A,4437.78289,N,01056.91682,E,4.865,190.94,140422,,,A*65

$GPRMC,133755.90,A,4437.78264,N,01056.91672,E,4.746,194.65,140422,,,A*6C

$GPRMC,133756.00,A,4437.78240,N,01056.91665,E,4.474,196.58,140422,,,A*68

$GPRMC,133756.10,A,4437.78223,N,01056.91653,E,4.275,201.10,140422,,,A*6F

$GPRMC,133756.20,A,4437.78207,N,01056.91646,E,4.048,204.26,140422,,,A*62

$GPRMC,133756.30,A,4437.78190,N,01056.91638,E,4.336,206.42,140422,,,A*6D

$GPGGA,133756.30,4437.78190,N,01056.91638,E,1,08,1.05,64.5,M,46.0,M,,*67

$GPRMC,133756.50,A,4437.78168,N,01056.91627,E,3.789,206.88,140422,,,A*63

$GPRMC,133756.60,A,4437.78154,N,01056.91625,E,3.720,205.93,140422,,,A*67

$GPRMC,133756.70,A,4437.78135,N,01056.91622,E,4.257,202.72,140422,,,A*6C

$GPRMC,133756.80,A,4437.78114,N,01056.91617,E,4.688,199.48,140422,,,A*68

$GPRMC,133756.90,A,4437.78098,N,01056.91609,E,4.506,198.61,140422,,,A*6C

$GPRMC,133757.00,A,4437.78083,N,01056.91600,E,4.577,200.23,140422,,,A*65

$GPRMC,133757.10,A,4437.78066,N,01056.91588,E,4.616,201.66,140422,,,A*68

$GPRMC,133757.20,A,4437.78047,N,01056.91580,E,4.801,201.93,140422,,,A*62

$GPRMC,133757.30,A,4437.78029,N,01056.91571,E,4.790,202.54,140422,,,A*6A

$GPRMC,133757.40,A,4437.78009,N,01056.91558,E,5.107,204.33,140422,,,A*6A

$GPGGA,133757.40,4437.78009,N,01056.91558,E,1,07,1.13,64.7,M,46.0,M,,*6F

$GPRMC,133757.50,A,4437.77989,N,01056.91549,E,4.998,204.48,140422,,,A*66

$GPRMC,133757.60,A,4437.77973,N,01056.91533,E,4.602,206.03,140422,,,A*6C

$GPRMC,133757.80,A,4437.77948,N,01056.91516,E,4.202,207.66,140422,,,A*6B

$GPRMC,133758.00,A,4437.77910,N,01056.91498,E,5.362,207.24,140422,,,A*66

$GPRMC,133758.20,A,4437.77872,N,01056.91496,E,5.218,202.11,140422,,,A*60

$GPRMC,133758.30,A,4437.77848,N,01056.91488,E,5.626,199.50,140422,,,A*6A

$GPRMC,133758.50,A,4437.77815,N,01056.91466,E,5.704,201.34,140422,,,A*65

$GPRMC,133758.70,A,4437.77784,N,01056.91438,E,5.418,204.77,140422,,,A*67

$GPRMC,133758.90,A,4437.77755,N,01056.91405,E,5.634,210.81,140422,,,A*6B

$GPRMC,133759.10,A,4437.77732,N,01056.91377,E,5.120,215.42,140422,,,A*69

$GPGGA,133759.10,4437.77732,N,01056.91377,E,1,08,1.05,65.6,M,46.0,M,,*67

$GPRMC,133759.30,A,4437.77710,N,01056.91330,E,5.755,223.29,140422,,,A*64

$GPRMC,133759.40,A,4437.77705,N,01056.91298,E,5.886,232.81,140422,,,A*67

$GPRMC,133759.60,A,4437.77687,N,01056.91271,E,5.583,234.02,140422,,,A*6C

$GPRMC,133759.70,A,4437.77678,N,01056.91265,E,5.396,234.84,140422,,,A*64

$GPRMC,133759.80,A,4437.77666,N,01056.91273,E,5.073,231.82,140422,,,A*68

$GPRMC,133759.90,A,4437.77659,N,01056.91266,E,5.029,231.54,140422,,,A*65

$GPRMC,133800.10,A,4437.77652,N,01056.91248,E,4.254,234.44,140422,,,A*64

$GPRMC,133800.30,A,4437.77651,N,01056.91237,E,3.601,240.42,140422,,,A*6B

$GPRMC,133800.50,A,4437.77648,N,01056.91217,E,4.019,247.95,140422,,,A*62

$GPRMC,133800.70,A,4437.77643,N,01056.91205,E,3.884,250.22,140422,,,A*69

$GPGGA,133800.70,4437.77643,N,01056.91205,E,1,08,1.05,70.0,M,46.0,M,,*63

$GPRMC,133800.90,A,4437.77677,N,01056.91228,E,3.065,290.98,140422,,,A*65

$GPRMC,133801.10,A,4437.77694,N,01056.91215,E,3.875,296.89,140422,,,A*60

$GPRMC,133801.20,A,4437.77709,N,01056.91204,E,4.643,299.97,140422,,,A*6A

$GPRMC,133801.30,A,4437.77722,N,01056.91181,E,5.193,302.66,140422,,,A*6A

$GPRMC,133801.40,A,4437.77730,N,01056.91159,E,5.598,300.85,140422,,,A*6B

$GPRMC,133801.50,A,4437.77736,N,01056.91140,E,5.776,298.78,140422,,,A*64

$GPRMC,133801.70,A,4437.77743,N,01056.91114,E,4.960,298.29,140422,,,A*69

$GPRMC,133801.90,A,4437.77751,N,01056.91116,E,3.723,305.13,140422,,,A*64

$GPRMC,133802.10,A,4437.77757,N,01056.91115,E,3.264,307.96,140422,,,A*63

$GPRMC,133802.20,A,4437.77738,N,01056.91148,E,1.701,305.39,140422,,,A*62

$GPGGA,133802.20,4437.77738,N,01056.91148,E,1,07,1.38,77.9,M,46.0,M,,*6C

$GPRMC,133802.40,A,4437.77727,N,01056.91145,E,1.883,285.46,140422,,,A*63

$GPRMC,133802.50,A,4437.77720,N,01056.91139,E,1.858,262.13,140422,,,A*61

$GPRMC,133802.70,A,4437.77724,N,01056.91109,E,2.226,266.17,140422,,,A*64

$GPRMC,133802.80,A,4437.77728,N,01056.91086,E,3.298,272.01,140422,,,A*67

$GPRMC,133803.00,A,4437.77722,N,01056.91076,E,2.599,271.40,140422,,,A*6A

$GPRMC,133803.10,A,4437.77721,N,01056.91057,E,3.090,272.64,140422,,,A*63

$GPRMC,133803.30,A,4437.77716,N,01056.91026,E,2.868,269.42,140422,,,A*63

$GPRMC,133803.50,A,4437.77720,N,01056.90995,E,3.533,274.40,140422,,,A*6C

$GPRMC,133803.70,A,4437.77706,N,01056.90982,E,2.065,267.75,140422,,,A*6F

$GPRMC,133803.90,A,4437.77693,N,01056.90964,E,2.468,247.01,140422,,,A*6C

$GPGGA,133803.90,4437.77693,N,01056.90964,E,1,07,1.38,85.7,M,46.0,M,,*62

$GPRMC,133804.10,A,4437.77684,N,01056.90939,E,2.707,244.70,140422,,,A*62

$GPRMC,133804.30,A,4437.77675,N,01056.90926,E,1.627,241.18,140422,,,A*6B

$GPRMC,133804.50,A,4437.77674,N,01056.90903,E,2.092,247.95,140422,,,A*63

$GPRMC,133804.60,A,4437.77675,N,01056.90889,E,1.828,256.64,140422,,,A*66

$GPRMC,133804.80,A,4437.77658,N,01056.90854,E,2.970,245.86,140422,,,A*66

$GPRMC,133804.90,A,4437.77654,N,01056.90835,E,2.800,245.32,140422,,,A*65

$GPRMC,133805.10,A,4437.77644,N,01056.90806,E,3.100,245.36,140422,,,A*61

$GPRMC,133805.20,A,4437.77637,N,01056.90785,E,2.870,244.81,140422,,,A*60

$GPRMC,133805.30,A,4437.77639,N,01056.90757,E,2.976,252.94,140422,,,A*64

$GPRMC,133805.40,A,4437.77641,N,01056.90731,E,3.359,262.21,140422,,,A*67

$GPGGA,133805.40,4437.77641,N,01056.90731,E,1,08,1.05,90.3,M,46.0,M,,*69

$GPRMC,133805.60,A,4437.77639,N,01056.90698,E,3.692,265.95,140422,,,A*62

$GPRMC,133805.80,A,4437.77639,N,01056.90664,E,3.672,269.78,140422,,,A*6E

$GPRMC,133806.00,A,4437.77643,N,01056.90623,E,3.872,275.53,140422,,,A*61

$GPRMC,133806.20,A,4437.77647,N,01056.90584,E,3.788,285.39,140422,,,A*60

$GPRMC,133806.40,A,4437.77639,N,01056.90555,E,3.089,281.60,140422,,,A*6D

$GPRMC,133806.60,A,4437.77630,N,01056.90512,E,3.717,270.48,140422,,,A*61

$GPRMC,133806.80,A,4437.77627,N,01056.90467,E,3.224,267.89,140422,,,A*64

$GPRMC,133806.90,A,4437.77625,N,01056.90436,E,3.292,266.91,140422,,,A*66

$GPRMC,133807.00,A,4437.77621,N,01056.90409,E,3.440,265.76,140422,,,A*65

$GPRMC,133807.10,A,4437.77616,N,01056.90391,E,3.261,264.32,140422,,,A*62

$GPGGA,133807.10,4437.77616,N,01056.90391,E,1,07,1.10,96.1,M,46.0,M,,*6D

$GPRMC,133807.30,A,4437.77619,N,01056.90360,E,3.501,267.88,140422,,,A*62

$GPRMC,133807.40,A,4437.77619,N,01056.90341,E,3.464,269.73,140422,,,A*6E

$GPRMC,133807.50,A,4437.77617,N,01056.90321,E,3.321,270.29,140422,,,A*66

$GPRMC,133807.60,A,4437.77622,N,01056.90300,E,3.421,275.20,140422,,,A*6B

$GPRMC,133807.70,A,4437.77628,N,01056.90277,E,3.698,278.41,140422,,,A*6B

$GPRMC,133807.80,A,4437.77637,N,01056.90255,E,3.942,284.93,140422,,,A*6E

$GPRMC,133807.90,A,4437.77641,N,01056.90236,E,4.140,286.27,140422,,,A*6B

$GPRMC,133808.00,A,4437.77642,N,01056.90211,E,4.197,287.25,140422,,,A*62

$GPRMC,133808.10,A,4437.77634,N,01056.90186,E,4.130,286.78,140422,,,A*6B

$GPRMC,133808.20,A,4437.77623,N,01056.90168,E,3.758,283.81,140422,,,A*62

$GPGGA,133808.20,4437.77623,N,01056.90168,E,1,07,1.10,100.6,M,46.0,M,,*5A

$GPRMC,133808.30,A,4437.77605,N,01056.90148,E,3.429,278.71,140422,,,A*6B

$GPRMC,133808.40,A,4437.77580,N,01056.90131,E,3.173,269.18,140422,,,A*69

$GPRMC,133808.50,A,4437.77575,N,01056.90108,E,3.223,265.06,140422,,,A*6D

$GPRMC,133808.70,A,4437.77550,N,01056.90080,E,3.090,257.43,140422,,,A*63

$GPRMC,133808.90,A,4437.77517,N,01056.90057,E,2.937,237.59,140422,,,A*6C

$GPRMC,133809.00,A,4437.77496,N,01056.90034,E,3.112,229.63,140422,,,A*61

$GPRMC,133809.20,A,4437.77467,N,01056.90008,E,3.250,224.36,140422,,,A*6A

$GPRMC,133809.30,A,4437.77450,N,01056.89989,E,3.057,224.92,140422,,,A*6C

$GPRMC,133809.40,A,4437.77450,N,01056.89968,E,3.393,233.74,140422,,,A*61

$GPRMC,133809.50,A,4437.77439,N,01056.89954,E,3.303,233.67,140422,,,A*6B

$GPGGA,133809.50,4437.77439,N,01056.89954,E,1,06,1.35,102.4,M,46.0,M,,*5C

$GPRMC,133809.70,A,4437.77440,N,01056.89919,E,3.673,246.34,140422,,,A*68

$GPRMC,133809.80,A,4437.77445,N,01056.89901,E,3.776,257.68,140422,,,A*66

$GPRMC,133810.00,A,4437.77442,N,01056.89859,E,4.039,263.46,140422,,,A*6D

$GPRMC,133810.20,A,4437.77430,N,01056.89828,E,3.814,264.22,140422,,,A*69

$GPRMC,133810.40,A,4437.77389,N,01056.89799,E,3.246,259.16,140422,,,A*6B

$GPRMC,133810.60,A,4437.77324,N,01056.89768,E,3.500,244.64,140422,,,A*6C

$GPRMC,133810.70,A,4437.77268,N,01056.89752,E,3.993,230.37,140422,,,A*6E

$GPRMC,133810.80,A,4437.77161,N,01056.89743,E,5.595,202.16,140422,,,A*65

$GPRMC,133811.00,A,4437.77095,N,01056.89706,E,5.202,206.11,140422,,,A*6D

$GPRMC,133811.20,A,4437.77045,N,01056.89680,E,5.351,212.65,140422,,,A*6C

$GPGGA,133811.20,4437.77045,N,01056.89680,E,1,08,1.05,102.2,M,46.0,M,,*50

$GPRMC,133811.40,A,4437.76997,N,01056.89650,E,3.971,216.43,140422,,,A*6E

$GPRMC,133811.50,A,4437.76938,N,01056.89636,E,3.970,218.33,140422,,,A*62

$GPRMC,133811.60,A,4437.76887,N,01056.89616,E,3.810,221.91,140422,,,A*63

$GPRMC,133811.80,A,4437.76778,N,01056.89591,E,5.913,200.31,140422,,,A*63

$GPRMC,133812.00,A,4437.76712,N,01056.89573,E,5.298,200.20,140422,,,A*60

$GPRMC,133812.20,A,4437.76694,N,01056.89574,E,1.594,,140422,,,A*7B

$GPRMC,133812.40,A,4437.76673,N,01056.89537,E,3.185,207.84,140422,,,A*62

$GPRMC,133812.50,A,4437.76636,N,01056.89508,E,4.523,229.16,140422,,,A*66

$GPRMC,133812.70,A,4437.76588,N,01056.89470,E,4.566,232.77,140422,,,A*60

$GPRMC,133812.80,A,4437.76554,N,01056.89438,E,4.514,239.36,140422,,,A*69

$GPGGA,133812.80,4437.76554,N,01056.89438,E,1,08,1.05,99.4,M,46.0,M,,*69

$GPRMC,133812.90,A,4437.76515,N,01056.89406,E,4.624,243.89,140422,,,A*69

$GPRMC,133813.00,A,4437.76470,N,01056.89378,E,4.811,240.97,140422,,,A*69

$GPRMC,133813.10,A,4437.76457,N,01056.89332,E,5.091,242.95,140422,,,A*62

$GPRMC,133813.20,A,4437.76440,N,01056.89290,E,4.973,244.87,140422,,,A*6F

$GPRMC,133813.30,A,4437.76421,N,01056.89251,E,4.970,246.38,140422,,,A*61

$GPRMC,133813.40,A,4437.76405,N,01056.89213,E,4.477,248.30,140422,,,A*6A

$GPRMC,133813.50,A,4437.76404,N,01056.89167,E,4.267,257.48,140422,,,A*6C

$GPRMC,133813.60,A,4437.76392,N,01056.89131,E,4.430,263.72,140422,,,A*6E

$GPRMC,133813.80,A,4437.76364,N,01056.89086,E,5.493,257.71,140422,,,A*68

$GPRMC,133814.00,A,4437.76335,N,01056.89042,E,4.545,254.44,140422,,,A*65

$GPGGA,133814.00,4437.76335,N,01056.89042,E,1,08,1.05,97.3,M,46.0,M,,*66

$GPRMC,133814.20,A,4437.76275,N,01056.88998,E,5.557,233.87,140422,,,A*61

$GPRMC,133814.40,A,4437.76216,N,01056.88954,E,6.321,226.44,140422,,,A*6D

$GPRMC,133814.60,A,4437.76179,N,01056.88894,E,5.859,227.71,140422,,,A*68

$GPRMC,133814.80,A,4437.76137,N,01056.88831,E,5.489,228.14,140422,,,A*6E

$GPRMC,133814.90,A,4437.76117,N,01056.88794,E,5.799,229.92,140422,,,A*60

$GPRMC,133815.00,A,4437.76100,N,01056.88762,E,5.770,230.87,140422,,,A*6C

$GPRMC,133815.20,A,4437.76062,N,01056.88710,E,5.831,233.27,140422,,,A*6D

$GPRMC,133815.40,A,4437.76023,N,01056.88648,E,5.840,232.08,140422,,,A*68

$GPRMC,133815.60,A,4437.75977,N,01056.88603,E,5.769,228.85,140422,,,A*64

$GPRMC,133815.80,A,4437.75919,N,01056.88540,E,6.006,232.05,140422,,,A*68

$GPGGA,133815.80,4437.75919,N,01056.88540,E,1,08,1.05,94.6,M,46.0,M,,*68

$GPRMC,133816.00,A,4437.75886,N,01056.88484,E,5.616,233.38,140422,,,A*66

$GPRMC,133816.20,A,4437.75845,N,01056.88439,E,5.756,232.90,140422,,,A*6B

$GPRMC,133816.40,A,4437.75801,N,01056.88393,E,5.664,229.18,140422,,,A*60

$GPRMC,133816.60,A,4437.75757,N,01056.88345,E,5.869,228.47,140422,,,A*6D

$GPRMC,133816.80,A,4437.75789,N,01056.88332,E,4.225,238.96,140422,,,A*6E

$GPRMC,133817.00,A,4437.75774,N,01056.88280,E,5.053,244.07,140422,,,A*6C

$GPRMC,133817.20,A,4437.75737,N,01056.88223,E,5.927,239.90,140422,,,A*6E

$GPRMC,133817.40,A,4437.75703,N,01056.88176,E,6.021,232.70,140422,,,A*65

$GPRMC,133817.60,A,4437.75668,N,01056.88117,E,6.157,231.35,140422,,,A*6E

$GPRMC,133817.70,A,4437.75649,N,01056.88076,E,6.220,232.96,140422,,,A*63

$GPGGA,133817.70,4437.75649,N,01056.88076,E,1,07,1.13,96.7,M,46.0,M,,*64

$GPRMC,133817.90,A,4437.75609,N,01056.88020,E,6.381,233.12,140422,,,A*6D

$GPRMC,133818.10,A,4437.75562,N,01056.87962,E,6.955,233.47,140422,,,A*67

$GPRMC,133818.30,A,4437.75500,N,01056.87904,E,7.123,229.18,140422,,,A*68

$GPRMC,133818.50,A,4437.75451,N,01056.87845,E,7.742,227.31,140422,,,A*6B

$GPRMC,133818.70,A,4437.75416,N,01056.87780,E,7.384,230.03,140422,,,A*65

$GPRMC,133818.90,A,4437.75370,N,01056.87723,E,7.701,228.52,140422,,,A*61

$GPRMC,133819.10,A,4437.75318,N,01056.87662,E,7.633,228.55,140422,,,A*65

$GPRMC,133819.30,A,4437.75257,N,01056.87604,E,8.092,227.50,140422,,,A*65

$GPRMC,133819.50,A,4437.75219,N,01056.87548,E,7.747,226.59,140422,,,A*6A

$GPRMC,133819.70,A,4437.75186,N,01056.87496,E,7.640,227.04,140422,,,A*60

$GPGGA,133819.70,4437.75186,N,01056.87496,E,1,06,1.36,95.9,M,46.0,M,,*60

$GPRMC,133819.90,A,4437.75150,N,01056.87447,E,7.522,227.30,140422,,,A*69

$GPRMC,133820.10,A,4437.75095,N,01056.87402,E,6.842,224.01,140422,,,A*69

$GPRMC,133820.30,A,4437.75041,N,01056.87364,E,6.668,219.27,140422,,,A*69

$GPRMC,133820.50,A,4437.74976,N,01056.87325,E,6.983,215.04,140422,,,A*61

$GPRMC,133820.70,A,4437.74914,N,01056.87286,E,6.239,212.35,140422,,,A*60

$GPRMC,133820.90,A,4437.74850,N,01056.87255,E,6.698,206.61,140422,,,A*6A

$GPRMC,133821.10,A,4437.74776,N,01056.87231,E,8.081,198.96,140422,,,A*66

$GPRMC,133821.30,A,4437.74748,N,01056.87208,E,5.702,197.38,140422,,,A*69

$GPRMC,133821.50,A,4437.74711,N,01056.87189,E,5.176,195.08,140422,,,A*6D

$GPRMC,133821.70,A,4437.74664,N,01056.87179,E,5.863,188.03,140422,,,A*69

$GPGGA,133821.70,4437.74664,N,01056.87179,E,1,07,1.10,95.4,M,46.0,M,,*6D

$GPRMC,133821.90,A,4437.74593,N,01056.87169,E,6.663,177.94,140422,,,A*6E

$GPRMC,133822.10,A,4437.74525,N,01056.87157,E,6.178,171.61,140422,,,A*64

$GPRMC,133822.30,A,4437.74453,N,01056.87146,E,5.856,165.45,140422,,,A*63

$GPRMC,133822.50,A,4437.74335,N,01056.87112,E,6.549,163.33,140422,,,A*64

$GPRMC,133822.70,A,4437.74276,N,01056.87101,E,5.302,161.09,140422,,,A*63

$GPRMC,133822.90,A,4437.74220,N,01056.87093,E,4.786,156.45,140422,,,A*61

$GPRMC,133823.10,A,4437.74144,N,01056.87084,E,5.879,154.33,140422,,,A*62

$GPRMC,133823.20,A,4437.74068,N,01056.87058,E,6.886,155.07,140422,,,A*6A

$GPRMC,133823.40,A,4437.73978,N,01056.87045,E,7.176,154.27,140422,,,A*6B

$GPRMC,133823.60,A,4437.73888,N,01056.87039,E,7.535,152.45,140422,,,A*6D

$GPGGA,133823.60,4437.73888,N,01056.87039,E,1,07,1.10,84.9,M,46.0,M,,*6D

$GPRMC,133823.70,A,4437.73832,N,01056.87030,E,8.026,152.66,140422,,,A*6D

$GPRMC,133823.80,A,4437.73766,N,01056.87022,E,8.494,153.24,140422,,,A*65

$GPRMC,133823.90,A,4437.73716,N,01056.87022,E,8.532,151.72,140422,,,A*6F

$GPRMC,133824.10,A,4437.73639,N,01056.87028,E,8.167,151.17,140422,,,A*61

$GPRMC,133824.30,A,4437.73559,N,01056.87032,E,7.500,148.88,140422,,,A*69

$GPRMC,133824.50,A,4437.73530,N,01056.87085,E,8.584,139.69,140422,,,A*66

$GPRMC,133824.60,A,4437.73511,N,01056.87105,E,8.322,133.56,140422,,,A*63

$GPRMC,133824.80,A,4437.73469,N,01056.87155,E,8.736,128.85,140422,,,A*63

$GPRMC,133825.00,A,4437.73436,N,01056.87214,E,8.846,119.16,140422,,,A*66

$GPRMC,133825.20,A,4437.73390,N,01056.87261,E,8.823,118.91,140422,,,A*60

$GPGGA,133825.20,4437.73390,N,01056.87261,E,1,07,1.10,80.1,M,46.0,M,,*6E

$GPRMC,133825.40,A,4437.73331,N,01056.87304,E,9.126,120.46,140422,,,A*63

$GPRMC,133825.60,A,4437.73275,N,01056.87359,E,9.958,117.69,140422,,,A*60

$GPRMC,133825.80,A,4437.73209,N,01056.87403,E,9.981,119.80,140422,,,A*60

$GPRMC,133825.90,A,4437.73201,N,01056.87435,E,9.537,118.80,140422,,,A*6C

$GPRMC,133826.00,A,4437.73170,N,01056.87460,E,9.930,119.55,140422,,,A*61

$GPRMC,133826.20,A,4437.73124,N,01056.87519,E,10.315,120.58,140422,,,A*5F

$GPRMC,133826.40,A,4437.73074,N,01056.87580,E,10.693,120.61,140422,,,A*5C

$GPRMC,133826.60,A,4437.73023,N,01056.87643,E,10.560,119.59,140422,,,A*5E

$GPRMC,133826.80,A,4437.72961,N,01056.87703,E,11.214,121.33,140422,,,A*59

$GPRMC,133826.90,A,4437.72914,N,01056.87722,E,10.694,121.23,140422,,,A*55

$GPGGA,133826.90,4437.72914,N,01056.87722,E,1,06,1.35,75.8,M,46.0,M,,*66

$GPRMC,133827.10,A,4437.72843,N,01056.87774,E,10.946,123.27,140422,,,A*5A

$GPRMC,133827.30,A,4437.72763,N,01056.87826,E,11.532,125.96,140422,,,A*5F

$GPRMC,133827.50,A,4437.72724,N,01056.87900,E,11.682,125.70,140422,,,A*5F

$GPRMC,133827.70,A,4437.72679,N,01056.87967,E,11.193,124.01,140422,,,A*55

$GPRMC,133827.90,A,4437.72630,N,01056.88032,E,11.246,123.23,140422,,,A*5C

$GPRMC,133828.10,A,4437.72572,N,01056.88096,E,11.691,124.16,140422,,,A*5F

$GPRMC,133828.30,A,4437.72535,N,01056.88170,E,11.922,124.03,140422,,,A*54

$GPRMC,133828.40,A,4437.72505,N,01056.88201,E,11.759,123.34,140422,,,A*54

$GPRMC,133828.60,A,4437.72467,N,01056.88274,E,11.660,120.69,140422,,,A*51

$GPRMC,133828.70,A,4437.72439,N,01056.88306,E,11.636,120.21,140422,,,A*50

$GPGGA,133828.70,4437.72439,N,01056.88306,E,1,08,1.10,72.7,M,46.0,M,,*68

$GPRMC,133828.90,A,4437.72392,N,01056.88378,E,11.804,119.62,140422,,,A*53

$GPRMC,133829.00,A,4437.72346,N,01056.88407,E,11.909,119.96,140422,,,A*5A

$GPRMC,133829.10,A,4437.72297,N,01056.88436,E,12.120,120.61,140422,,,A*56

$GPRMC,133829.20,A,4437.72272,N,01056.88478,E,12.107,120.93,140422,,,A*5C

$GPRMC,133829.30,A,4437.72241,N,01056.88515,E,12.177,120.07,140422,,,A*5D

$GPRMC,133829.40,A,4437.72209,N,01056.88551,E,12.166,119.96,140422,,,A*54

$GPRMC,133829.50,A,4437.72177,N,01056.88586,E,12.057,119.86,140422,,,A*57

$GPRMC,133829.70,A,4437.72124,N,01056.88662,E,12.354,120.22,140422,,,A*5E

$GPRMC,133829.80,A,4437.72084,N,01056.88696,E,12.253,119.98,140422,,,A*5C

$GPRMC,133829.90,A,4437.72059,N,01056.88735,E,12.264,120.21,140422,,,A*59

$GPGGA,133829.90,4437.72059,N,01056.88735,E,1,07,1.39,69.2,M,46.0,M,,*6A

$GPRMC,133830.00,A,4437.72023,N,01056.88772,E,12.401,120.35,140422,,,A*56

$GPRMC,133830.10,A,4437.71985,N,01056.88805,E,12.305,121.62,140422,,,A*5E

$GPRMC,133830.30,A,4437.71928,N,01056.88880,E,12.454,122.52,140422,,,A*55

$GPRMC,133830.50,A,4437.71875,N,01056.88960,E,12.861,122.23,140422,,,A*59

$GPRMC,133830.70,A,4437.71820,N,01056.89036,E,12.420,121.48,140422,,,A*57

$GPRMC,133830.90,A,4437.71785,N,01056.89119,E,12.369,120.91,140422,,,A*5A

$GPRMC,133831.00,A,4437.71756,N,01056.89156,E,12.496,120.31,140422,,,A*5A

$GPRMC,133831.10,A,4437.71719,N,01056.89190,E,12.723,121.85,140422,,,A*59

$GPRMC,133831.20,A,4437.71685,N,01056.89224,E,12.527,122.36,140422,,,A*5F

$GPRMC,133831.30,A,4437.71646,N,01056.89259,E,13.017,123.07,140422,,,A*5F

$GPGGA,133831.30,4437.71646,N,01056.89259,E,1,06,1.35,66.0,M,46.0,M,,*6C

$GPRMC,133831.40,A,4437.71606,N,01056.89293,E,12.826,123.20,140422,,,A*54

$GPRMC,133831.50,A,4437.71563,N,01056.89327,E,12.966,123.80,140422,,,A*54

$GPRMC,133831.60,A,4437.71518,N,01056.89360,E,13.015,123.91,140422,,,A*54

$GPRMC,133831.80,A,4437.71479,N,01056.89443,E,12.873,123.65,140422,,,A*58

$GPRMC,133831.90,A,4437.71447,N,01056.89480,E,12.942,123.93,140422,,,A*51

$GPRMC,133832.00,A,4437.71415,N,01056.89517,E,13.081,124.30,140422,,,A*5A

$GPRMC,133832.20,A,4437.71360,N,01056.89594,E,13.017,124.51,140422,,,A*5E

$GPRMC,133832.30,A,4437.71325,N,01056.89631,E,13.100,124.58,140422,,,A*5C

$GPRMC,133832.40,A,4437.71285,N,01056.89664,E,13.259,125.57,140422,,,A*51

$GPRMC,133832.50,A,4437.71246,N,01056.89698,E,13.311,125.97,140422,,,A*5D

$GPGGA,133832.50,4437.71246,N,01056.89698,E,1,06,1.35,62.5,M,46.0,M,,*65

$GPRMC,133832.60,A,4437.71203,N,01056.89729,E,13.181,126.27,140422,,,A*57

$GPRMC,133832.70,A,4437.71159,N,01056.89764,E,13.340,125.78,140422,,,A*55

$GPRMC,133832.80,A,4437.71117,N,01056.89795,E,12.984,126.20,140422,,,A*53

$GPRMC,133832.90,A,4437.71076,N,01056.89825,E,12.723,126.62,140422,,,A*55

$GPRMC,133833.00,A,4437.71027,N,01056.89855,E,12.734,126.65,140422,,,A*5F

$GPRMC,133833.10,A,4437.70980,N,01056.89884,E,12.654,126.62,140422,,,A*57

$GPRMC,133833.20,A,4437.70960,N,01056.89921,E,12.449,126.85,140422,,,A*53

$GPRMC,133833.30,A,4437.70935,N,01056.89956,E,11.884,126.78,140422,,,A*5E

$GPRMC,133833.40,A,4437.70913,N,01056.89992,E,11.698,126.33,140422,,,A*59

$GPRMC,133833.50,A,4437.70883,N,01056.90024,E,11.825,127.29,140422,,,A*5E

$GPGGA,133833.50,4437.70883,N,01056.90024,E,1,06,1.35,58.8,M,46.0,M,,*6B

$GPRMC,133833.60,A,4437.70855,N,01056.90056,E,11.460,127.05,140422,,,A*50

$GPRMC,133833.70,A,4437.70823,N,01056.90089,E,11.624,126.88,140422,,,A*54

$GPRMC,133833.90,A,4437.70779,N,01056.90152,E,10.662,127.05,140422,,,A*5A

$GPRMC,133834.10,A,4437.70732,N,01056.90218,E,11.105,126.64,140422,,,A*56

$GPRMC,133834.20,A,4437.70706,N,01056.90247,E,10.299,124.75,140422,,,A*5D

$GPRMC,133834.30,A,4437.70688,N,01056.90280,E,9.921,122.85,140422,,,A*69

$GPRMC,133834.40,A,4437.70657,N,01056.90305,E,9.627,122.18,140422,,,A*6D

$GPRMC,133834.50,A,4437.70635,N,01056.90334,E,9.225,120.92,140422,,,A*6C

$GPRMC,133834.60,A,4437.70609,N,01056.90364,E,9.620,120.32,140422,,,A*6E

$GPRMC,133834.70,A,4437.70582,N,01056.90386,E,8.438,119.12,140422,,,A*61

$GPGGA,133834.70,4437.70582,N,01056.90386,E,1,06,1.35,55.7,M,46.0,M,,*6B

$GPRMC,133834.80,A,4437.70549,N,01056.90412,E,9.169,118.69,140422,,,A*6E

$GPRMC,133834.90,A,4437.70542,N,01056.90434,E,7.727,110.43,140422,,,A*62

$GPRMC,133835.10,A,4437.70506,N,01056.90480,E,7.280,103.69,140422,,,A*66

$GPRMC,133835.20,A,4437.70476,N,01056.90498,E,7.386,102.24,140422,,,A*65

$GPRMC,133835.30,A,4437.70447,N,01056.90518,E,7.118,97.99,140422,,,A*51

$GPRMC,133835.40,A,4437.70417,N,01056.90537,E,7.128,93.78,140422,,,A*56

$GPRMC,133835.50,A,4437.70385,N,01056.90557,E,7.056,90.40,140422,,,A*5D

$GPRMC,133835.60,A,4437.70354,N,01056.90582,E,7.284,86.73,140422,,,A*50

$GPRMC,133835.70,A,4437.70325,N,01056.90604,E,7.214,84.25,140422,,,A*52

$GPRMC,133835.80,A,4437.70298,N,01056.90627,E,7.437,78.89,140422,,,A*59

$GPGGA,133835.80,4437.70298,N,01056.90627,E,1,07,1.32,50.2,M,46.0,M,,*61

$GPRMC,133835.90,A,4437.70272,N,01056.90648,E,7.114,78.94,140422,,,A*5D

$GPRMC,133836.00,A,4437.70246,N,01056.90669,E,7.143,77.60,140422,,,A*55

$GPRMC,133836.10,A,4437.70224,N,01056.90687,E,6.838,72.87,140422,,,A*58

$GPRMC,133836.20,A,4437.70201,N,01056.90707,E,7.024,68.80,140422,,,A*5D

$GPRMC,133836.30,A,4437.70181,N,01056.90726,E,7.011,65.76,140422,,,A*56

$GPRMC,133836.40,A,4437.70167,N,01056.90746,E,7.104,60.62,140422,,,A*5A

$GPRMC,133836.50,A,4437.70157,N,01056.90767,E,7.244,58.29,140422,,,A*58

$GPRMC,133836.60,A,4437.70144,N,01056.90787,E,7.185,55.98,140422,,,A*5E

$GPRMC,133836.70,A,4437.70133,N,01056.90806,E,7.504,52.41,140422,,,A*57

$GPRMC,133836.80,A,4437.70125,N,01056.90824,E,7.538,48.45,140422,,,A*5F

$GPGGA,133836.80,4437.70125,N,01056.90824,E,1,07,1.32,44.3,M,46.0,M,,*6E

$GPRMC,133836.90,A,4437.70117,N,01056.90842,E,7.619,46.79,140422,,,A*5E

$GPRMC,133837.00,A,4437.70114,N,01056.90859,E,7.824,42.66,140422,,,A*55

$GPRMC,133837.10,A,4437.70108,N,01056.90874,E,7.496,40.69,140422,,,A*5E

$GPRMC,133837.20,A,4437.70107,N,01056.90888,E,7.810,36.74,140422,,,A*5E

$GPRMC,133837.30,A,4437.70108,N,01056.90903,E,8.019,36.53,140422,,,A*59

$GPRMC,133837.40,A,4437.70113,N,01056.90915,E,8.256,31.24,140422,,,A*5D

$GPRMC,133837.50,A,4437.70116,N,01056.90926,E,7.925,29.80,140422,,,A*5E

$GPRMC,133837.60,A,4437.70122,N,01056.90939,E,8.272,29.63,140422,,,A*5F

$GPRMC,133837.70,A,4437.70128,N,01056.90953,E,8.294,29.39,140422,,,A*5F

$GPRMC,133837.80,A,4437.70134,N,01056.90964,E,8.174,27.61,140422,,,A*57

$GPGGA,133837.80,4437.70134,N,01056.90964,E,1,07,1.32,40.0,M,46.0,M,,*6D

$GPRMC,133838.00,A,4437.70161,N,01056.90991,E,8.397,27.63,140422,,,A*57

$GPRMC,133838.10,A,4437.70172,N,01056.91002,E,8.521,24.26,140422,,,A*5F

$GPRMC,133838.20,A,4437.70183,N,01056.91016,E,8.657,24.70,140422,,,A*56

$GPRMC,133838.30,A,4437.70193,N,01056.91029,E,8.769,25.42,140422,,,A*56

$GPRMC,133838.40,A,4437.70204,N,01056.91044,E,8.668,26.29,140422,,,A*59

$GPRMC,133838.50,A,4437.70216,N,01056.91058,E,8.625,27.22,140422,,,A*55

$GPRMC,133838.60,A,4437.70226,N,01056.91069,E,8.242,25.52,140422,,,A*57

$GPRMC,133838.70,A,4437.70239,N,01056.91084,E,8.541,26.65,140422,,,A*58

$GPRMC,133838.80,A,4437.70250,N,01056.91101,E,8.477,30.20,140422,,,A*56

$GPRMC,133838.90,A,4437.70261,N,01056.91120,E,8.469,33.81,140422,,,A*51

$GPGGA,133838.90,4437.70261,N,01056.91120,E,1,07,1.32,37.4,M,46.0,M,,*6D

$GPRMC,133839.00,A,4437.70275,N,01056.91137,E,8.439,34.41,140422,,,A*54

$GPRMC,133839.10,A,4437.70287,N,01056.91155,E,8.483,35.62,140422,,,A*5D

$GPRMC,133839.20,A,4437.70299,N,01056.91177,E,8.643,39.57,140422,,,A*55

$GPRMC,133839.30,A,4437.70311,N,01056.91201,E,9.072,41.52,140422,,,A*58

$GPRMC,133839.40,A,4437.70321,N,01056.91225,E,8.773,43.40,140422,,,A*5C

$GPRMC,133839.50,A,4437.70330,N,01056.91248,E,8.622,44.92,140422,,,A*5B

$GPRMC,133839.60,A,4437.70340,N,01056.91275,E,9.200,47.52,140422,,,A*5B

$GPRMC,133839.70,A,4437.70349,N,01056.91302,E,9.095,50.31,140422,,,A*5F

$GPRMC,133839.80,A,4437.70359,N,01056.91327,E,8.921,50.69,140422,,,A*5C

$GPRMC,133839.90,A,4437.70370,N,01056.91353,E,8.950,51.42,140422,,,A*5B

$GPGGA,133839.90,4437.70370,N,01056.91353,E,1,08,1.05,36.0,M,46.0,M,,*65

$GPRMC,133840.00,A,4437.70377,N,01056.91381,E,8.882,54.50,140422,,,A*5C

$GPRMC,133840.10,A,4437.70384,N,01056.91410,E,8.860,57.49,140422,,,A*59

$GPRMC,133840.20,A,4437.70394,N,01056.91442,E,9.510,58.55,140422,,,A*55

$GPRMC,133840.30,A,4437.70401,N,01056.91472,E,9.165,60.17,140422,,,A*57

$GPRMC,133840.40,A,4437.70410,N,01056.91505,E,9.796,60.76,140422,,,A*5C

$GPRMC,133840.50,A,4437.70418,N,01056.91536,E,9.567,61.54,140422,,,A*58

$GPRMC,133840.60,A,4437.70428,N,01056.91569,E,10.023,61.72,140422,,,A*6B

$GPRMC,133840.70,A,4437.70437,N,01056.91601,E,9.724,60.96,140422,,,A*5A

$GPRMC,133840.80,A,4437.70447,N,01056.91635,E,9.896,61.38,140422,,,A*56

$GPRMC,133840.90,A,4437.70456,N,01056.91667,E,9.868,60.43,140422,,,A*5C

$GPGGA,133840.90,4437.70456,N,01056.91667,E,1,07,1.32,35.1,M,46.0,M,,*63

$GPRMC,133841.00,A,4437.70465,N,01056.91701,E,10.215,60.19,140422,,,A*62

$GPRMC,133841.10,A,4437.70477,N,01056.91733,E,10.095,60.20,140422,,,A*61

$GPRMC,133841.20,A,4437.70487,N,01056.91767,E,10.181,59.46,140422,,,A*62

$GPRMC,133841.30,A,4437.70498,N,01056.91802,E,10.399,58.44,140422,,,A*69

$GPRMC,133841.40,A,4437.70510,N,01056.91832,E,10.027,56.39,140422,,,A*6E

$GPRMC,133841.50,A,4437.70522,N,01056.91864,E,10.272,55.76,140422,,,A*67

$GPRMC,133841.60,A,4437.70534,N,01056.91892,E,9.974,53.49,140422,,,A*55

$GPRMC,133841.70,A,4437.70545,N,01056.91922,E,10.146,52.74,140422,,,A*66

$GPRMC,133841.80,A,4437.70561,N,01056.91951,E,9.989,51.71,140422,,,A*5E

$GPRMC,133841.90,A,4437.70577,N,01056.91981,E,10.283,51.19,140422,,,A*62

$GPGGA,133841.90,4437.70577,N,01056.91981,E,1,06,1.73,34.7,M,46.0,M,,*64

$GPRMC,133842.00,A,4437.70592,N,01056.92011,E,10.351,50.92,140422,,,A*6C

$GPRMC,133842.10,A,4437.70608,N,01056.92040,E,10.311,50.42,140422,,,A*60

$GPRMC,133842.20,A,4437.70625,N,01056.92071,E,10.705,50.03,140422,,,A*6A

$GPRMC,133842.30,A,4437.70641,N,01056.92097,E,10.361,48.17,140422,,,A*6B

$GPRMC,133842.40,A,4437.70660,N,01056.92130,E,10.903,48.36,140422,,,A*6E

$GPRMC,133842.50,A,4437.70679,N,01056.92157,E,10.809,45.60,140422,,,A*63

$GPRMC,133842.60,A,4437.70697,N,01056.92187,E,10.748,45.76,140422,,,A*60

$GPRMC,133842.70,A,4437.70714,N,01056.92213,E,10.728,44.54,140422,,,A*62

$GPRMC,133842.80,A,4437.70731,N,01056.92239,E,10.431,43.68,140422,,,A*61

$GPRMC,133842.90,A,4437.70747,N,01056.92267,E,10.877,44.07,140422,,,A*6A

$GPGGA,133842.90,4437.70747,N,01056.92267,E,1,08,1.05,34.3,M,46.0,M,,*6D

$GPRMC,133843.00,A,4437.70767,N,01056.92291,E,10.702,41.04,140422,,,A*62

$GPRMC,133843.10,A,4437.70790,N,01056.92316,E,10.764,39.75,140422,,,A*6C

$GPRMC,133843.20,A,4437.70811,N,01056.92341,E,10.785,38.51,140422,,,A*63

$GPRMC,133843.30,A,4437.70831,N,01056.92365,E,10.628,37.69,140422,,,A*64

$GPRMC,133843.40,A,4437.70853,N,01056.92390,E,11.024,36.26,140422,,,A*6C

$GPRMC,133843.50,A,4437.70877,N,01056.92416,E,11.228,36.36,140422,,,A*6D

$GPRMC,133843.60,A,4437.70899,N,01056.92440,E,11.055,35.70,140422,,,A*64

$GPRMC,133843.70,A,4437.70923,N,01056.92464,E,11.238,34.12,140422,,,A*6F

$GPRMC,133843.80,A,4437.70948,N,01056.92490,E,11.571,34.42,140422,,,A*69

$GPRMC,133843.90,A,4437.70971,N,01056.92512,E,11.274,33.28,140422,,,A*60

$GPGGA,133843.90,4437.70971,N,01056.92512,E,1,07,1.32,33.9,M,46.0,M,,*64

$GPRMC,133844.00,A,4437.70996,N,01056.92536,E,11.423,32.75,140422,,,A*6C

$GPRMC,133844.10,A,4437.71023,N,01056.92561,E,11.983,32.29,140422,,,A*67

$GPRMC,133844.20,A,4437.71046,N,01056.92586,E,11.560,33.20,140422,,,A*67

$GPRMC,133844.30,A,4437.71071,N,01056.92610,E,11.511,33.29,140422,,,A*61

$GPRMC,133844.40,A,4437.71097,N,01056.92634,E,11.830,31.32,140422,,,A*6E

$GPRMC,133844.50,A,4437.71124,N,01056.92660,E,12.010,32.51,140422,,,A*68

$GPRMC,133844.60,A,4437.71148,N,01056.92684,E,11.737,32.20,140422,,,A*6C

$GPRMC,133844.70,A,4437.71173,N,01056.92707,E,11.774,30.93,140422,,,A*62

