
$GPGGA,140019.50,4437.78849,N,01056.99940,E,1,09,1.13,43.2,M,46.0,M,,*68

$GPRMC,140019.60,A,4437.78847,N,01056.99939,E,0.084,,140422,,,A*77

$GPRMC,140019.70,A,4437.78846,N,01056.99938,E,0.011,,140422,,,A*7A

$GPRMC,140019.80,A,4437.78845,N,01056.99936,E,0.025,,140422,,,A*7F

$GPRMC,140019.90,A,4437.78844,N,01056.99935,E,0.030,,140422,,,A*78

$GPRMC,140020.00,A,4437.78841,N,01056.99934,E,0.093,,140422,,,A*76

$GPRMC,140020.10,A,4437.78840,N,01056.99933,E,0.046,,140422,,,A*79

$GPRMC,140020.20,A,4437.78837,N,01056.99932,E,0.011,,140422,,,A*79

$GPRMC,140020.30,A,4437.78836,N,01056.99931,E,0.021,,140422,,,A*79

$GPRMC,140020.40,A,4437.78834,N,01056.99930,E,0.045,,140422,,,A*7F

$GPRMC,140020.50,A,4437.78832,N,01056.99929,E,0.063,,140422,,,A*74

$GPGGA,140020.50,4437.78832,N,01056.99929,E,1,09,1.13,43.2,M,46.0,M,,*61

$GPRMC,140020.60,A,4437.78830,N,01056.99928,E,0.071,,140422,,,A*77

$GPRMC,140020.70,A,4437.78828,N,01056.99927,E,0.112,,140422,,,A*74

$GPRMC,140020.80,A,4437.78826,N,01056.99926,E,0.122,,140422,,,A*77

$GPRMC,140020.90,A,4437.78824,N,01056.99925,E,0.138,,140422,,,A*7C

$GPRMC,140021.00,A,4437.78823,N,01056.99924,E,0.191,,140422,,,A*71

$GPRMC,140021.10,A,4437.78821,N,01056.99923,E,0.156,,140422,,,A*7E

$GPRMC,140021.20,A,4437.78819,N,01056.99923,E,0.295,,140422,,,A*7A

$GPRMC,140021.30,A,4437.78817,N,01056.99922,E,0.326,,140422,,,A*7D

$GPRMC,140021.40,A,4437.78817,N,01056.99923,E,0.651,70.12,140422,,,A*54

$GPRMC,140021.50,A,4437.78815,N,01056.99922,E,0.712,31.83,140422,,,A*5D

$GPGGA,140021.50,4437.78815,N,01056.99922,E,1,09,1.13,43.5,M,46.0,M,,*69

$GPRMC,140021.60,A,4437.78815,N,01056.99921,E,0.643,16.96,140422,,,A*59

$GPRMC,140021.70,A,4437.78814,N,01056.99927,E,1.109,59.78,140422,,,A*5C

$GPRMC,140021.80,A,4437.78813,N,01056.99930,E,0.911,62.23,140422,,,A*54

$GPRMC,140021.90,A,4437.78820,N,01056.99941,E,3.425,38.80,140422,,,A*5C

$GPRMC,140022.00,A,4437.78829,N,01056.99954,E,4.397,37.68,140422,,,A*5B

$GPRMC,140022.10,A,4437.78832,N,01056.99961,E,3.158,37.85,140422,,,A*53

$GPRMC,140022.20,A,4437.78836,N,01056.99975,E,3.437,50.92,140422,,,A*5A

$GPRMC,140022.30,A,4437.78843,N,01056.99983,E,3.750,43.78,140422,,,A*54

$GPRMC,140022.40,A,4437.78847,N,01056.99992,E,3.211,43.57,140422,,,A*5A

$GPRMC,140022.50,A,4437.78853,N,01057.00000,E,3.165,43.28,140422,,,A*55

$GPGGA,140022.50,4437.78853,N,01057.00000,E,1,09,1.13,43.5,M,46.0,M,,*60

$GPRMC,140022.60,A,4437.78862,N,01057.00015,E,4.086,48.00,140422,,,A*5A

$GPRMC,140022.70,A,4437.78866,N,01057.00031,E,5.744,42.62,140422,,,A*5F

$GPRMC,140022.80,A,4437.78876,N,01057.00042,E,5.415,39.59,140422,,,A*56

$GPRMC,140022.90,A,4437.78881,N,01057.00055,E,4.503,42.59,140422,,,A*52

$GPRMC,140023.00,A,4437.78891,N,01057.00075,E,5.640,47.01,140422,,,A*54

$GPRMC,140023.10,A,4437.78901,N,01057.00094,E,5.856,49.22,140422,,,A*54

$GPRMC,140023.20,A,4437.78912,N,01057.00111,E,5.966,48.24,140422,,,A*5C

$GPRMC,140023.30,A,4437.78922,N,01057.00125,E,5.615,46.05,140422,,,A*5F

$GPRMC,140023.40,A,4437.78935,N,01057.00143,E,6.341,44.41,140422,,,A*5B

$GPRMC,140023.50,A,4437.78946,N,01057.00157,E,5.937,42.72,140422,,,A*55

$GPGGA,140023.50,4437.78946,N,01057.00157,E,1,08,1.13,43.8,M,46.0,M,,*6B

$GPRMC,140023.60,A,4437.78959,N,01057.00170,E,6.251,39.13,140422,,,A*5E

$GPRMC,140023.70,A,4437.78972,N,01057.00187,E,6.309,39.18,140422,,,A*59

$GPRMC,140023.80,A,4437.78986,N,01057.00204,E,6.423,40.54,140422,,,A*5C

$GPRMC,140023.90,A,4437.78998,N,01057.00220,E,6.468,40.43,140422,,,A*5D

$GPRMC,140024.00,A,4437.79010,N,01057.00238,E,6.229,42.86,140422,,,A*5A

$GPRMC,140024.10,A,4437.79024,N,01057.00259,E,6.943,43.92,140422,,,A*58

$GPRMC,140024.30,A,4437.79051,N,01057.00293,E,6.734,41.42,140422,,,A*5F

$GPRMC,140024.40,A,4437.79064,N,01057.00309,E,6.657,40.56,140422,,,A*5C

$GPRMC,140024.50,A,4437.79078,N,01057.00327,E,6.966,39.99,140422,,,A*5C

$GPRMC,140024.60,A,4437.79093,N,01057.00346,E,7.082,40.08,140422,,,A*59

$GPGGA,140024.60,4437.79093,N,01057.00346,E,1,09,0.87,43.8,M,46.0,M,,*60

$GPRMC,140024.70,A,4437.79107,N,01057.00366,E,7.298,41.74,140422,,,A*55

$GPRMC,140024.80,A,4437.79121,N,01057.00383,E,7.372,39.83,140422,,,A*57

$GPRMC,140024.90,A,4437.79133,N,01057.00400,E,6.913,40.66,140422,,,A*50

$GPRMC,140025.00,A,4437.79148,N,01057.00420,E,7.581,40.69,140422,,,A*5F

$GPRMC,140025.10,A,4437.79162,N,01057.00441,E,7.567,41.94,140422,,,A*5A

$GPRMC,140025.20,A,4437.79180,N,01057.00461,E,7.821,40.54,140422,,,A*55

$GPRMC,140025.30,A,4437.79195,N,01057.00482,E,7.703,41.88,140422,,,A*52

$GPRMC,140025.40,A,4437.79211,N,01057.00502,E,7.944,40.90,140422,,,A*56

$GPRMC,140025.50,A,4437.79228,N,01057.00527,E,8.317,43.40,140422,,,A*57

$GPRMC,140025.60,A,4437.79244,N,01057.00545,E,7.693,41.35,140422,,,A*5C

$GPGGA,140025.60,4437.79244,N,01057.00545,E,1,08,1.13,43.8,M,46.0,M,,*61

$GPRMC,140025.70,A,4437.79262,N,01057.00564,E,7.668,39.73,140422,,,A*53

$GPRMC,140025.80,A,4437.79277,N,01057.00588,E,8.076,41.97,140422,,,A*59

$GPRMC,140025.90,A,4437.79291,N,01057.00608,E,7.944,41.73,140422,,,A*56

$GPRMC,140026.00,A,4437.79307,N,01057.00634,E,8.351,44.51,140422,,,A*59

$GPRMC,140026.10,A,4437.79323,N,01057.00658,E,8.351,45.21,140422,,,A*52

$GPRMC,140026.20,A,4437.79341,N,01057.00682,E,8.592,45.00,140422,,,A*58

$GPRMC,140026.30,A,4437.79355,N,01057.00707,E,8.524,45.91,140422,,,A*55

$GPRMC,140026.40,A,4437.79372,N,01057.00730,E,8.595,45.13,140422,,,A*53

$GPRMC,140026.50,A,4437.79393,N,01057.00755,E,9.047,43.69,140422,,,A*5E

$GPRMC,140026.60,A,4437.79409,N,01057.00777,E,8.700,43.50,140422,,,A*56

$GPGGA,140026.60,4437.79409,N,01057.00777,E,1,08,1.13,43.5,M,46.0,M,,*63

$GPRMC,140026.70,A,4437.79428,N,01057.00805,E,9.268,45.28,140422,,,A*5D

$GPRMC,140026.80,A,4437.79442,N,01057.00824,E,8.458,42.59,140422,,,A*58

$GPRMC,140026.90,A,4437.79457,N,01057.00847,E,8.753,42.78,140422,,,A*53

$GPRMC,140027.00,A,4437.79471,N,01057.00869,E,8.304,42.77,140422,,,A*5A

$GPRMC,140027.10,A,4437.79487,N,01057.00887,E,7.573,42.55,140422,,,A*5B

$GPRMC,140027.20,A,4437.79500,N,01057.00906,E,7.657,41.99,140422,,,A*58

$GPRMC,140027.30,A,4437.79515,N,01057.00917,E,7.121,36.28,140422,,,A*51

$GPRMC,140027.40,A,4437.79532,N,01057.00937,E,7.373,36.89,140422,,,A*5F

$GPRMC,140027.50,A,4437.79549,N,01057.00953,E,7.350,35.20,140422,,,A*51

$GPRMC,140027.60,A,4437.79560,N,01057.00969,E,6.448,37.24,140422,,,A*59

$GPGGA,140027.60,4437.79560,N,01057.00969,E,1,09,0.87,43.5,M,46.0,M,,*60

$GPRMC,140027.70,A,4437.79575,N,01057.00984,E,6.719,36.74,140422,,,A*5C

$GPRMC,140027.80,A,4437.79586,N,01057.00994,E,6.107,33.97,140422,,,A*5F

$GPRMC,140027.90,A,4437.79600,N,01057.01009,E,6.548,33.20,140422,,,A*5C

$GPRMC,140028.00,A,4437.79617,N,01057.01024,E,6.516,32.19,140422,,,A*53

$GPRMC,140028.10,A,4437.79634,N,01057.01031,E,6.933,24.29,140422,,,A*58

$GPRMC,140028.20,A,4437.79651,N,01057.01042,E,6.508,22.73,140422,,,A*51

$GPRMC,140028.30,A,4437.79671,N,01057.01049,E,6.622,18.72,140422,,,A*5A

$GPRMC,140028.40,A,4437.79688,N,01057.01057,E,6.222,17.80,140422,,,A*52

$GPRMC,140028.50,A,4437.79709,N,01057.01056,E,6.566,8.84,140422,,,A*67

$GPRMC,140028.60,A,4437.79728,N,01057.01061,E,6.711,6.73,140422,,,A*67

$GPGGA,140028.60,4437.79728,N,01057.01061,E,1,08,1.43,43.3,M,46.0,M,,*6F

$GPRMC,140028.70,A,4437.79751,N,01057.01061,E,7.206,0.90,140422,,,A*61

$GPRMC,140028.80,A,4437.79770,N,01057.01060,E,6.750,357.57,140422,,,A*61

$GPRMC,140028.90,A,4437.79791,N,01057.01056,E,7.277,354.34,140422,,,A*6D

$GPRMC,140029.00,A,4437.79811,N,01057.01053,E,6.940,351.19,140422,,,A*63

$GPRMC,140029.10,A,4437.79832,N,01057.01046,E,7.366,346.60,140422,,,A*60

$GPRMC,140029.20,A,4437.79852,N,01057.01038,E,7.220,342.61,140422,,,A*6A

$GPRMC,140029.30,A,4437.79872,N,01057.01028,E,7.427,338.75,140422,,,A*61

$GPRMC,140029.40,A,4437.79889,N,01057.01015,E,7.222,333.34,140422,,,A*61

$GPRMC,140029.50,A,4437.79909,N,01057.01001,E,7.663,329.48,140422,,,A*6D

$GPRMC,140029.60,A,4437.79930,N,01057.00987,E,7.797,328.43,140422,,,A*62

$GPGGA,140029.60,4437.79930,N,01057.00987,E,1,09,0.87,42.6,M,46.0,M,,*65

$GPRMC,140029.70,A,4437.79949,N,01057.00974,E,7.606,328.52,140422,,,A*68

$GPRMC,140029.80,A,4437.79967,N,01057.00960,E,7.640,326.78,140422,,,A*6A

$GPRMC,140029.90,A,4437.79988,N,01057.00943,E,8.177,325.51,140422,,,A*6F

$GPRMC,140030.00,A,4437.80005,N,01057.00925,E,7.970,321.81,140422,,,A*6D

$GPRMC,140030.10,A,4437.80025,N,01057.00908,E,8.069,321.06,140422,,,A*60

$GPRMC,140030.20,A,4437.80040,N,01057.00888,E,8.009,317.49,140422,,,A*61

$GPRMC,140030.30,A,4437.80054,N,01057.00867,E,7.770,313.25,140422,,,A*6C

$GPRMC,140030.40,A,4437.80071,N,01057.00847,E,8.155,314.04,140422,,,A*64

$GPRMC,140030.50,A,4437.80087,N,01057.00826,E,8.122,312.91,140422,,,A*61

$GPRMC,140030.60,A,4437.80106,N,01057.00803,E,8.561,313.72,140422,,,A*62

$GPGGA,140030.60,4437.80106,N,01057.00803,E,1,09,0.87,42.1,M,46.0,M,,*6C

$GPRMC,140030.70,A,4437.80123,N,01057.00783,E,8.225,314.50,140422,,,A*63

$GPRMC,140030.80,A,4437.80141,N,01057.00761,E,8.599,314.14,140422,,,A*64

$GPRMC,140030.90,A,4437.80160,N,01057.00738,E,8.858,313.80,140422,,,A*60

$GPRMC,140031.00,A,4437.80176,N,01057.00718,E,8.227,315.09,140422,,,A*68

$GPRMC,140031.10,A,4437.80196,N,01057.00696,E,8.853,316.52,140422,,,A*64

$GPRMC,140031.20,A,4437.80213,N,01057.00672,E,9.170,314.59,140422,,,A*63

$GPRMC,140031.30,A,4437.80233,N,01057.00650,E,9.037,316.37,140422,,,A*68

$GPRMC,140031.40,A,4437.80253,N,01057.00628,E,8.995,316.20,140422,,,A*60

$GPRMC,140031.50,A,4437.80270,N,01057.00605,E,8.974,314.55,140422,,,A*60

$GPRMC,140031.60,A,4437.80291,N,01057.00581,E,9.128,316.46,140422,,,A*63

$GPGGA,140031.60,4437.80291,N,01057.00581,E,1,09,1.13,41.6,M,46.0,M,,*6F

$GPRMC,140031.70,A,4437.80309,N,01057.00558,E,8.949,316.11,140422,,,A*6A

$GPRMC,140031.80,A,4437.80329,N,01057.00535,E,9.171,316.41,140422,,,A*6B

$GPRMC,140031.90,A,4437.80348,N,01057.00511,E,9.379,316.82,140422,,,A*6E

$GPRMC,140032.00,A,4437.80368,N,01057.00488,E,9.329,317.11,140422,,,A*69

$GPRMC,140032.10,A,4437.80388,N,01057.00464,E,9.264,316.42,140422,,,A*6B

$GPRMC,140032.20,A,4437.80407,N,01057.00440,E,9.414,316.46,140422,,,A*6B

$GPRMC,140032.30,A,4437.80429,N,01057.00415,E,9.532,316.19,140422,,,A*69

$GPRMC,140032.40,A,4437.80451,N,01057.00390,E,9.713,316.10,140422,,,A*63

$GPRMC,140032.50,A,4437.80471,N,01057.00364,E,9.570,314.14,140422,,,A*6A

$GPRMC,140032.60,A,4437.80493,N,01057.00338,E,9.762,314.44,140422,,,A*68

$GPGGA,140032.60,4437.80493,N,01057.00338,E,1,09,0.87,40.8,M,46.0,M,,*6F

$GPRMC,140032.70,A,4437.80513,N,01057.00313,E,9.774,315.89,140422,,,A*6E

$GPRMC,140032.80,A,4437.80532,N,01057.00287,E,9.870,314.59,140422,,,A*69

$GPRMC,140032.90,A,4437.80551,N,01057.00259,E,9.874,311.94,140422,,,A*6E

$GPRMC,140033.00,A,4437.80571,N,01057.00232,E,9.868,311.90,140422,,,A*60

$GPRMC,140033.10,A,4437.80592,N,01057.00203,E,10.099,311.37,140422,,,A*5D

$GPRMC,140033.20,A,4437.80612,N,01057.00174,E,10.217,310.09,140422,,,A*5E

$GPRMC,140033.30,A,4437.80633,N,01057.00147,E,10.219,312.28,140422,,,A*53

$GPRMC,140033.40,A,4437.80652,N,01057.00117,E,10.123,308.55,140422,,,A*5D

$GPRMC,140033.50,A,4437.80673,N,01057.00086,E,10.432,308.57,140422,,,A*51

$GPRMC,140033.60,A,4437.80693,N,01057.00057,E,10.302,309.69,140422,,,A*58

$GPGGA,140033.60,4437.80693,N,01057.00057,E,1,09,0.87,40.1,M,46.0,M,,*6F

$GPRMC,140033.70,A,4437.80712,N,01057.00029,E,10.174,309.69,140422,,,A*5B

$GPRMC,140033.80,A,4437.80732,N,01056.99997,E,10.637,308.53,140422,,,A*53

$GPRMC,140033.90,A,4437.80750,N,01056.99968,E,10.300,308.85,140422,,,A*5C

$GPRMC,140034.00,A,4437.80769,N,01056.99935,E,10.741,308.08,140422,,,A*54

$GPRMC,140034.10,A,4437.80789,N,01056.99906,E,10.379,309.22,140422,,,A*5D

$GPRMC,140034.20,A,4437.80807,N,01056.99875,E,10.565,307.84,140422,,,A*5B

$GPRMC,140034.30,A,4437.80826,N,01056.99842,E,10.929,307.96,140422,,,A*5A

$GPRMC,140034.40,A,4437.80844,N,01056.99811,E,10.620,309.21,140422,,,A*5B

$GPRMC,140034.50,A,4437.80862,N,01056.99779,E,10.963,307.30,140422,,,A*59

$GPRMC,140034.60,A,4437.80878,N,01056.99751,E,10.336,307.86,140422,,,A*5C

$GPGGA,140034.60,4437.80878,N,01056.99751,E,1,09,0.87,39.8,M,46.0,M,,*64

$GPRMC,140034.70,A,4437.80898,N,01056.99718,E,10.894,307.26,140422,,,A*57

$GPRMC,140034.80,A,4437.80916,N,01056.99685,E,10.852,306.79,140422,,,A*5B

$GPRMC,140034.90,A,4437.80934,N,01056.99653,E,10.756,306.56,140422,,,A*57

$GPRMC,140035.00,A,4437.80953,N,01056.99621,E,10.947,307.55,140422,,,A*57

$GPRMC,140035.10,A,4437.80972,N,01056.99587,E,11.134,306.42,140422,,,A*50

$GPRMC,140035.20,A,4437.80990,N,01056.99553,E,11.170,306.33,140422,,,A*50

$GPRMC,140035.30,A,4437.81009,N,01056.99520,E,11.249,307.38,140422,,,A*5E

$GPRMC,140035.40,A,4437.81028,N,01056.99486,E,11.226,307.53,140422,,,A*53

$GPRMC,140035.50,A,4437.81046,N,01056.99452,E,11.245,306.83,140422,,,A*5A

$GPRMC,140035.60,A,4437.81065,N,01056.99418,E,11.462,306.53,140422,,,A*58

$GPGGA,140035.60,4437.81065,N,01056.99418,E,1,08,1.07,39.6,M,46.0,M,,*68

$GPRMC,140035.70,A,4437.81083,N,01056.99385,E,11.285,306.78,140422,,,A*54

$GPRMC,140035.80,A,4437.81102,N,01056.99351,E,11.326,305.94,140422,,,A*53

$GPRMC,140035.90,A,4437.81124,N,01056.99315,E,11.502,307.65,140422,,,A*5A

$GPRMC,140036.00,A,4437.81146,N,01056.99283,E,11.402,308.49,140422,,,A*5A

$GPRMC,140036.10,A,4437.81169,N,01056.99246,E,11.719,309.74,140422,,,A*59

$GPRMC,140036.20,A,4437.81189,N,01056.99214,E,11.628,308.50,140422,,,A*57

$GPRMC,140036.30,A,4437.81209,N,01056.99180,E,11.653,308.13,140422,,,A*58

$GPRMC,140036.40,A,4437.81231,N,01056.99146,E,11.717,309.33,140422,,,A*5C

$GPRMC,140036.50,A,4437.81252,N,01056.99112,E,11.759,308.53,140422,,,A*54

$GPRMC,140036.60,A,4437.81272,N,01056.99080,E,11.662,309.48,140422,,,A*5D

$GPGGA,140036.60,4437.81272,N,01056.99080,E,1,07,1.26,39.2,M,46.0,M,,*62

$GPRMC,140036.70,A,4437.81292,N,01056.99048,E,11.597,309.70,140422,,,A*54

$GPRMC,140036.80,A,4437.81314,N,01056.99015,E,11.719,311.30,140422,,,A*55

$GPRMC,140036.90,A,4437.81335,N,01056.98982,E,11.690,311.17,140422,,,A*54

$GPRMC,140037.00,A,4437.81358,N,01056.98947,E,11.965,311.29,140422,,,A*56

$GPRMC,140037.10,A,4437.81381,N,01056.98912,E,11.934,312.14,140422,,,A*5A

$GPRMC,140037.20,A,4437.81404,N,01056.98875,E,12.379,311.11,140422,,,A*55

$GPRMC,140037.30,A,4437.81428,N,01056.98838,E,12.562,310.80,140422,,,A*56

$GPRMC,140037.40,A,4437.81450,N,01056.98805,E,12.054,312.01,140422,,,A*5B

$GPRMC,140037.50,A,4437.81472,N,01056.98770,E,12.502,309.86,140422,,,A*54

$GPRMC,140037.60,A,4437.81493,N,01056.98737,E,12.043,310.69,140422,,,A*52

$GPGGA,140037.60,4437.81493,N,01056.98737,E,1,08,0.95,39.0,M,46.0,M,,*64

$GPRMC,140037.70,A,4437.81516,N,01056.98702,E,12.191,311.46,140422,,,A*5B

$GPRMC,140037.80,A,4437.81538,N,01056.98667,E,12.408,310.16,140422,,,A*5B

$GPRMC,140037.90,A,4437.81559,N,01056.98632,E,12.360,309.62,140422,,,A*5F

$GPRMC,140038.00,A,4437.81579,N,01056.98595,E,12.684,307.83,140422,,,A*5B

$GPRMC,140038.10,A,4437.81600,N,01056.98563,E,12.090,310.68,140422,,,A*5E

$GPRMC,140038.20,A,4437.81617,N,01056.98528,E,12.558,306.46,140422,,,A*5E

$GPRMC,140038.30,A,4437.81641,N,01056.98493,E,12.208,310.72,140422,,,A*5F

$GPRMC,140038.40,A,4437.81663,N,01056.98457,E,12.337,311.23,140422,,,A*58

$GPRMC,140038.50,A,4437.81685,N,01056.98421,E,12.597,310.50,140422,,,A*59

$GPRMC,140038.60,A,4437.81707,N,01056.98388,E,12.243,310.94,140422,,,A*53

$GPGGA,140038.60,4437.81707,N,01056.98388,E,1,08,0.95,39.2,M,46.0,M,,*67

$GPRMC,140038.70,A,4437.81731,N,01056.98347,E,12.834,309.21,140422,,,A*58

$GPRMC,140038.80,A,4437.81754,N,01056.98312,E,12.785,310.12,140422,,,A*59

$GPRMC,140038.90,A,4437.81776,N,01056.98278,E,12.336,309.77,140422,,,A*52

$GPRMC,140039.00,A,4437.81797,N,01056.98238,E,12.876,307.66,140422,,,A*50

$GPRMC,140039.10,A,4437.81818,N,01056.98203,E,12.485,308.36,140422,,,A*5B

$GPRMC,140039.20,A,4437.81836,N,01056.98169,E,12.740,307.36,140422,,,A*5E

$GPRMC,140039.30,A,4437.81859,N,01056.98129,E,12.668,308.09,140422,,,A*5A

$GPRMC,140039.40,A,4437.81878,N,01056.98091,E,12.808,306.72,140422,,,A*56

$GPRMC,140039.50,A,4437.81900,N,01056.98053,E,12.550,307.79,140422,,,A*5D

$GPRMC,140039.60,A,4437.81922,N,01056.98017,E,12.466,308.87,140422,,,A*54

$GPGGA,140039.60,4437.81922,N,01056.98017,E,1,08,0.95,39.4,M,46.0,M,,*6C

$GPRMC,140039.70,A,4437.81941,N,01056.97981,E,12.380,307.20,140422,,,A*54

$GPRMC,140039.80,A,4437.81963,N,01056.97944,E,12.788,308.48,140422,,,A*5F

$GPRMC,140039.90,A,4437.81983,N,01056.97908,E,12.507,307.22,140422,,,A*5E

$GPRMC,140040.00,A,4437.82004,N,01056.97872,E,12.501,307.38,140422,,,A*5D

$GPRMC,140040.10,A,4437.82027,N,01056.97835,E,12.790,308.15,140422,,,A*54

$GPRMC,140040.20,A,4437.82046,N,01056.97799,E,12.757,306.02,140422,,,A*5A

$GPRMC,140040.30,A,4437.82068,N,01056.97766,E,12.360,308.54,140422,,,A*5A

$GPRMC,140040.40,A,4437.82089,N,01056.97729,E,12.733,307.46,140422,,,A*57

$GPRMC,140040.50,A,4437.82109,N,01056.97695,E,12.501,306.72,140422,,,A*5C

$GPRMC,140040.60,A,4437.82130,N,01056.97659,E,12.229,308.14,140422,,,A*56

$GPGGA,140040.60,4437.82130,N,01056.97659,E,1,07,1.20,40.0,M,46.0,M,,*63

$GPRMC,140040.70,A,4437.82151,N,01056.97619,E,12.710,306.49,140422,,,A*5D

$GPRMC,140040.80,A,4437.82171,N,01056.97585,E,12.382,306.67,140422,,,A*55

$GPRMC,140040.90,A,4437.82190,N,01056.97551,E,12.212,306.83,140422,,,A*50

$GPRMC,140041.00,A,4437.82211,N,01056.97511,E,12.519,305.58,140422,,,A*5F

$GPRMC,140041.10,A,4437.82232,N,01056.97470,E,12.725,305.37,140422,,,A*5D

$GPRMC,140041.20,A,4437.82250,N,01056.97430,E,12.516,303.92,140422,,,A*55

$GPRMC,140041.30,A,4437.82270,N,01056.97390,E,12.448,303.61,140422,,,A*5D

$GPRMC,140041.40,A,4437.82286,N,01056.97347,E,12.585,300.20,140422,,,A*5F

$GPRMC,140041.50,A,4437.82306,N,01056.97305,E,12.183,300.90,140422,,,A*58

$GPRMC,140041.60,A,4437.82321,N,01056.97269,E,12.063,299.31,140422,,,A*50

$GPGGA,140041.60,4437.82321,N,01056.97269,E,1,07,1.20,40.3,M,46.0,M,,*64

$GPRMC,140041.70,A,4437.82338,N,01056.97217,E,12.250,296.95,140422,,,A*53

$GPRMC,140041.80,A,4437.82354,N,01056.97173,E,11.734,295.68,140422,,,A*52

$GPRMC,140041.90,A,4437.82369,N,01056.97128,E,11.537,294.15,140422,,,A*59

$GPRMC,140042.00,A,4437.82382,N,01056.97087,E,11.067,292.76,140422,,,A*51

$GPRMC,140042.10,A,4437.82392,N,01056.97046,E,11.288,289.45,140422,,,A*55

$GPRMC,140042.20,A,4437.82401,N,01056.97004,E,10.912,286.46,140422,,,A*58

$GPRMC,140042.30,A,4437.82410,N,01056.96966,E,10.459,285.22,140422,,,A*56

$GPRMC,140042.40,A,4437.82415,N,01056.96925,E,10.327,281.33,140422,,,A*59

$GPRMC,140042.50,A,4437.82420,N,01056.96882,E,10.214,278.06,140422,,,A*53

$GPRMC,140042.60,A,4437.82422,N,01056.96846,E,9.772,273.42,140422,,,A*6C

$GPGGA,140042.60,4437.82422,N,01056.96846,E,1,08,1.13,39.5,M,46.0,M,,*62

$GPRMC,140042.70,A,4437.82423,N,01056.96808,E,9.522,271.41,140422,,,A*60

$GPRMC,140042.80,A,4437.82424,N,01056.96774,E,8.978,270.06,140422,,,A*6C

$GPRMC,140042.90,A,4437.82424,N,01056.96740,E,8.729,268.20,140422,,,A*6D

$GPRMC,140043.00,A,4437.82421,N,01056.96710,E,8.575,265.07,140422,,,A*66

$GPRMC,140043.10,A,4437.82418,N,01056.96678,E,8.463,262.67,140422,,,A*65

$GPRMC,140043.20,A,4437.82412,N,01056.96654,E,7.777,258.36,140422,,,A*66

$GPRMC,140043.30,A,4437.82406,N,01056.96628,E,7.445,253.96,140422,,,A*6A

$GPRMC,140043.40,A,4437.82400,N,01056.96602,E,7.099,250.29,140422,,,A*61

$GPRMC,140043.50,A,4437.82393,N,01056.96579,E,6.874,246.70,140422,,,A*63

$GPRMC,140043.60,A,4437.82385,N,01056.96556,E,6.805,243.15,140422,,,A*6A

$GPGGA,140043.60,4437.82385,N,01056.96556,E,1,09,0.94,39.1,M,46.0,M,,*6E

$GPRMC,140043.70,A,4437.82377,N,01056.96533,E,6.595,240.84,140422,,,A*6A

$GPRMC,140043.80,A,4437.82369,N,01056.96512,E,6.395,239.17,140422,,,A*6B

$GPRMC,140043.90,A,4437.82361,N,01056.96493,E,6.216,236.87,140422,,,A*66

$GPRMC,140044.00,A,4437.82352,N,01056.96472,E,6.269,234.65,140422,,,A*61

$GPRMC,140044.10,A,4437.82343,N,01056.96455,E,5.938,231.29,140422,,,A*64

$GPRMC,140044.20,A,4437.82333,N,01056.96436,E,6.115,227.46,140422,,,A*6F

$GPRMC,140044.30,A,4437.82323,N,01056.96425,E,5.582,221.96,140422,,,A*6F

$GPRMC,140044.40,A,4437.82311,N,01056.96411,E,5.550,217.34,140422,,,A*6C

$GPRMC,140044.50,A,4437.82302,N,01056.96395,E,5.600,218.46,140422,,,A*68

$GPRMC,140044.60,A,4437.82290,N,01056.96383,E,5.499,215.58,140422,,,A*66

$GPGGA,140044.60,4437.82290,N,01056.96383,E,1,09,0.95,38.4,M,46.0,M,,*67

$GPRMC,140044.70,A,4437.82282,N,01056.96370,E,5.052,217.27,140422,,,A*61

$GPRMC,140044.80,A,4437.82269,N,01056.96360,E,5.344,211.80,140422,,,A*65

$GPRMC,140044.90,A,4437.82259,N,01056.96347,E,5.632,214.16,140422,,,A*6C

$GPRMC,140045.00,A,4437.82247,N,01056.96337,E,5.547,212.09,140422,,,A*65

$GPRMC,140045.10,A,4437.82236,N,01056.96326,E,5.216,210.89,140422,,,A*6B

$GPRMC,140045.20,A,4437.82224,N,01056.96319,E,4.981,203.59,140422,,,A*6C

$GPRMC,140045.30,A,4437.82213,N,01056.96307,E,5.254,208.10,140422,,,A*62

$GPRMC,140045.40,A,4437.82202,N,01056.96304,E,4.749,204.74,140422,,,A*60

$GPRMC,140045.50,A,4437.82191,N,01056.96298,E,4.422,199.18,140422,,,A*6F

$GPRMC,140045.60,A,4437.82177,N,01056.96287,E,5.362,202.14,140422,,,A*65

$GPGGA,140045.60,4437.82177,N,01056.96287,E,1,09,0.94,38.2,M,46.0,M,,*6E

$GPRMC,140045.70,A,4437.82164,N,01056.96279,E,5.379,200.69,140422,,,A*65

$GPRMC,140045.80,A,4437.82148,N,01056.96267,E,6.109,203.76,140422,,,A*60

$GPRMC,140045.90,A,4437.82131,N,01056.96258,E,6.178,202.01,140422,,,A*64

$GPRMC,140046.00,A,4437.82117,N,01056.96247,E,6.266,203.33,140422,,,A*68

$GPRMC,140046.10,A,4437.82103,N,01056.96238,E,5.975,203.33,140422,,,A*6E

$GPRMC,140046.20,A,4437.82091,N,01056.96230,E,5.952,204.65,140422,,,A*6E

$GPRMC,140046.30,A,4437.82079,N,01056.96217,E,5.801,208.89,140422,,,A*65

$GPRMC,140046.40,A,4437.82064,N,01056.96204,E,6.441,208.66,140422,,,A*66

$GPRMC,140046.50,A,4437.82044,N,01056.96189,E,7.055,206.93,140422,,,A*67

$GPRMC,140046.60,A,4437.82031,N,01056.96177,E,6.727,208.05,140422,,,A*65

$GPGGA,140046.60,4437.82031,N,01056.96177,E,1,09,0.94,38.0,M,46.0,M,,*60

$GPRMC,140046.70,A,4437.82012,N,01056.96164,E,7.000,207.05,140422,,,A*6B

$GPRMC,140046.80,A,4437.81996,N,01056.96149,E,7.174,209.59,140422,,,A*68

$GPRMC,140046.90,A,4437.81979,N,01056.96137,E,7.134,209.08,140422,,,A*61

$GPRMC,140047.00,A,4437.81962,N,01056.96123,E,7.460,208.93,140422,,,A*61

$GPRMC,140047.10,A,4437.81947,N,01056.96108,E,7.397,210.84,140422,,,A*6E

$GPRMC,140047.20,A,4437.81929,N,01056.96093,E,7.468,211.32,140422,,,A*6D

$GPRMC,140047.30,A,4437.81912,N,01056.96078,E,7.517,210.84,140422,,,A*64

$GPRMC,140047.40,A,4437.81896,N,01056.96063,E,7.514,211.81,140422,,,A*63

$GPRMC,140047.50,A,4437.81879,N,01056.96045,E,7.753,213.93,140422,,,A*67

$GPRMC,140047.60,A,4437.81862,N,01056.96029,E,7.828,213.63,140422,,,A*68

$GPGGA,140047.60,4437.81862,N,01056.96029,E,1,08,1.20,37.8,M,46.0,M,,*6E

$GPRMC,140047.70,A,4437.81845,N,01056.96011,E,7.793,214.96,140422,,,A*65

$GPRMC,140047.80,A,4437.81826,N,01056.95993,E,8.061,214.42,140422,,,A*63

$GPRMC,140047.90,A,4437.81809,N,01056.95976,E,8.089,214.94,140422,,,A*69

$GPRMC,140048.00,A,4437.81790,N,01056.95959,E,7.987,214.00,140422,,,A*68

$GPRMC,140048.10,A,4437.81773,N,01056.95939,E,8.279,216.14,140422,,,A*60

$GPRMC,140048.20,A,4437.81756,N,01056.95921,E,8.085,216.56,140422,,,A*6A

$GPRMC,140048.30,A,4437.81737,N,01056.95902,E,8.279,215.10,140422,,,A*6D

$GPRMC,140048.40,A,4437.81721,N,01056.95883,E,8.125,215.74,140422,,,A*6D

$GPRMC,140048.50,A,4437.81705,N,01056.95864,E,8.263,216.90,140422,,,A*6B

$GPRMC,140048.60,A,4437.81687,N,01056.95844,E,8.499,216.61,140422,,,A*6C

$GPGGA,140048.60,4437.81687,N,01056.95844,E,1,09,0.87,37.6,M,46.0,M,,*67

$GPRMC,140048.70,A,4437.81669,N,01056.95822,E,8.639,217.30,140422,,,A*60

$GPRMC,140048.80,A,4437.81653,N,01056.95804,E,8.386,216.81,140422,,,A*68

$GPRMC,140048.90,A,4437.81633,N,01056.95782,E,8.788,216.95,140422,,,A*61

$GPRMC,140049.00,A,4437.81614,N,01056.95761,E,8.641,217.16,140422,,,A*6F

$GPRMC,140049.10,A,4437.81596,N,01056.95742,E,8.778,216.67,140422,,,A*6A

$GPRMC,140049.20,A,4437.81577,N,01056.95722,E,8.768,216.49,140422,,,A*6D

$GPRMC,140049.30,A,4437.81558,N,01056.95701,E,9.039,216.94,140422,,,A*62

$GPRMC,140049.40,A,4437.81538,N,01056.95681,E,9.151,216.75,140422,,,A*6A

$GPRMC,140049.50,A,4437.81517,N,01056.95660,E,9.327,215.70,140422,,,A*6C

$GPRMC,140049.60,A,4437.81498,N,01056.95639,E,9.453,217.20,140422,,,A*66

$GPGGA,140049.60,4437.81498,N,01056.95639,E,1,08,1.04,37.5,M,46.0,M,,*66

$GPRMC,140049.70,A,4437.81477,N,01056.95618,E,9.251,216.23,140422,,,A*63

$GPRMC,140049.80,A,4437.81456,N,01056.95596,E,9.463,216.68,140422,,,A*62

$GPRMC,140049.90,A,4437.81434,N,01056.95575,E,9.778,216.15,140422,,,A*69

$GPRMC,140050.00,A,4437.81413,N,01056.95554,E,9.633,215.46,140422,,,A*65

$GPRMC,140050.10,A,4437.81393,N,01056.95532,E,9.822,216.15,140422,,,A*60

$GPRMC,140050.20,A,4437.81370,N,01056.95511,E,9.709,215.28,140422,,,A*64

$GPRMC,140050.30,A,4437.81352,N,01056.95489,E,9.853,216.15,140422,,,A*68

$GPRMC,140050.40,A,4437.81330,N,01056.95466,E,9.816,216.15,140422,,,A*6B

$GPRMC,140050.50,A,4437.81306,N,01056.95446,E,9.864,214.22,140422,,,A*6E

$GPRMC,140050.60,A,4437.81288,N,01056.95423,E,9.864,215.99,140422,,,A*68

$GPGGA,140050.60,4437.81288,N,01056.95423,E,1,07,1.04,37.4,M,46.0,M,,*6E

$GPRMC,140050.70,A,4437.81266,N,01056.95401,E,10.068,215.88,140422,,,A*55

$GPRMC,140050.80,A,4437.81244,N,01056.95380,E,9.936,215.25,140422,,,A*69

$GPRMC,140050.90,A,4437.81224,N,01056.95357,E,9.958,216.25,140422,,,A*6F

$GPRMC,140051.00,A,4437.81203,N,01056.95339,E,9.712,214.43,140422,,,A*68

$GPRMC,140051.10,A,4437.81179,N,01056.95314,E,10.317,215.56,140422,,,A*54

$GPRMC,140051.20,A,4437.81161,N,01056.95291,E,10.103,217.03,140422,,,A*57

$GPRMC,140051.30,A,4437.81137,N,01056.95268,E,10.211,216.31,140422,,,A*53

$GPRMC,140051.40,A,4437.81114,N,01056.95245,E,10.428,216.34,140422,,,A*53

$GPRMC,140051.50,A,4437.81096,N,01056.95220,E,10.421,218.15,140422,,,A*5E

$GPRMC,140051.60,A,4437.81073,N,01056.95197,E,10.280,217.61,140422,,,A*58

$GPGGA,140051.60,4437.81073,N,01056.95197,E,1,08,1.12,37.5,M,46.0,M,,*6A

$GPRMC,140051.70,A,4437.81055,N,01056.95172,E,10.544,219.28,140422,,,A*5A

$GPRMC,140051.80,A,4437.81029,N,01056.95148,E,10.378,217.53,140422,,,A*5C

$GPRMC,140051.90,A,4437.81007,N,01056.95123,E,10.568,217.96,140422,,,A*52

$GPRMC,140052.00,A,4437.80983,N,01056.95096,E,10.765,218.26,140422,,,A*58

$GPRMC,140052.10,A,4437.80962,N,01056.95070,E,10.794,218.85,140422,,,A*59

$GPRMC,140052.20,A,4437.80937,N,01056.95044,E,10.616,218.34,140422,,,A*5C

$GPRMC,140052.30,A,4437.80912,N,01056.95018,E,10.837,217.82,140422,,,A*5C

$GPRMC,140052.40,A,4437.80892,N,01056.94991,E,11.037,218.96,140422,,,A*58

$GPRMC,140052.50,A,4437.80867,N,01056.94965,E,10.792,218.12,140422,,,A*5D

$GPRMC,140052.60,A,4437.80843,N,01056.94939,E,11.003,218.06,140422,,,A*5A

$GPGGA,140052.60,4437.80843,N,01056.94939,E,1,07,1.04,37.6,M,46.0,M,,*65

$GPRMC,140052.70,A,4437.80820,N,01056.94914,E,10.873,217.85,140422,,,A*5B

$GPRMC,140052.80,A,4437.80798,N,01056.94887,E,10.755,218.44,140422,,,A*5A

$GPRMC,140052.90,A,4437.80774,N,01056.94861,E,11.042,218.34,140422,,,A*56

$GPRMC,140053.00,A,4437.80752,N,01056.94832,E,11.004,219.66,140422,,,A*58

$GPRMC,140053.10,A,4437.80730,N,01056.94806,E,10.863,219.77,140422,,,A*52

$GPRMC,140053.20,A,4437.80707,N,01056.94779,E,11.011,219.82,140422,,,A*54

$GPRMC,140053.30,A,4437.80684,N,01056.94751,E,11.019,220.07,140422,,,A*5A

$GPRMC,140053.40,A,4437.80657,N,01056.94723,E,11.247,218.58,140422,,,A*5E

$GPRMC,140053.50,A,4437.80629,N,01056.94695,E,11.424,217.68,140422,,,A*55

$GPRMC,140053.60,A,4437.80604,N,01056.94666,E,11.426,218.45,140422,,,A*57

$GPGGA,140053.60,4437.80604,N,01056.94666,E,1,08,0.95,37.5,M,46.0,M,,*69

$GPRMC,140053.70,A,4437.80581,N,01056.94640,E,11.254,218.31,140422,,,A*5C

$GPRMC,140053.80,A,4437.80556,N,01056.94612,E,11.326,218.63,140422,,,A*5D

$GPRMC,140053.90,A,4437.80530,N,01056.94584,E,11.452,217.67,140422,,,A*5F

$GPRMC,140054.00,A,4437.80504,N,01056.94558,E,11.322,217.08,140422,,,A*5E

$GPRMC,140054.10,A,4437.80480,N,01056.94529,E,11.402,218.31,140422,,,A*54

$GPRMC,140054.20,A,4437.80456,N,01056.94503,E,11.243,217.84,140422,,,A*56

$GPRMC,140054.30,A,4437.80431,N,01056.94473,E,11.522,218.42,140422,,,A*55

$GPRMC,140054.40,A,4437.80408,N,01056.94444,E,11.261,219.58,140422,,,A*56

$GPRMC,140054.50,A,4437.80386,N,01056.94417,E,11.266,220.04,140422,,,A*54

$GPRMC,140054.60,A,4437.80362,N,01056.94390,E,11.224,219.31,140422,,,A*5F

$GPGGA,140054.60,4437.80362,N,01056.94390,E,1,08,0.95,37.4,M,46.0,M,,*66

$GPRMC,140054.70,A,4437.80335,N,01056.94361,E,11.537,218.61,140422,,,A*53

$GPRMC,140054.80,A,4437.80313,N,01056.94333,E,11.381,219.74,140422,,,A*51

$GPRMC,140054.90,A,4437.80286,N,01056.94305,E,11.560,217.95,140422,,,A*50

$GPRMC,140055.00,A,4437.80265,N,01056.94279,E,11.213,219.52,140422,,,A*59

$GPRMC,140055.10,A,4437.80239,N,01056.94250,E,11.728,218.32,140422,,,A*50

$GPRMC,140055.20,A,4437.80215,N,01056.94223,E,11.511,218.09,140422,,,A*59

$GPRMC,140055.30,A,4437.80190,N,01056.94194,E,11.570,218.59,140422,,,A*5B

$GPRMC,140055.40,A,4437.80167,N,01056.94164,E,11.562,219.42,140422,,,A*53

$GPRMC,140055.50,A,4437.80143,N,01056.94135,E,11.659,218.93,140422,,,A*56

$GPRMC,140055.60,A,4437.80121,N,01056.94106,E,11.498,219.90,140422,,,A*5C

$GPGGA,140055.60,4437.80121,N,01056.94106,E,1,07,1.27,37.5,M,46.0,M,,*69

$GPRMC,140055.70,A,4437.80098,N,01056.94076,E,11.472,220.58,140422,,,A*52

$GPRMC,140055.80,A,4437.80073,N,01056.94047,E,11.724,219.52,140422,,,A*5A

$GPRMC,140055.90,A,4437.80052,N,01056.94017,E,11.624,220.17,140422,,,A*57

$GPRMC,140056.00,A,4437.80030,N,01056.93989,E,11.580,220.06,140422,,,A*5D

$GPRMC,140056.10,A,4437.80005,N,01056.93959,E,11.636,219.69,140422,,,A*5A

$GPRMC,140056.20,A,4437.79980,N,01056.93930,E,11.669,219.65,140422,,,A*52

$GPRMC,140056.30,A,4437.79957,N,01056.93901,E,11.501,219.96,140422,,,A*5A

$GPRMC,140056.40,A,4437.79933,N,01056.93871,E,11.781,219.88,140422,,,A*5C

$GPRMC,140056.50,A,4437.79911,N,01056.93843,E,11.601,220.23,140422,,,A*5E

$GPRMC,140056.60,A,4437.79891,N,01056.93814,E,11.272,221.24,140422,,,A*50

$GPGGA,140056.60,4437.79891,N,01056.93814,E,1,07,1.27,37.7,M,46.0,M,,*61

$GPRMC,140056.70,A,4437.79866,N,01056.93787,E,11.583,220.33,140422,,,A*52

$GPRMC,140056.80,A,4437.79843,N,01056.93758,E,11.306,220.58,140422,,,A*5E

$GPRMC,140056.90,A,4437.79812,N,01056.93728,E,11.740,218.97,140422,,,A*52

$GPRMC,140057.00,A,4437.79783,N,01056.93701,E,11.966,217.05,140422,,,A*58

$GPRMC,140057.10,A,4437.79758,N,01056.93676,E,11.833,216.13,140422,,,A*59

$GPRMC,140057.20,A,4437.79730,N,01056.93650,E,11.810,215.27,140422,,,A*55

$GPRMC,140057.30,A,4437.79707,N,01056.93623,E,11.510,216.90,140422,,,A*56

$GPRMC,140057.40,A,4437.79676,N,01056.93592,E,12.237,216.43,140422,,,A*50

$GPRMC,140057.50,A,4437.79649,N,01056.93567,E,11.775,215.39,140422,,,A*59

$GPRMC,140057.60,A,4437.79625,N,01056.93538,E,11.937,217.29,140422,,,A*51

$GPGGA,140057.60,4437.79625,N,01056.93538,E,1,07,1.27,37.5,M,46.0,M,,*60

$GPRMC,140057.70,A,4437.79597,N,01056.93514,E,11.816,215.61,140422,,,A*58

$GPRMC,140057.80,A,4437.79573,N,01056.93485,E,11.754,216.75,140422,,,A*5B

$GPRMC,140057.90,A,4437.79550,N,01056.93459,E,11.699,217.45,140422,,,A*58

$GPRMC,140058.00,A,4437.79522,N,01056.93432,E,11.958,216.88,140422,,,A*54

$GPRMC,140058.10,A,4437.79500,N,01056.93400,E,11.999,219.34,140422,,,A*51

$GPRMC,140058.20,A,4437.79478,N,01056.93374,E,11.485,219.71,140422,,,A*59

$GPRMC,140058.30,A,4437.79455,N,01056.93346,E,11.685,220.32,140422,,,A*59

$GPRMC,140058.40,A,4437.79430,N,01056.93323,E,11.296,218.34,140422,,,A*55

$GPRMC,140058.50,A,4437.79408,N,01056.93295,E,11.610,219.01,140422,,,A*5E

$GPRMC,140058.60,A,4437.79382,N,01056.93267,E,11.721,218.81,140422,,,A*5F

$GPGGA,140058.60,4437.79382,N,01056.93267,E,1,06,2.27,37.9,M,46.0,M,,*64

$GPRMC,140058.70,A,4437.79357,N,01056.93236,E,11.710,219.01,140422,,,A*59

$GPRMC,140058.80,A,4437.79332,N,01056.93206,E,11.897,219.46,140422,,,A*55

$GPRMC,140058.90,A,4437.79292,N,01056.93183,E,12.453,213.61,140422,,,A*59

$GPRMC,140059.00,A,4437.79263,N,01056.93154,E,12.189,213.47,140422,,,A*53

$GPRMC,140059.10,A,4437.79234,N,01056.93130,E,12.129,212.47,140422,,,A*59

$GPRMC,140059.20,A,4437.79206,N,01056.93102,E,12.366,212.81,140422,,,A*59

$GPRMC,140059.30,A,4437.79178,N,01056.93073,E,12.247,213.58,140422,,,A*52

$GPRMC,140059.40,A,4437.79151,N,01056.93044,E,12.320,214.48,140422,,,A*5C

$GPRMC,140059.50,A,4437.79124,N,01056.93014,E,12.459,215.16,140422,,,A*59

$GPRMC,140059.60,A,4437.79097,N,01056.92984,E,12.494,215.85,140422,,,A*59

$GPGGA,140059.60,4437.79097,N,01056.92984,E,1,06,1.79,37.7,M,46.0,M,,*63

$GPRMC,140059.70,A,4437.79068,N,01056.92955,E,12.534,215.88,140422,,,A*52

$GPRMC,140059.80,A,4437.79039,N,01056.92929,E,12.341,215.30,140422,,,A*55

$GPRMC,140059.90,A,4437.79034,N,01056.92881,E,12.238,223.70,140422,,,A*54

$GPRMC,140100.00,A,4437.79010,N,01056.92856,E,12.083,223.44,140422,,,A*59

$GPRMC,140100.10,A,4437.78987,N,01056.92822,E,12.269,223.72,140422,,,A*5E

$GPRMC,140100.20,A,4437.78963,N,01056.92790,E,12.200,223.71,140422,,,A*5D

$GPRMC,140100.30,A,4437.78937,N,01056.92758,E,12.434,222.97,140422,,,A*51

$GPRMC,140100.40,A,4437.78913,N,01056.92726,E,12.428,222.73,140422,,,A*5E

$GPRMC,140100.50,A,4437.78892,N,01056.92688,E,12.370,223.93,140422,,,A*57

$GPRMC,140100.60,A,4437.78869,N,01056.92657,E,12.450,223.99,140422,,,A*5D

$GPGGA,140100.60,4437.78869,N,01056.92657,E,1,06,1.79,38.3,M,46.0,M,,*6C

$GPRMC,140100.70,A,4437.78850,N,01056.92617,E,12.446,225.86,140422,,,A*5D

$GPRMC,140100.80,A,4437.78833,N,01056.92579,E,12.358,227.67,140422,,,A*59

$GPRMC,140100.90,A,4437.78817,N,01056.92545,E,12.134,228.94,140422,,,A*5A

$GPRMC,140101.00,A,4437.78785,N,01056.92530,E,11.523,225.79,140422,,,A*5B

$GPRMC,140101.10,A,4437.78773,N,01056.92494,E,11.533,226.67,140422,,,A*51

$GPRMC,140101.20,A,4437.78748,N,01056.92469,E,11.508,224.72,140422,,,A*56

$GPRMC,140101.30,A,4437.78721,N,01056.92444,E,11.286,221.88,140422,,,A*56

$GPRMC,140101.40,A,4437.78698,N,01056.92418,E,11.603,220.55,140422,,,A*53

$GPRMC,140101.50,A,4437.78671,N,01056.92392,E,11.774,218.98,140422,,,A*5B

$GPRMC,140101.60,A,4437.78643,N,01056.92361,E,12.115,218.16,140422,,,A*51

$GPGGA,140101.60,4437.78643,N,01056.92361,E,1,06,1.27,39.3,M,46.0,M,,*61

$GPRMC,140101.70,A,4437.78616,N,01056.92333,E,11.897,217.69,140422,,,A*50

$GPRMC,140101.80,A,4437.78588,N,01056.92303,E,12.240,217.53,140422,,,A*52

$GPRMC,140101.90,A,4437.78563,N,01056.92273,E,12.162,217.91,140422,,,A*5D

$GPRMC,140102.00,A,4437.78542,N,01056.92241,E,12.130,219.26,140422,,,A*50

$GPRMC,140102.10,A,4437.78521,N,01056.92208,E,11.887,220.57,140422,,,A*53

$GPRMC,140102.20,A,4437.78498,N,01056.92181,E,12.038,220.81,140422,,,A*55

$GPRMC,140102.30,A,4437.78472,N,01056.92149,E,11.968,221.29,140422,,,A*58

$GPRMC,140102.40,A,4437.78444,N,01056.92122,E,12.126,220.24,140422,,,A*5A

$GPRMC,140102.50,A,4437.78416,N,01056.92092,E,12.137,219.70,140422,,,A*5D

$GPRMC,140102.60,A,4437.78390,N,01056.92064,E,11.959,219.08,140422,,,A*52

$GPGGA,140102.60,4437.78390,N,01056.92064,E,1,07,2.19,40.0,M,46.0,M,,*6D

$GPRMC,140102.70,A,4437.78357,N,01056.92039,E,12.369,217.17,140422,,,A*5A

$GPRMC,140102.80,A,4437.78326,N,01056.92011,E,12.111,216.07,140422,,,A*54

$GPRMC,140102.90,A,4437.78299,N,01056.91983,E,12.230,215.77,140422,,,A*55

$GPRMC,140103.00,A,4437.78274,N,01056.91952,E,11.967,216.49,140422,,,A*56

$GPRMC,140103.10,A,4437.78247,N,01056.91920,E,12.302,217.28,140422,,,A*5E

$GPRMC,140103.20,A,4437.78224,N,01056.91882,E,12.500,219.11,140422,,,A*51

$GPRMC,140103.30,A,4437.78210,N,01056.91840,E,12.391,223.29,140422,,,A*55

$GPRMC,140103.40,A,4437.78186,N,01056.91808,E,12.376,223.98,140422,,,A*51

$GPRMC,140103.50,A,4437.78161,N,01056.91776,E,12.297,223.51,140422,,,A*54

$GPRMC,140103.60,A,4437.78133,N,01056.91746,E,12.259,222.33,140422,,,A*54

$GPGGA,140103.60,4437.78133,N,01056.91746,E,1,06,2.19,40.5,M,46.0,M,,*67

$GPRMC,140103.70,A,4437.78107,N,01056.91717,E,12.128,221.36,140422,,,A*55

$GPRMC,140103.80,A,4437.78084,N,01056.91682,E,12.164,222.11,140422,,,A*53

$GPRMC,140103.90,A,4437.78058,N,01056.91653,E,11.957,221.40,140422,,,A*53

$GPRMC,140104.00,A,4437.78049,N,01056.91608,E,12.435,225.24,140422,,,A*5F

$GPRMC,140104.10,A,4437.78029,N,01056.91571,E,12.288,227.40,140422,,,A*55

$GPRMC,140104.20,A,4437.78001,N,01056.91545,E,12.018,225.54,140422,,,A*57

$GPRMC,140104.30,A,4437.77973,N,01056.91516,E,11.955,223.26,140422,,,A*53

$GPRMC,140104.40,A,4437.77947,N,01056.91485,E,11.830,222.32,140422,,,A*5E

$GPRMC,140104.50,A,4437.77919,N,01056.91457,E,11.920,221.14,140422,,,A*5C

$GPRMC,140104.60,A,4437.77891,N,01056.91429,E,11.863,219.92,140422,,,A*54

$GPGGA,140104.60,4437.77891,N,01056.91429,E,1,06,2.19,41.3,M,46.0,M,,*63

$GPRMC,140104.70,A,4437.77861,N,01056.91406,E,11.768,217.97,140422,,,A*58

$GPRMC,140104.80,A,4437.77832,N,01056.91378,E,11.923,216.87,140422,,,A*5E

$GPRMC,140104.90,A,4437.77807,N,01056.91347,E,12.049,217.08,140422,,,A*55

$GPRMC,140105.00,A,4437.77788,N,01056.91312,E,12.103,218.74,140422,,,A*5E

$GPRMC,140105.10,A,4437.77771,N,01056.91275,E,11.933,221.20,140422,,,A*5A

$GPRMC,140105.20,A,4437.77747,N,01056.91244,E,12.086,221.73,140422,,,A*5C

$GPRMC,140105.30,A,4437.77717,N,01056.91222,E,11.695,219.94,140422,,,A*5D

$GPRMC,140105.40,A,4437.77695,N,01056.91190,E,11.814,219.71,140422,,,A*57

$GPRMC,140105.50,A,4437.77672,N,01056.91159,E,11.779,219.62,140422,,,A*5C

$GPRMC,140105.60,A,4437.77650,N,01056.91128,E,11.524,220.13,140422,,,A*5F

$GPGGA,140105.60,4437.77650,N,01056.91128,E,1,07,1.00,42.2,M,46.0,M,,*6D

$GPRMC,140105.70,A,4437.77630,N,01056.91097,E,11.651,220.99,140422,,,A*5E

$GPRMC,140105.80,A,4437.77607,N,01056.91065,E,11.559,221.42,140422,,,A*54

$GPRMC,140105.90,A,4437.77564,N,01056.91048,E,11.849,217.00,140422,,,A*53

$GPRMC,140106.00,A,4437.77525,N,01056.91021,E,12.220,214.52,140422,,,A*51

$GPRMC,140106.10,A,4437.77490,N,01056.90997,E,12.281,212.71,140422,,,A*56

$GPRMC,140106.20,A,4437.77457,N,01056.90969,E,12.132,212.58,140422,,,A*5F

$GPRMC,140106.30,A,4437.77430,N,01056.90948,E,11.506,211.66,140422,,,A*52

$GPRMC,140106.40,A,4437.77407,N,01056.90923,E,11.052,212.44,140422,,,A*5B

$GPRMC,140106.50,A,4437.77387,N,01056.90894,E,10.630,215.03,140422,,,A*5F

$GPRMC,140106.60,A,4437.77368,N,01056.90868,E,10.090,217.25,140422,,,A*54

$GPGGA,140106.60,4437.77368,N,01056.90868,E,1,07,1.00,42.4,M,46.0,M,,*6A

$GPRMC,140106.70,A,4437.77340,N,01056.90851,E,9.828,215.69,140422,,,A*6C

$GPRMC,140106.80,A,4437.77320,N,01056.90834,E,9.248,214.65,140422,,,A*67

$GPRMC,140106.90,A,4437.77295,N,01056.90813,E,8.962,214.43,140422,,,A*6A

$GPRMC,140107.00,A,4437.77277,N,01056.90795,E,8.569,214.73,140422,,,A*6B

$GPRMC,140107.10,A,4437.77258,N,01056.90780,E,7.979,214.35,140422,,,A*63

$GPRMC,140107.20,A,4437.77244,N,01056.90762,E,7.412,215.63,140422,,,A*63

$GPRMC,140107.30,A,4437.77213,N,01056.90753,E,7.489,211.67,140422,,,A*60

$GPRMC,140107.40,A,4437.77198,N,01056.90738,E,6.931,211.76,140422,,,A*65

$GPRMC,140107.50,A,4437.77186,N,01056.90727,E,6.156,213.21,140422,,,A*6C

$GPRMC,140107.60,A,4437.77175,N,01056.90708,E,5.971,217.43,140422,,,A*60

$GPGGA,140107.60,4437.77175,N,01056.90708,E,1,07,1.00,42.7,M,46.0,M,,*6F

$GPRMC,140107.70,A,4437.77163,N,01056.90694,E,5.593,220.63,140422,,,A*64

$GPRMC,140107.80,A,4437.77141,N,01056.90689,E,5.534,215.65,140422,,,A*6A

$GPRMC,140107.90,A,4437.77126,N,01056.90678,E,5.027,214.18,140422,,,A*68

$GPRMC,140108.00,A,4437.77114,N,01056.90671,E,4.732,213.46,140422,,,A*68

$GPRMC,140108.10,A,4437.77098,N,01056.90668,E,4.626,208.62,140422,,,A*6C

$GPRMC,140108.20,A,4437.77087,N,01056.90664,E,3.978,206.12,140422,,,A*67

$GPRMC,140108.30,A,4437.77083,N,01056.90653,E,3.385,210.80,140422,,,A*62

$GPRMC,140108.40,A,4437.77075,N,01056.90647,E,3.237,212.04,140422,,,A*6F

$GPRMC,140108.50,A,4437.77067,N,01056.90640,E,3.547,212.42,140422,,,A*68

$GPRMC,140108.60,A,4437.77056,N,01056.90637,E,4.810,210.46,140422,,,A*67

$GPGGA,140108.60,4437.77056,N,01056.90637,E,1,09,0.87,43.1,M,46.0,M,,*6A

$GPRMC,140108.70,A,4437.77064,N,01056.90627,E,3.852,221.50,140422,,,A*62

$GPRMC,140108.80,A,4437.77060,N,01056.90614,E,3.750,234.78,140422,,,A*6A

$GPRMC,140108.90,A,4437.77054,N,01056.90621,E,2.905,234.68,140422,,,A*64

$GPRMC,140109.00,A,4437.77044,N,01056.90616,E,2.937,232.66,140422,,,A*60

$GPRMC,140109.10,A,4437.77030,N,01056.90621,E,3.291,218.19,140422,,,A*60

$GPRMC,140109.20,A,4437.77021,N,01056.90625,E,2.842,209.86,140422,,,A*64

$GPRMC,140109.30,A,4437.77010,N,01056.90611,E,3.369,210.05,140422,,,A*60

$GPRMC,140109.40,A,4437.77001,N,01056.90595,E,4.361,216.56,140422,,,A*67

$GPRMC,140109.50,A,4437.76998,N,01056.90581,E,3.959,228.59,140422,,,A*6F

$GPRMC,140109.60,A,4437.76990,N,01056.90567,E,3.841,234.23,140422,,,A*64

$GPGGA,140109.60,4437.76990,N,01056.90567,E,1,07,1.00,44.8,M,46.0,M,,*61

$GPRMC,140109.70,A,4437.76981,N,01056.90554,E,4.076,235.94,140422,,,A*63

$GPRMC,140109.80,A,4437.76960,N,01056.90553,E,4.547,220.67,140422,,,A*6B

$GPRMC,140109.90,A,4437.76944,N,01056.90562,E,4.344,206.22,140422,,,A*6E

$GPRMC,140110.00,A,4437.76925,N,01056.90555,E,4.983,199.54,140422,,,A*69

$GPRMC,140110.10,A,4437.76911,N,01056.90543,E,5.249,198.70,140422,,,A*63

$GPRMC,140110.20,A,4437.76902,N,01056.90531,E,4.681,201.71,140422,,,A*64

$GPRMC,140110.30,A,4437.76900,N,01056.90514,E,4.447,211.83,140422,,,A*64

$GPRMC,140110.40,A,4437.76895,N,01056.90497,E,4.427,221.69,140422,,,A*65

$GPRMC,140110.50,A,4437.76888,N,01056.90482,E,4.709,227.13,140422,,,A*68

$GPRMC,140110.60,A,4437.76885,N,01056.90466,E,4.749,232.47,140422,,,A*6D

$GPGGA,140110.60,4437.76885,N,01056.90466,E,1,08,0.92,46.3,M,46.0,M,,*60

$GPRMC,140110.70,A,4437.76880,N,01056.90449,E,4.727,236.39,140422,,,A*61

$GPRMC,140110.80,A,4437.76876,N,01056.90430,E,4.849,240.26,140422,,,A*61

$GPRMC,140110.90,A,4437.76873,N,01056.90413,E,4.814,242.92,140422,,,A*61

$GPRMC,140111.00,A,4437.76869,N,01056.90397,E,4.873,244.23,140422,,,A*64

$GPRMC,140111.10,A,4437.76865,N,01056.90380,E,4.895,245.50,140422,,,A*62

$GPRMC,140111.20,A,4437.76858,N,01056.90362,E,5.077,244.86,140422,,,A*6C

$GPRMC,140111.30,A,4437.76852,N,01056.90344,E,5.146,244.20,140422,,,A*6C

$GPRMC,140111.40,A,4437.76846,N,01056.90322,E,5.433,244.03,140422,,,A*68

$GPRMC,140111.50,A,4437.76840,N,01056.90303,E,5.479,243.54,140422,,,A*67

$GPRMC,140111.60,A,4437.76836,N,01056.90279,E,5.595,245.24,140422,,,A*6B

$GPGGA,140111.60,4437.76836,N,01056.90279,E,1,08,0.92,48.4,M,46.0,M,,*68

$GPRMC,140111.70,A,4437.76820,N,01056.90276,E,4.966,239.95,140422,,,A*62

$GPRMC,140111.80,A,4437.76809,N,01056.90265,E,4.966,234.21,140422,,,A*66

$GPRMC,140111.90,A,4437.76795,N,01056.90260,E,4.686,227.62,140422,,,A*6C

$GPRMC,140112.00,A,4437.76787,N,01056.90250,E,4.467,224.87,140422,,,A*63

$GPRMC,140112.10,A,4437.76780,N,01056.90240,E,4.542,223.41,140422,,,A*6F

$GPRMC,140112.20,A,4437.76767,N,01056.90233,E,4.476,219.23,140422,,,A*6A

$GPRMC,140112.30,A,4437.76754,N,01056.90225,E,4.561,216.45,140422,,,A*64

$GPRMC,140112.40,A,4437.76746,N,01056.90216,E,4.613,216.22,140422,,,A*67

$GPRMC,140112.50,A,4437.76735,N,01056.90206,E,4.665,216.81,140422,,,A*6B

$GPRMC,140112.60,A,4437.76724,N,01056.90191,E,4.957,218.82,140422,,,A*66

$GPGGA,140112.60,4437.76724,N,01056.90191,E,1,08,0.92,50.4,M,46.0,M,,*6B

$GPRMC,140112.70,A,4437.76712,N,01056.90182,E,5.019,217.41,140422,,,A*62

$GPRMC,140112.80,A,4437.76703,N,01056.90170,E,5.023,218.70,140422,,,A*64

$GPRMC,140112.90,A,4437.76705,N,01056.90166,E,4.224,221.03,140422,,,A*6E

$GPRMC,140113.00,A,4437.76700,N,01056.90157,E,4.319,223.41,140422,,,A*6A

$GPRMC,140113.10,A,4437.76703,N,01056.90147,E,3.828,230.39,140422,,,A*6A

$GPRMC,140113.20,A,4437.76704,N,01056.90137,E,3.970,237.02,140422,,,A*6A

$GPRMC,140113.30,A,4437.76709,N,01056.90138,E,3.059,238.40,140422,,,A*62

$GPRMC,140113.40,A,4437.76707,N,01056.90141,E,2.329,235.58,140422,,,A*64

$GPRMC,140113.50,A,4437.76711,N,01056.90138,E,2.070,238.53,140422,,,A*65

$GPRMC,140113.60,A,4437.76709,N,01056.90139,E,1.971,229.79,140422,,,A*6D

$GPGGA,140113.60,4437.76709,N,01056.90139,E,1,07,1.01,54.7,M,46.0,M,,*64

$GPRMC,140113.70,A,4437.76708,N,01056.90136,E,1.974,225.29,140422,,,A*6E

$GPRMC,140113.80,A,4437.76707,N,01056.90135,E,2.004,219.97,140422,,,A*6A

$GPRMC,140113.90,A,4437.76705,N,01056.90130,E,1.943,222.72,140422,,,A*66

$GPRMC,140114.00,A,4437.76702,N,01056.90118,E,2.497,234.43,140422,,,A*67

$GPRMC,140114.10,A,4437.76692,N,01056.90112,E,2.761,225.92,140422,,,A*62

$GPRMC,140114.20,A,4437.76686,N,01056.90100,E,3.071,226.20,140422,,,A*6A

$GPRMC,140114.30,A,4437.76677,N,01056.90090,E,3.249,224.61,140422,,,A*63

$GPRMC,140114.40,A,4437.76670,N,01056.90074,E,3.492,228.35,140422,,,A*64

$GPRMC,140114.50,A,4437.76662,N,01056.90062,E,3.470,228.35,140422,,,A*6D

$GPRMC,140114.60,A,4437.76656,N,01056.90046,E,3.547,231.97,140422,,,A*6A

$GPGGA,140114.60,4437.76656,N,01056.90046,E,1,08,0.92,58.2,M,46.0,M,,*6C

$GPRMC,140114.70,A,4437.76651,N,01056.90027,E,4.148,236.03,140422,,,A*6D

$GPRMC,140114.80,A,4437.76646,N,01056.90002,E,4.898,240.93,140422,,,A*6F

$GPRMC,140114.90,A,4437.76642,N,01056.89973,E,5.426,247.67,140422,,,A*69

$GPRMC,140115.00,A,4437.76641,N,01056.89942,E,6.018,254.07,140422,,,A*6E

$GPRMC,140115.10,A,4437.76639,N,01056.89908,E,6.698,257.75,140422,,,A*66

$GPRMC,140115.20,A,4437.76634,N,01056.89876,E,6.935,259.14,140422,,,A*61

$GPRMC,140115.30,A,4437.76629,N,01056.89848,E,6.903,259.33,140422,,,A*61

$GPRMC,140115.40,A,4437.76626,N,01056.89819,E,6.943,259.77,140422,,,A*69

$GPRMC,140115.50,A,4437.76624,N,01056.89791,E,6.854,260.40,140422,,,A*6C

$GPRMC,140115.60,A,4437.76617,N,01056.89763,E,6.684,259.16,140422,,,A*68

$GPGGA,140115.60,4437.76617,N,01056.89763,E,1,09,0.92,60.9,M,46.0,M,,*61

$GPRMC,140115.70,A,4437.76608,N,01056.89734,E,6.959,255.67,140422,,,A*60

$GPRMC,140115.80,A,4437.76603,N,01056.89697,E,7.367,255.37,140422,,,A*6F

$GPRMC,140115.90,A,4437.76597,N,01056.89661,E,7.893,255.20,140422,,,A*6F

$GPRMC,140116.00,A,4437.76596,N,01056.89622,E,7.932,258.42,140422,,,A*60

$GPRMC,140116.10,A,4437.76593,N,01056.89588,E,8.112,259.74,140422,,,A*66

$GPRMC,140116.20,A,4437.76589,N,01056.89551,E,8.300,260.34,140422,,,A*65

$GPRMC,140116.30,A,4437.76578,N,01056.89518,E,8.294,258.38,140422,,,A*6C

$GPRMC,140116.40,A,4437.76567,N,01056.89486,E,8.146,256.16,140422,,,A*6D

$GPRMC,140116.50,A,4437.76547,N,01056.89469,E,7.027,249.99,140422,,,A*6F

$GPRMC,140116.60,A,4437.76526,N,01056.89447,E,6.820,243.70,140422,,,A*64

$GPGGA,140116.60,4437.76526,N,01056.89447,E,1,09,0.95,63.0,M,46.0,M,,*6B

$GPRMC,140116.70,A,4437.76512,N,01056.89415,E,7.525,240.01,140422,,,A*69

$GPRMC,140116.80,A,4437.76502,N,01056.89380,E,7.847,240.59,140422,,,A*68

$GPRMC,140116.90,A,4437.76492,N,01056.89343,E,8.246,242.54,140422,,,A*65

$GPRMC,140117.00,A,4437.76486,N,01056.89306,E,8.401,245.58,140422,,,A*67

$GPRMC,140117.10,A,4437.76478,N,01056.89270,E,8.650,247.17,140422,,,A*68

$GPRMC,140117.20,A,4437.76467,N,01056.89236,E,8.878,246.95,140422,,,A*68

$GPRMC,140117.30,A,4437.76457,N,01056.89205,E,8.349,247.16,140422,,,A*69

$GPRMC,140117.40,A,4437.76444,N,01056.89173,E,8.566,246.40,140422,,,A*67

$GPRMC,140117.50,A,4437.76434,N,01056.89140,E,8.540,246.56,140422,,,A*62

$GPRMC,140117.60,A,4437.76423,N,01056.89106,E,8.593,246.60,140422,,,A*6E

$GPGGA,140117.60,4437.76423,N,01056.89106,E,1,09,0.87,65.2,M,46.0,M,,*69

$GPRMC,140117.70,A,4437.76416,N,01056.89068,E,8.712,247.98,140422,,,A*6D

$GPRMC,140117.80,A,4437.76397,N,01056.89038,E,8.652,245.97,140422,,,A*61

$GPRMC,140117.90,A,4437.76372,N,01056.89015,E,8.347,241.40,140422,,,A*6B

$GPRMC,140118.00,A,4437.76355,N,01056.88983,E,8.466,238.73,140422,,,A*65

$GPRMC,140118.10,A,4437.76345,N,01056.88944,E,8.834,239.92,140422,,,A*6B

$GPRMC,140118.20,A,4437.76331,N,01056.88904,E,9.166,241.46,140422,,,A*66

$GPRMC,140118.30,A,4437.76325,N,01056.88863,E,9.237,243.97,140422,,,A*6B

$GPRMC,140118.40,A,4437.76315,N,01056.88821,E,9.670,246.01,140422,,,A*64

$GPRMC,140118.50,A,4437.76302,N,01056.88781,E,9.763,246.92,140422,,,A*6F

$GPRMC,140118.60,A,4437.76292,N,01056.88742,E,9.652,247.90,140422,,,A*6B

$GPGGA,140118.60,4437.76292,N,01056.88742,E,1,08,0.95,66.7,M,46.0,M,,*69

$GPRMC,140118.70,A,4437.76276,N,01056.88708,E,9.688,246.85,140422,,,A*6C

$GPRMC,140118.80,A,4437.76258,N,01056.88672,E,9.739,245.45,140422,,,A*67

$GPRMC,140118.90,A,4437.76243,N,01056.88642,E,9.310,243.79,140422,,,A*69

$GPRMC,140119.00,A,4437.76227,N,01056.88612,E,9.173,242.12,140422,,,A*6D

$GPRMC,140119.10,A,4437.76216,N,01056.88576,E,9.320,241.89,140422,,,A*6A

$GPRMC,140119.20,A,4437.76202,N,01056.88550,E,8.705,241.34,140422,,,A*6C

$GPRMC,140119.30,A,4437.76176,N,01056.88521,E,8.996,239.29,140422,,,A*6C

$GPRMC,140119.50,A,4437.76142,N,01056.88472,E,8.690,236.75,140422,,,A*65

$GPRMC,140119.60,A,4437.76131,N,01056.88442,E,8.489,236.37,140422,,,A*6D

$GPRMC,140119.70,A,4437.76118,N,01056.88422,E,8.012,235.72,140422,,,A*65

$GPGGA,140119.70,4437.76118,N,01056.88422,E,1,09,0.87,69.0,M,46.0,M,,*67

$GPRMC,140119.80,A,4437.76085,N,01056.88410,E,8.098,230.38,140422,,,A*67

$GPRMC,140119.90,A,4437.76052,N,01056.88386,E,8.419,227.54,140422,,,A*65

$GPRMC,140120.00,A,4437.76017,N,01056.88360,E,8.988,226.45,140422,,,A*6B

$GPRMC,140120.10,A,4437.75984,N,01056.88333,E,9.257,226.58,140422,,,A*68

$GPRMC,140120.20,A,4437.75952,N,01056.88305,E,9.388,227.32,140422,,,A*6B

$GPRMC,140120.30,A,4437.75916,N,01056.88279,E,9.329,228.13,140422,,,A*67

$GPRMC,140120.40,A,4437.75887,N,01056.88249,E,9.441,229.29,140422,,,A*6B

$GPRMC,140120.50,A,4437.75857,N,01056.88221,E,9.657,229.59,140422,,,A*6B

$GPRMC,140120.60,A,4437.75821,N,01056.88190,E,9.984,230.38,140422,,,A*6E

$GPRMC,140120.70,A,4437.75784,N,01056.88159,E,10.093,231.21,140422,,,A*54

$GPGGA,140120.70,4437.75784,N,01056.88159,E,1,07,1.27,68.2,M,46.0,M,,*62

$GPRMC,140120.80,A,4437.75745,N,01056.88133,E,10.294,230.59,140422,,,A*51

$GPRMC,140120.90,A,4437.75707,N,01056.88103,E,10.352,230.69,140422,,,A*5D

$GPRMC,140121.00,A,4437.75667,N,01056.88075,E,10.545,230.51,140422,,,A*59

$GPRMC,140121.10,A,4437.75623,N,01056.88048,E,10.867,229.53,140422,,,A*51

$GPRMC,140121.20,A,4437.75553,N,01056.88045,E,11.154,221.32,140422,,,A*5C

$GPRMC,140121.30,A,4437.75509,N,01056.88029,E,11.251,216.29,140422,,,A*50

$GPRMC,140121.40,A,4437.75484,N,01056.87993,E,10.728,219.33,140422,,,A*5A

$GPRMC,140121.50,A,4437.75444,N,01056.87965,E,10.989,221.28,140422,,,A*5A

$GPRMC,140121.60,A,4437.75408,N,01056.87937,E,10.959,222.12,140422,,,A*51

$GPRMC,140121.70,A,4437.75366,N,01056.87913,E,11.180,221.62,140422,,,A*50

$GPGGA,140121.70,4437.75366,N,01056.87913,E,1,07,1.27,66.1,M,46.0,M,,*6F

$GPRMC,140121.80,A,4437.75327,N,01056.87890,E,10.910,220.97,140422,,,A*5B

$GPRMC,140121.90,A,4437.75279,N,01056.87877,E,11.014,216.33,140422,,,A*5E

$GPRMC,140122.00,A,4437.75244,N,01056.87849,E,10.886,217.21,140422,,,A*57

$GPRMC,140122.10,A,4437.75212,N,01056.87818,E,11.179,218.55,140422,,,A*55

$GPRMC,140122.30,A,4437.75155,N,01056.87753,E,11.827,219.37,140422,,,A*50

$GPRMC,140122.50,A,4437.75093,N,01056.87692,E,11.696,220.18,140422,,,A*52

$GPRMC,140122.60,A,4437.75050,N,01056.87668,E,12.096,217.19,140422,,,A*5B

$GPRMC,140122.70,A,4437.75021,N,01056.87628,E,11.943,217.60,140422,,,A*54

$GPRMC,140122.80,A,4437.74993,N,01056.87587,E,12.107,219.28,140422,,,A*55

$GPRMC,140122.90,A,4437.74965,N,01056.87551,E,12.064,220.03,140422,,,A*51

$GPGGA,140122.90,4437.74965,N,01056.87551,E,1,08,0.95,65.1,M,46.0,M,,*64

$GPRMC,140123.00,A,4437.74935,N,01056.87519,E,12.024,219.95,140422,,,A*51

$GPRMC,140123.10,A,4437.74908,N,01056.87484,E,11.718,220.45,140422,,,A*57

$GPRMC,140123.20,A,4437.74877,N,01056.87453,E,11.771,220.20,140422,,,A*5B

$GPRMC,140123.30,A,4437.74842,N,01056.87421,E,12.433,219.13,140422,,,A*55

$GPRMC,140123.40,A,4437.74814,N,01056.87393,E,11.606,219.47,140422,,,A*59

$GPRMC,140123.50,A,4437.74778,N,01056.87364,E,11.863,218.55,140422,,,A*5A

$GPRMC,140123.60,A,4437.74744,N,01056.87334,E,12.237,219.23,140422,,,A*5B

$GPRMC,140123.70,A,4437.74711,N,01056.87306,E,12.164,219.34,140422,,,A*58

$GPRMC,140123.80,A,4437.74677,N,01056.87278,E,11.909,218.24,140422,,,A*5E

$GPRMC,140123.90,A,4437.74645,N,01056.87246,E,12.025,219.38,140422,,,A*5B

$GPGGA,140123.90,4437.74645,N,01056.87246,E,1,09,0.87,64.4,M,46.0,M,,*6F

$GPRMC,140124.00,A,4437.74613,N,01056.87218,E,11.773,219.55,140422,,,A*51

$GPRMC,140124.10,A,4437.74582,N,01056.87190,E,11.927,221.05,140422,,,A*59

$GPRMC,140124.20,A,4437.74547,N,01056.87161,E,12.212,220.75,140422,,,A*55

$GPRMC,140124.30,A,4437.74515,N,01056.87131,E,11.982,221.34,140422,,,A*53

$GPRMC,140124.40,A,4437.74482,N,01056.87095,E,12.168,221.10,140422,,,A*5D

$GPRMC,140124.50,A,4437.74447,N,01056.87055,E,12.481,222.09,140422,,,A*50

$GPRMC,140124.60,A,4437.74411,N,01056.87024,E,12.406,221.00,140422,,,A*53

$GPRMC,140124.70,A,4437.74376,N,01056.86988,E,12.531,221.47,140422,,,A*5C

$GPRMC,140124.80,A,4437.74343,N,01056.86951,E,12.676,222.10,140422,,,A*50

$GPRMC,140124.90,A,4437.74308,N,01056.86919,E,12.599,221.95,140422,,,A*5E

$GPGGA,140124.90,4437.74308,N,01056.86919,E,1,09,0.95,63.0,M,46.0,M,,*64

$GPRMC,140125.00,A,4437.74273,N,01056.86882,E,12.759,222.43,140422,,,A*5E

$GPRMC,140125.10,A,4437.74236,N,01056.86844,E,12.769,221.07,140422,,,A*54

$GPRMC,140125.20,A,4437.74199,N,01056.86809,E,12.904,220.39,140422,,,A*51

$GPRMC,140125.30,A,4437.74164,N,01056.86772,E,13.051,221.58,140422,,,A*5F

$GPRMC,140125.40,A,4437.74129,N,01056.86736,E,12.899,221.03,140422,,,A*52

$GPRMC,140125.50,A,4437.74094,N,01056.86695,E,13.031,221.57,140422,,,A*56

$GPRMC,140125.60,A,4437.74060,N,01056.86656,E,12.856,220.64,140422,,,A*58

$GPRMC,140125.70,A,4437.74022,N,01056.86616,E,13.293,220.68,140422,,,A*55

$GPRMC,140125.80,A,4437.73988,N,01056.86577,E,12.956,219.79,140422,,,A*59

$GPRMC,140125.90,A,4437.73957,N,01056.86537,E,12.926,220.38,140422,,,A*56

$GPGGA,140125.90,4437.73957,N,01056.86537,E,1,09,0.87,61.0,M,46.0,M,,*63

$GPRMC,140126.00,A,4437.73922,N,01056.86502,E,13.033,218.42,140422,,,A*52

$GPRMC,140126.10,A,4437.73889,N,01056.86463,E,13.041,218.00,140422,,,A*56

$GPRMC,140126.20,A,4437.73856,N,01056.86426,E,13.168,216.55,140422,,,A*52

$GPRMC,140126.30,A,4437.73816,N,01056.86390,E,13.152,216.47,140422,,,A*57

$GPRMC,140126.40,A,4437.73779,N,01056.86357,E,13.215,214.98,140422,,,A*5D

$GPRMC,140126.50,A,4437.73738,N,01056.86332,E,13.145,213.67,140422,,,A*5B

$GPRMC,140126.60,A,4437.73697,N,01056.86305,E,13.223,212.90,140422,,,A*52

$GPRMC,140126.70,A,4437.73658,N,01056.86278,E,13.219,211.81,140422,,,A*51

$GPRMC,140126.80,A,4437.73623,N,01056.86247,E,13.247,209.74,140422,,,A*56

$GPRMC,140126.90,A,4437.73589,N,01056.86219,E,12.731,208.22,140422,,,A*58

$GPGGA,140126.90,4437.73589,N,01056.86219,E,1,08,0.95,59.2,M,46.0,M,,*6F

$GPRMC,140127.00,A,4437.73550,N,01056.86193,E,12.383,205.64,140422,,,A*57

$GPRMC,140127.10,A,4437.73517,N,01056.86166,E,12.018,205.81,140422,,,A*55

$GPRMC,140127.20,A,4437.73483,N,01056.86142,E,11.692,204.83,140422,,,A*58

$GPRMC,140127.30,A,4437.73447,N,01056.86123,E,11.642,201.93,140422,,,A*5F

$GPRMC,140127.40,A,4437.73413,N,01056.86104,E,11.327,200.11,140422,,,A*51

$GPRMC,140127.50,A,4437.73381,N,01056.86088,E,11.024,197.75,140422,,,A*56

$GPRMC,140127.60,A,4437.73349,N,01056.86077,E,10.870,195.97,140422,,,A*57

$GPRMC,140127.70,A,4437.73316,N,01056.86063,E,10.844,194.70,140422,,,A*56

$GPRMC,140127.80,A,4437.73287,N,01056.86050,E,10.668,193.33,140422,,,A*50

$GPRMC,140127.90,A,4437.73255,N,01056.86039,E,10.496,191.45,140422,,,A*51

$GPGGA,140127.90,4437.73255,N,01056.86039,E,1,09,0.95,58.1,M,46.0,M,,*6B

$GPRMC,140128.00,A,4437.73222,N,01056.86030,E,10.372,188.78,140422,,,A*55

$GPRMC,140128.10,A,4437.73187,N,01056.86025,E,10.505,184.46,140422,,,A*5B

$GPRMC,140128.20,A,4437.73153,N,01056.86020,E,10.383,181.77,140422,,,A*5B

$GPRMC,140128.30,A,4437.73119,N,01056.86018,E,10.212,178.97,140422,,,A*5E

$GPRMC,140128.40,A,4437.73083,N,01056.86017,E,10.351,177.95,140422,,,A*5F

$GPRMC,140128.50,A,4437.73052,N,01056.86019,E,9.704,174.36,140422,,,A*6A

$GPRMC,140128.60,A,4437.73021,N,01056.86019,E,9.482,173.27,140422,,,A*67

$GPRMC,140128.70,A,4437.72991,N,01056.86022,E,9.402,171.64,140422,,,A*60

$GPRMC,140128.80,A,4437.72957,N,01056.86026,E,9.535,170.08,140422,,,A*6F

$GPRMC,140128.90,A,4437.72927,N,01056.86034,E,9.494,167.22,140422,,,A*6E

$GPGGA,140128.90,4437.72927,N,01056.86034,E,1,09,0.87,56.8,M,46.0,M,,*62

$GPRMC,140129.00,A,4437.72898,N,01056.86040,E,9.403,165.94,140422,,,A*61

$GPRMC,140129.10,A,4437.72870,N,01056.86046,E,9.381,164.57,140422,,,A*63

$GPRMC,140129.20,A,4437.72847,N,01056.86057,E,9.319,160.39,140422,,,A*69

$GPRMC,140129.30,A,4437.72824,N,01056.86068,E,8.883,157.40,140422,,,A*62

$GPRMC,140129.40,A,4437.72798,N,01056.86080,E,9.200,154.62,140422,,,A*68

$GPRMC,140129.50,A,4437.72775,N,01056.86096,E,9.087,151.55,140422,,,A*61

$GPRMC,140129.60,A,4437.72753,N,01056.86113,E,9.058,148.05,140422,,,A*65

$GPRMC,140129.70,A,4437.72725,N,01056.86129,E,9.406,147.61,140422,,,A*6E

$GPRMC,140129.80,A,4437.72700,N,01056.86145,E,9.829,146.64,140422,,,A*69

$GPRMC,140129.90,A,4437.72677,N,01056.86164,E,9.908,143.91,140422,,,A*67

$GPGGA,140129.90,4437.72677,N,01056.86164,E,1,09,0.87,56.2,M,46.0,M,,*67

$GPRMC,140130.00,A,4437.72655,N,01056.86188,E,9.709,141.92,140422,,,A*6A

$GPRMC,140130.10,A,4437.72630,N,01056.86211,E,9.824,141.00,140422,,,A*60

$GPRMC,140130.20,A,4437.72611,N,01056.86235,E,9.336,139.67,140422,,,A*60

$GPRMC,140130.30,A,4437.72588,N,01056.86259,E,9.558,138.87,140422,,,A*69

$GPRMC,140130.40,A,4437.72561,N,01056.86282,E,10.064,138.84,140422,,,A*5E

$GPRMC,140130.50,A,4437.72543,N,01056.86304,E,9.449,137.59,140422,,,A*6C

$GPRMC,140130.60,A,4437.72520,N,01056.86328,E,9.595,136.59,140422,,,A*65

$GPRMC,140130.70,A,4437.72499,N,01056.86354,E,9.646,135.15,140422,,,A*6A

$GPRMC,140130.80,A,4437.72477,N,01056.86379,E,9.864,133.47,140422,,,A*65

$GPRMC,140130.90,A,4437.72453,N,01056.86405,E,10.115,132.82,140422,,,A*51

$GPGGA,140130.90,4437.72453,N,01056.86405,E,1,07,1.04,56.2,M,46.0,M,,*6D

$GPRMC,140131.00,A,4437.72431,N,01056.86433,E,10.173,131.68,140422,,,A*5F

$GPRMC,140131.10,A,4437.72407,N,01056.86464,E,10.043,131.56,140422,,,A*56

$GPRMC,140131.20,A,4437.72384,N,01056.86493,E,10.142,130.73,140422,,,A*57

$GPRMC,140131.30,A,4437.72360,N,01056.86522,E,10.527,130.33,140422,,,A*54

$GPRMC,140131.40,A,4437.72336,N,01056.86552,E,10.519,130.57,140422,,,A*58

$GPRMC,140131.50,A,4437.72312,N,01056.86579,E,10.038,131.18,140422,,,A*5A

$GPRMC,140131.60,A,4437.72296,N,01056.86608,E,10.189,128.01,140422,,,A*5A

$GPRMC,140131.70,A,4437.72274,N,01056.86634,E,9.805,128.45,140422,,,A*6D

$GPRMC,140131.80,A,4437.72252,N,01056.86667,E,10.211,128.36,140422,,,A*53

$GPRMC,140131.90,A,4437.72233,N,01056.86695,E,9.877,128.23,140422,,,A*6E

$GPGGA,140131.90,4437.72233,N,01056.86695,E,1,07,1.20,55.3,M,46.0,M,,*63

$GPRMC,140132.00,A,4437.72221,N,01056.86726,E,9.848,124.84,140422,,,A*63

$GPRMC,140132.10,A,4437.72196,N,01056.86759,E,10.160,125.64,140422,,,A*51

$GPRMC,140132.30,A,4437.72158,N,01056.86819,E,10.192,125.70,140422,,,A*52

$GPRMC,140132.40,A,4437.72134,N,01056.86849,E,10.527,126.49,140422,,,A*59

$GPRMC,140132.50,A,4437.72108,N,01056.86879,E,10.879,128.07,140422,,,A*56

$GPRMC,140132.60,A,4437.72085,N,01056.86910,E,10.863,128.49,140422,,,A*5E

$GPRMC,140132.70,A,4437.72057,N,01056.86940,E,11.074,129.99,140422,,,A*56

$GPRMC,140132.80,A,4437.72028,N,01056.86970,E,11.584,130.39,140422,,,A*5A

$GPRMC,140132.90,A,4437.72004,N,01056.87000,E,10.776,131.10,140422,,,A*5E

$GPRMC,140133.00,A,4437.71976,N,01056.87032,E,11.562,129.22,140422,,,A*56

$GPGGA,140133.00,4437.71976,N,01056.87032,E,1,08,0.95,54.5,M,46.0,M,,*6C

$GPRMC,140133.10,A,4437.71946,N,01056.87062,E,11.238,129.12,140422,,,A*5A

$GPRMC,140133.20,A,4437.71915,N,01056.87092,E,11.369,129.86,140422,,,A*58

$GPRMC,140133.30,A,4437.71888,N,01056.87126,E,11.357,128.18,140422,,,A*59

$GPRMC,140133.40,A,4437.71857,N,01056.87159,E,11.615,128.26,140422,,,A*5A

